[{"business_status": "OPERATIONAL", "geometry": {"location": {"lat": 40.1101926, "lng": -3.3849822}, "viewport": {"northeast": {"lat": 40.1115204302915, "lng": -3.383502369708498}, "southwest": {"lat": 40.1088224697085, "lng": -3.386200330291502}}}, "icon": "https://maps.gstatic.com/mapfiles/place_api/icons/v1/png_71/generic_business-71.png", "icon_background_color": "#7B9EB0", "icon_mask_base_uri": "https://maps.gstatic.com/mapfiles/place_api/icons/v2/generic_pinlet", "name": "Gimnasio Colmenar", "place_id": "ChIJg6SzR3FtQg0RMh6LtlFRm5Y", "plus_code": {"compound_code": "4J68+32 Colmenar de Oreja, Spain", "global_code": "8CGR4J68+32"}, "rating": 4.7, "reference": "ChIJg6SzR3FtQg0RMh6LtlFRm5Y", "scope": "GOOGLE", "types": ["gym", "point_of_interest", "health", "establishment"], "user_ratings_total": 14, "vicinity": "Calle del Cierzo, 15, Colmenar de Oreja"}, {"business_status": "OPERATIONAL", "geometry": {"location": {"lat": 40.1053831, "lng": -3.3834038}, "viewport": {"northeast": {"lat": 40.1067418302915, "lng": -3.381941119708499}, "southwest": {"lat": 40.1040438697085, "lng": -3.384639080291502}}}, "icon": "https://maps.gstatic.com/mapfiles/place_api/icons/v1/png_71/generic_business-71.png", "icon_background_color": "#7B9EB0", "icon_mask_base_uri": "https://maps.gstatic.com/mapfiles/place_api/icons/v2/generic_pinlet", "name": "Gimnasio Publico", "opening_hours": {"open_now": true}, "photos": [{"height": 4080, "html_attributions": ["<a href=\"https://maps.google.com/maps/contrib/103233943723551864210\">Santiago giraldo cardona</a>"], "photo_reference": "AWn5SU5jJMOjarpNfNcbWpslm8FOf5Gcxi6B6MTtgcX1HrNBe70HscXWtzoSyMGaoxPAtM2kM_1zVjTUITCCwRNepjZrs8P-BldD5Aw4yJnvff5FYOSsktoHRD7NTXFUe7KQBqEUaINwFMU_1BXJpoTQprIbEGNA8Ko53F0BO8-wFdxpYvEK4SAredxPFhJkjMX66GFJwmQTU4Hq_kF1-P_G_Ucf4kdNaw0CKqq2n3bF-JtU5l9u8-1nz4lXqZIiPcmjQoO4vxTkXdSKhQzIE5vJXYbKiX5py2r9P9s_pYsqvuPHUJBy7q0YMbE5HKoP52c4Eu5kB3ioF9T4TaiSpC-P6sEW7MxrMHbAJYxkJ7avd-Fk9sj4S80iogfElzAYJdUobAU3kxNfVkIBvOuFBxU-LlBCce-hoEN-ROkJ1tH05soqA1t5tG0hOqKOWEgrT7Q_px9AN3jY13mwW4ciqiDRz-SCnQ6wVLEAzYJ-IRRM4uu23TwWteX_aitF8dlpE3gFyI7zreYS69k6LrA0iga-MTl8sPQDka2DebRPPe5EbAemTe5-mShGUpZHuZX_EStCG8aMuCj_-cdkhkKoiZszS1Han6rK5Z0p_mRC_VFvM82y02Lu5BdmqMFpGRXiSVNqIqxsBw", "width": 3072}], "place_id": "ChIJ-wyHQgBtQg0RGwc0bfXa7i8", "plus_code": {"compound_code": "4J48+5J Colmenar de Oreja, Spain", "global_code": "8CGR4J48+5J"}, "rating": 5, "reference": "ChIJ-wyHQgBtQg0RGwc0bfXa7i8", "scope": "GOOGLE", "types": ["gym", "point_of_interest", "health", "establishment"], "user_ratings_total": 1, "vicinity": "Calle Vereda del Cristo, 2, Colmenar de Oreja"}, {"business_status": "OPERATIONAL", "geometry": {"location": {"lat": 40.1150855, "lng": -3.3934652}, "viewport": {"northeast": {"lat": 40.1164109802915, "lng": -3.392158869708498}, "southwest": {"lat": 40.1137130197085, "lng": -3.394856830291502}}}, "icon": "https://maps.gstatic.com/mapfiles/place_api/icons/v1/png_71/generic_business-71.png", "icon_background_color": "#7B9EB0", "icon_mask_base_uri": "https://maps.gstatic.com/mapfiles/place_api/icons/v2/generic_pinlet", "international_phone_number": "+34 918 94 34 44", "name": "Pabellon", "opening_hours": {"open_now": false}, "photos": [{"height": 3120, "html_attributions": ["<a href=\"https://maps.google.com/maps/contrib/105570987375160437617\">angeles sanchez</a>"], "photo_reference": "AWn5SU5ziRMASs_04Na-FJd5ifx-ZxZduiZ6_RTqBDVAQexGkkK_zdJbkY7wWudJQfSLUqY4R2sxj3AP255ZTpRIWaYHcpg0wBoWoup4k3EvzqIK2veBkbrJPF65924GaeXYNiGrmbon6QeAlAjlPYmKfWwMKp4tr2flEs1zQ9RqrQVmd6EgtJguhJcbmLpRhXoSBzUh8tZf-pDDL-pK-p59QcGD5kLBLqJcMiUyxSosmeNYJnlhLmrAXiwAqG2Rp6jqsqdWsxRwriMDpQOGSJrNfkcYscUq98rQQScGZ_PJHN8dtWAUsqyJuLP7GhAmu0G4SJ1W0sMYCig_KgFMM---AMRGpB7_sTUPj2NFDPB5tnlNo19EakRulCdqoXvdy11Wv6takNsLzEI1COghsEXeVzcUBw10qSxhmg_cBtoSc7RUZkE2se4HgZa_DwIt1M9I9_i7rkFgDMDYTG_nD8sLVbuslfjLPCeHLl1Jgf6QyEYh2eC8NtaKz7IQTd0e_e2gx-3BtbexXrqOxLVF9Hn_D-uhj55SDz7jy6bt0cWuzxJGZfaFFCV20sVcNWoARkhXqc3b1nM734TmELpkPRkfV5GA5Mo_F5hwaIpmu_InQ8zbaf33wsU-IMter2nRKQsmLni8qg", "width": 4160}], "place_id": "ChIJ2-qn7WxtQg0RMre0Hp5J0wQ", "plus_code": {"compound_code": "4J84+2J Colmenar de Oreja, Spain", "global_code": "8CGR4J84+2J"}, "rating": 4, "reference": "ChIJ2-qn7WxtQg0RMre0Hp5J0wQ", "scope": "GOOGLE", "types": ["gym", "point_of_interest", "health", "establishment"], "user_ratings_total": 1, "vicinity": "Calle de Madrid, 30, Colmenar de Oreja"}]