[{"business_status": "OPERATIONAL", "geometry": {"location": {"lat": 40.3654535, "lng": -3.3211798}, "viewport": {"northeast": {"lat": 40.3667941302915, "lng": -3.319775919708498}, "southwest": {"lat": 40.3640961697085, "lng": -3.322473880291501}}}, "icon": "https://maps.gstatic.com/mapfiles/place_api/icons/v1/png_71/generic_business-71.png", "icon_background_color": "#7B9EB0", "icon_mask_base_uri": "https://maps.gstatic.com/mapfiles/place_api/icons/v2/generic_pinlet", "name": "Real-Nueva", "place_id": "ChIJp00zrD9EQg0Rl46NpPwfoHw", "plus_code": {"compound_code": "9M8H+5G Pozuelo del Rey, Spain", "global_code": "8CGR9M8H+5G"}, "reference": "ChIJp00zrD9EQg0Rl46NpPwfoHw", "scope": "GOOGLE", "types": ["transit_station", "point_of_interest", "establishment"], "vicinity": "Spain"}, {"business_status": "OPERATIONAL", "geometry": {"location": {"lat": 40.3652007, "lng": -3.3203696}, "viewport": {"northeast": {"lat": 40.3665824802915, "lng": -3.319013319708498}, "southwest": {"lat": 40.3638845197085, "lng": -3.321711280291502}}}, "icon": "https://maps.gstatic.com/mapfiles/place_api/icons/v1/png_71/generic_business-71.png", "icon_background_color": "#7B9EB0", "icon_mask_base_uri": "https://maps.gstatic.com/mapfiles/place_api/icons/v2/generic_pinlet", "name": "Real-Nueva", "place_id": "ChIJs7zfsT9EQg0RqaBeXwNGrnk", "plus_code": {"compound_code": "9M8H+3V Pozuelo del Rey, Spain", "global_code": "8CGR9M8H+3V"}, "reference": "ChIJs7zfsT9EQg0RqaBeXwNGrnk", "scope": "GOOGLE", "types": ["transit_station", "point_of_interest", "establishment"], "vicinity": "Spain"}, {"business_status": "OPERATIONAL", "geometry": {"location": {"lat": 40.3670578, "lng": -3.315791399999999}, "viewport": {"northeast": {"lat": 40.3683865302915, "lng": -3.314361019708498}, "southwest": {"lat": 40.3656885697085, "lng": -3.317058980291502}}}, "icon": "https://maps.gstatic.com/mapfiles/place_api/icons/v1/png_71/generic_business-71.png", "icon_background_color": "#7B9EB0", "icon_mask_base_uri": "https://maps.gstatic.com/mapfiles/place_api/icons/v2/generic_pinlet", "name": "Olmo-Acacia", "photos": [{"height": 3120, "html_attributions": ["<a href=\"https://maps.google.com/maps/contrib/102108613560357732410\">lmaria luz martinez luengo</a>"], "photo_reference": "AWn5SU4rY-yrcAOCWTMy68JDXoG6WT08ps9VVnK5rSpU-7p-CZNKX2OKpCDyHMW9-QFU4Mm281pHg3FeIDD0ly0jZfXJz8k0ZLCkgxXTfBPeJwEYzwqyaOdrOQSjIahDX1fqP805uT1LNGWIPbmF6IgUnjael31SGLpFHr4Lx27sG1Zjd2AjLqC7-2l2iJ1b2_9M_weSr0zoRAevGtFaxp1SRzx-q-DfdkWx4_8yiGH3egZbASzgBY4vZ8mXw_Ra0nYlyGDLl0YXwH7jiNWSuaN77AhSCOQ99mrou9cPd64t4l-cCE6V9N3HOjkai-gwNvMd6yndMbI5X3WugVXU98Gp66x9ODsOeL6C_evc_LuQUQiYN4Lu1O4D-VwUhvJTlbuSkUoPtO-ntQvomsrm80PxurabOeYQKrv2rXvBw_DOxqfvYvx-Tztw9YJwtgYFPtNNZhvFWW_auHHTqjw_7mUDEQJJNJkaZzY9fqzEpTeUI7nkvTq2ywUDJHJVlY3zvesa76cmviJKa6_wYnZiTl2fYJZslR3q09AxAreMlZNbfqEqSA73RsBec6N2NA8rtTp73G4VuKXTfPxojf-bME-yzca_FZ9jUcFtdpJy7h43tQs_ODCjTCOh8qicFon60gVs", "width": 4160}], "place_id": "ChIJhbp7GUFEQg0RHWd06QB6CmY", "plus_code": {"compound_code": "9M8M+RM Pozuelo del Rey, Spain", "global_code": "8CGR9M8M+RM"}, "rating": 3.7, "reference": "ChIJhbp7GUFEQg0RHWd06QB6CmY", "scope": "GOOGLE", "types": ["transit_station", "point_of_interest", "establishment"], "user_ratings_total": 3, "vicinity": "Spain"}, {"business_status": "OPERATIONAL", "geometry": {"location": {"lat": 40.3694229, "lng": -3.2962143}, "viewport": {"northeast": {"lat": 40.3707000302915, "lng": -3.294866869708498}, "southwest": {"lat": 40.3680020697085, "lng": -3.297564830291502}}}, "icon": "https://maps.gstatic.com/mapfiles/place_api/icons/v1/png_71/generic_business-71.png", "icon_background_color": "#7B9EB0", "icon_mask_base_uri": "https://maps.gstatic.com/mapfiles/place_api/icons/v2/generic_pinlet", "name": "Ctra.M219-Residencia Tercera Edad", "place_id": "ChIJZ0BofvZEQg0RpzmjuXEYp5k", "plus_code": {"compound_code": "9P93+QG Pozuelo del Rey, Spain", "global_code": "8CGR9P93+QG"}, "reference": "ChIJZ0BofvZEQg0RpzmjuXEYp5k", "scope": "GOOGLE", "types": ["transit_station", "point_of_interest", "establishment"], "vicinity": "Spain"}, {"business_status": "OPERATIONAL", "geometry": {"location": {"lat": 40.36921, "lng": -3.29611}, "viewport": {"northeast": {"lat": 40.3705928802915, "lng": -3.294760269708498}, "southwest": {"lat": 40.3678949197085, "lng": -3.297458230291502}}}, "icon": "https://maps.gstatic.com/mapfiles/place_api/icons/v1/png_71/generic_business-71.png", "icon_background_color": "#7B9EB0", "icon_mask_base_uri": "https://maps.gstatic.com/mapfiles/place_api/icons/v2/generic_pinlet", "name": "Ctra.M219-Residencia Tercera Edad", "place_id": "ChIJL8VN1fVEQg0RYF5raEpvxsM", "plus_code": {"compound_code": "9P93+MH Pozuelo del Rey, Spain", "global_code": "8CGR9P93+MH"}, "reference": "ChIJL8VN1fVEQg0RYF5raEpvxsM", "scope": "GOOGLE", "types": ["transit_station", "point_of_interest", "establishment"], "vicinity": "Spain"}]