[{"business_status": "OPERATIONAL", "geometry": {"location": {"lat": 40.25619129999999, "lng": -3.2348075}, "viewport": {"northeast": {"lat": 40.25755853029149, "lng": -3.233515069708498}, "southwest": {"lat": 40.2548605697085, "lng": -3.236213030291502}}}, "icon": "https://maps.gstatic.com/mapfiles/place_api/icons/v1/png_71/generic_business-71.png", "icon_background_color": "#7B9EB0", "icon_mask_base_uri": "https://maps.gstatic.com/mapfiles/place_api/icons/v2/generic_pinlet", "name": "Av.Tielmes-Quiosco", "place_id": "ChIJv_BmS4xnQg0R4OF_k5b4tBk", "plus_code": {"compound_code": "7Q48+F3 Carabaña, Spain", "global_code": "8CGR7Q48+F3"}, "rating": 5, "reference": "ChIJv_BmS4xnQg0R4OF_k5b4tBk", "scope": "GOOGLE", "types": ["transit_station", "point_of_interest", "establishment"], "user_ratings_total": 1, "vicinity": "Spain"}, {"business_status": "OPERATIONAL", "geometry": {"location": {"lat": 40.2561736, "lng": -3.2349678}, "viewport": {"northeast": {"lat": 40.2575309302915, "lng": -3.233643269708498}, "southwest": {"lat": 40.2548329697085, "lng": -3.236341230291502}}}, "icon": "https://maps.gstatic.com/mapfiles/place_api/icons/v1/png_71/generic_business-71.png", "icon_background_color": "#7B9EB0", "icon_mask_base_uri": "https://maps.gstatic.com/mapfiles/place_api/icons/v2/generic_pinlet", "name": "Av.Tielmes-Estación de Servicio", "place_id": "ChIJQVmrTYxnQg0RQyX4LfrLwiY", "plus_code": {"compound_code": "7Q48+F2 Carabaña, Spain", "global_code": "8CGR7Q48+F2"}, "rating": 4.3, "reference": "ChIJQVmrTYxnQg0RQyX4LfrLwiY", "scope": "GOOGLE", "types": ["transit_station", "point_of_interest", "establishment"], "user_ratings_total": 3, "vicinity": "Spain"}, {"business_status": "OPERATIONAL", "geometry": {"location": {"lat": 40.2579966, "lng": -3.2332684}, "viewport": {"northeast": {"lat": 40.2593393802915, "lng": -3.231910019708498}, "southwest": {"lat": 40.25664141970851, "lng": -3.234607980291502}}}, "icon": "https://maps.gstatic.com/mapfiles/place_api/icons/v1/png_71/generic_business-71.png", "icon_background_color": "#7B9EB0", "icon_mask_base_uri": "https://maps.gstatic.com/mapfiles/place_api/icons/v2/generic_pinlet", "name": "Av.Tielmes-Piscinas", "place_id": "ChIJI7Php45nQg0R9ib2mJCz4nU", "plus_code": {"compound_code": "7Q58+5M Carabaña, Spain", "global_code": "8CGR7Q58+5M"}, "rating": 4, "reference": "ChIJI7Php45nQg0R9ib2mJCz4nU", "scope": "GOOGLE", "types": ["transit_station", "point_of_interest", "establishment"], "user_ratings_total": 1, "vicinity": "Spain"}, {"business_status": "OPERATIONAL", "geometry": {"location": {"lat": 40.2582932, "lng": -3.2327332}, "viewport": {"northeast": {"lat": 40.2596564802915, "lng": -3.231402819708498}, "southwest": {"lat": 40.2569585197085, "lng": -3.234100780291501}}}, "icon": "https://maps.gstatic.com/mapfiles/place_api/icons/v1/png_71/generic_business-71.png", "icon_background_color": "#7B9EB0", "icon_mask_base_uri": "https://maps.gstatic.com/mapfiles/place_api/icons/v2/generic_pinlet", "name": "Av.Tielmes-Piscinas", "place_id": "ChIJ55hQro5nQg0RkNv3DKVgRJw", "plus_code": {"compound_code": "7Q58+8W Carabaña, Spain", "global_code": "8CGR7Q58+8W"}, "reference": "ChIJ55hQro5nQg0RkNv3DKVgRJw", "scope": "GOOGLE", "types": ["transit_station", "point_of_interest", "establishment"], "vicinity": "Spain"}, {"business_status": "OPERATIONAL", "geometry": {"location": {"lat": 40.2535782, "lng": -3.2353511}, "viewport": {"northeast": {"lat": 40.2549235302915, "lng": -3.234056319708498}, "southwest": {"lat": 40.2522255697085, "lng": -3.236754280291501}}}, "icon": "https://maps.gstatic.com/mapfiles/place_api/icons/v1/png_71/generic_business-71.png", "icon_background_color": "#7B9EB0", "icon_mask_base_uri": "https://maps.gstatic.com/mapfiles/place_api/icons/v2/generic_pinlet", "name": "Av.Tielmes-Santa Lucía", "photos": [{"height": 3000, "html_attributions": ["<a href=\"https://maps.google.com/maps/contrib/114774698051879566955\">Marcela Corea</a>"], "photo_reference": "AWn5SU5jbv8FNhu-mGNA6Ol1Key6UWxlyt9lqwyvhH8T-73ODjI6c-tL2Owfw-v37Rbv2U4k_qbMuhPS4YpAnkrhJJ23SlfD2yWTKFl2gDcAq4p_ms0zPmt924nQ4FVWwK6-enrSHQYGf9zr_wuEpYmXXXdqa3OItcdZMPRsujcpBgwyH2T5n6UVlM8vuyXAoQ6NqfyaVElUUw7xRZeDnCZVuHm8tZyhRhmMf8olPl3z9wK0LzqzRlPw9rgxT7HX_Xq9mZ6MHy_vbRgo5q31URPMcMNDdAYZ--mW1oKQlH6Zybw--j2u4I2Sh9AiWFYfQjL5QKGGKbSBPrjaVro1Car8ogmoCHAS90Hg8oi8x7KT2vmL4iWF15s-AUh6yRHJXa2rWxsRaboSDK_sHCzzqcOKLW2cI1CPrdIGLipLRons-Nm_3y_bBGrViA7G_5ydXAmXejxFF6RZ9hWo-kfhuwwG7HkNNcDh4T7nn82cWKYJ2zmc2EY-L8-BamxTeUm5dBMwF8ErYYL6-Wk0_zQHYa4vFsvSjJUEOpzD_8_zI9idNH05ucz0-8lOQm2BRJq8zo5WnrGnGTz-oN_W9zdkPfY_CBoWBpTQXf3ggMHuR0ayGjibq4BKd2UpPgqUG0Q-2baGlZksZGMvfW6iPszoc1LKK8Nymdc", "width": 4000}], "place_id": "ChIJt3SieJJnQg0RxlmuL6LaLOo", "plus_code": {"compound_code": "7Q37+CV Carabaña, Spain", "global_code": "8CGR7Q37+CV"}, "rating": 5, "reference": "ChIJt3SieJJnQg0RxlmuL6LaLOo", "scope": "GOOGLE", "types": ["transit_station", "point_of_interest", "establishment"], "user_ratings_total": 1, "vicinity": "Spain"}, {"business_status": "OPERATIONAL", "geometry": {"location": {"lat": 40.2532425, "lng": -3.2355733}, "viewport": {"northeast": {"lat": 40.25462453029149, "lng": -3.234228819708498}, "southwest": {"lat": 40.25192656970849, "lng": -3.236926780291502}}}, "icon": "https://maps.gstatic.com/mapfiles/place_api/icons/v1/png_71/generic_business-71.png", "icon_background_color": "#7B9EB0", "icon_mask_base_uri": "https://maps.gstatic.com/mapfiles/place_api/icons/v2/generic_pinlet", "name": "Av.Tielmes-Santa Lucía", "place_id": "ChIJV7stfJJnQg0RplgBsYzHJrQ", "plus_code": {"compound_code": "7Q37+7Q Carabaña, Spain", "global_code": "8CGR7Q37+7Q"}, "rating": 5, "reference": "ChIJV7stfJJnQg0RplgBsYzHJrQ", "scope": "GOOGLE", "types": ["transit_station", "point_of_interest", "establishment"], "user_ratings_total": 1, "vicinity": "Spain"}, {"business_status": "OPERATIONAL", "geometry": {"location": {"lat": 40.260788, "lng": -3.2296371}, "viewport": {"northeast": {"lat": 40.2621331802915, "lng": -3.228255419708498}, "southwest": {"lat": 40.2594352197085, "lng": -3.230953380291501}}}, "icon": "https://maps.gstatic.com/mapfiles/place_api/icons/v1/png_71/generic_business-71.png", "icon_background_color": "#7B9EB0", "icon_mask_base_uri": "https://maps.gstatic.com/mapfiles/place_api/icons/v2/generic_pinlet", "name": "Av.Tielmes-CºValhondo", "place_id": "ChIJE8148ohnQg0Ralbbb0s4i4k", "plus_code": {"compound_code": "7Q6C+84 Carabaña, Spain", "global_code": "8CGR7Q6C+84"}, "reference": "ChIJE8148ohnQg0Ralbbb0s4i4k", "scope": "GOOGLE", "types": ["transit_station", "point_of_interest", "establishment"], "vicinity": "Spain"}, {"business_status": "OPERATIONAL", "geometry": {"location": {"lat": 40.26090619999999, "lng": -3.2294259}, "viewport": {"northeast": {"lat": 40.26226163029149, "lng": -3.228131669708498}, "southwest": {"lat": 40.25956366970849, "lng": -3.230829630291502}}}, "icon": "https://maps.gstatic.com/mapfiles/place_api/icons/v1/png_71/generic_business-71.png", "icon_background_color": "#7B9EB0", "icon_mask_base_uri": "https://maps.gstatic.com/mapfiles/place_api/icons/v2/generic_pinlet", "name": "Av.Tielmes-CºValhondo", "place_id": "ChIJ2yEwjYhnQg0RcusXKEgivXA", "plus_code": {"compound_code": "7Q6C+96 Carabaña, Spain", "global_code": "8CGR7Q6C+96"}, "reference": "ChIJ2yEwjYhnQg0RcusXKEgivXA", "scope": "GOOGLE", "types": ["transit_station", "point_of_interest", "establishment"], "vicinity": "Spain"}, {"business_status": "OPERATIONAL", "geometry": {"location": {"lat": 40.24776, "lng": -3.24128}, "viewport": {"northeast": {"lat": 40.2491118302915, "lng": -3.239933269708498}, "southwest": {"lat": 40.2464138697085, "lng": -3.242631230291502}}}, "icon": "https://maps.gstatic.com/mapfiles/place_api/icons/v1/png_71/generic_business-71.png", "icon_background_color": "#7B9EB0", "icon_mask_base_uri": "https://maps.gstatic.com/mapfiles/place_api/icons/v2/generic_pinlet", "name": "Ctra.M204-Casa de la Luz", "place_id": "ChIJ7_rCketnQg0R_l2VFhvvghY", "plus_code": {"compound_code": "6QX5+4F Carabaña, Spain", "global_code": "8CGR6QX5+4F"}, "rating": 5, "reference": "ChIJ7_rCketnQg0R_l2VFhvvghY", "scope": "GOOGLE", "types": ["transit_station", "point_of_interest", "establishment"], "user_ratings_total": 1, "vicinity": "Spain"}, {"business_status": "OPERATIONAL", "geometry": {"location": {"lat": 40.24767, "lng": -3.24173}, "viewport": {"northeast": {"lat": 40.24901893029149, "lng": -3.240382169708499}, "southwest": {"lat": 40.2463209697085, "lng": -3.243080130291502}}}, "icon": "https://maps.gstatic.com/mapfiles/place_api/icons/v1/png_71/generic_business-71.png", "icon_background_color": "#7B9EB0", "icon_mask_base_uri": "https://maps.gstatic.com/mapfiles/place_api/icons/v2/generic_pinlet", "name": "Ctra.M204-Casilla de la Luz", "place_id": "ChIJ94Jij-tnQg0R3ZjtS1sGlI4", "plus_code": {"compound_code": "6QX5+38 Carabaña, Spain", "global_code": "8CGR6QX5+38"}, "reference": "ChIJ94Jij-tnQg0R3ZjtS1sGlI4", "scope": "GOOGLE", "types": ["transit_station", "point_of_interest", "establishment"], "vicinity": "Spain"}, {"business_status": "OPERATIONAL", "geometry": {"location": {"lat": 40.24672999999999, "lng": -3.248269999999999}, "viewport": {"northeast": {"lat": 40.2480861302915, "lng": -3.246921919708498}, "southwest": {"lat": 40.24538816970851, "lng": -3.249619880291502}}}, "icon": "https://maps.gstatic.com/mapfiles/place_api/icons/v1/png_71/generic_business-71.png", "icon_background_color": "#7B9EB0", "icon_mask_base_uri": "https://maps.gstatic.com/mapfiles/place_api/icons/v2/generic_pinlet", "name": "Ctra.M204-La Venta", "place_id": "ChIJ5dtmIOZnQg0RH-w-fCsT_uk", "plus_code": {"compound_code": "6QW2+MM Carabaña, Spain", "global_code": "8CGR6QW2+MM"}, "reference": "ChIJ5dtmIOZnQg0RH-w-fCsT_uk", "scope": "GOOGLE", "types": ["transit_station", "point_of_interest", "establishment"], "vicinity": "Spain"}, {"business_status": "OPERATIONAL", "geometry": {"location": {"lat": 40.2468452, "lng": -3.248708}, "viewport": {"northeast": {"lat": 40.24814163029149, "lng": -3.247353369708498}, "southwest": {"lat": 40.24544366970849, "lng": -3.250051330291502}}}, "icon": "https://maps.gstatic.com/mapfiles/place_api/icons/v1/png_71/generic_business-71.png", "icon_background_color": "#7B9EB0", "icon_mask_base_uri": "https://maps.gstatic.com/mapfiles/place_api/icons/v2/generic_pinlet", "name": "Ctra.M204-La Venta", "place_id": "ChIJLVx1IuZnQg0RyVX2KTW3uYo", "plus_code": {"compound_code": "6QW2+PG Carabaña, Spain", "global_code": "8CGR6QW2+PG"}, "reference": "ChIJLVx1IuZnQg0RyVX2KTW3uYo", "scope": "GOOGLE", "types": ["transit_station", "point_of_interest", "establishment"], "vicinity": "Spain"}, {"business_status": "OPERATIONAL", "geometry": {"location": {"lat": 40.2696724, "lng": -3.2236571}, "viewport": {"northeast": {"lat": 40.2710373802915, "lng": -3.222344769708498}, "southwest": {"lat": 40.2683394197085, "lng": -3.225042730291502}}}, "icon": "https://maps.gstatic.com/mapfiles/place_api/icons/v1/png_71/generic_business-71.png", "icon_background_color": "#7B9EB0", "icon_mask_base_uri": "https://maps.gstatic.com/mapfiles/place_api/icons/v2/generic_pinlet", "name": "Ctra.M204-Casas Las Laderas", "place_id": "ChIJDQ1N-ntdQg0Ro_T4G20LYm8", "plus_code": {"compound_code": "7Q9G+VG Orusco de Tajuña, Spain", "global_code": "8CGR7Q9G+VG"}, "reference": "ChIJDQ1N-ntdQg0Ro_T4G20LYm8", "scope": "GOOGLE", "types": ["transit_station", "point_of_interest", "establishment"], "vicinity": "Spain"}, {"business_status": "OPERATIONAL", "geometry": {"location": {"lat": 40.2708969, "lng": -3.2235317}, "viewport": {"northeast": {"lat": 40.27224008029149, "lng": -3.222121069708498}, "southwest": {"lat": 40.26954211970849, "lng": -3.224819030291502}}}, "icon": "https://maps.gstatic.com/mapfiles/place_api/icons/v1/png_71/generic_business-71.png", "icon_background_color": "#7B9EB0", "icon_mask_base_uri": "https://maps.gstatic.com/mapfiles/place_api/icons/v2/generic_pinlet", "name": "Ctra.M204-Casas Las Laderas", "place_id": "ChIJharo23tdQg0R8C6MZv9cPEE", "plus_code": {"compound_code": "7QCG+9H Orusco de Tajuña, Spain", "global_code": "8CGR7QCG+9H"}, "reference": "ChIJharo23tdQg0R8C6MZv9cPEE", "scope": "GOOGLE", "types": ["transit_station", "point_of_interest", "establishment"], "vicinity": "Spain"}, {"business_status": "OPERATIONAL", "geometry": {"location": {"lat": 40.24524, "lng": -3.25978}, "viewport": {"northeast": {"lat": 40.2465499802915, "lng": -3.258421269708498}, "southwest": {"lat": 40.24385201970851, "lng": -3.261119230291502}}}, "icon": "https://maps.gstatic.com/mapfiles/place_api/icons/v1/png_71/generic_business-71.png", "icon_background_color": "#7B9EB0", "icon_mask_base_uri": "https://maps.gstatic.com/mapfiles/place_api/icons/v2/generic_pinlet", "name": "Ctra.M204-Manantial de Aguas", "place_id": "ChIJW8pk9QpoQg0RatRSc8X-UOE", "plus_code": {"compound_code": "6PWR+33 Carabaña, Spain", "global_code": "8CGR6PWR+33"}, "reference": "ChIJW8pk9QpoQg0RatRSc8X-UOE", "scope": "GOOGLE", "types": ["transit_station", "point_of_interest", "establishment"], "vicinity": "Spain"}]