[{"business_status": "OPERATIONAL", "geometry": {"location": {"lat": 40.60130220000001, "lng": -3.914917400000001}, "viewport": {"northeast": {"lat": 40.6026441302915, "lng": -3.913583469708498}, "southwest": {"lat": 40.5999461697085, "lng": -3.916281430291503}}}, "icon": "https://maps.gstatic.com/mapfiles/place_api/icons/v1/png_71/park-71.png", "icon_background_color": "#4DB546", "icon_mask_base_uri": "https://maps.gstatic.com/mapfiles/place_api/icons/v2/tree_pinlet", "name": "Berzalejo", "opening_hours": {"open_now": true}, "photos": [{"height": 2160, "html_attributions": ["<a href=\"https://maps.google.com/maps/contrib/115975220063586943268\">-SRG LIFE-</a>"], "photo_reference": "AWn5SU5GQ_6ROXdM27MMxkCM3C053iS3638a7FgTwO2TR92-nSHao-GJ2u8QJ1-CQj9axsm_ayfvZ0dMR3k4W-KY4z95U10BtFTkNPH5WspDXPq_dhFGZPWNKTecqT8r-N_eRiLLBjTzj6F6ULcYQMaYzTt0eDyF7vQ-N74pyCpgE9EoW66sF22Kk4OrpAI5Clk_PspUP2q9pCtjGF6d7IWzRUiiVWIOLn3WgF8PSsNRWRx1itgq0pJu_kIeqC0b91B4035RhmC6tDGOqcfbFikrI_pr5UKAWYoyCu6Hq9yvmPTH6gRio-FmHAk1Bh_7rV6kaIcHkBGqDV3VEOQq40Dc7eVqjFXO9783hzvWY6Vbj57eu0A0blYr7Cqb6xyPp6awtBGO9ZuTUPz4Nd_aqgJPtNH_Z36Uv72gCiNuDziMgBC44VHjTW6UFgXHCu8UEaGWlDJ-jVPNo_30uiB4l67Ccl2uEZ7ODuuscqxAo6_lWOHcvcTMXfASerjR8wztaBILGivY4l8D1KndFZG3aOIp8Lei7Skg6Ii2v98tR5cSB1lbvU2PZvIZVD2DPzzrVs4jeNCH2bxMgBTeGipJoDQMwqhqR_tLwYBpIBOUb8AclIW7ROjb6nRoHS4zP8KeU6ze7loyHg", "width": 3840}], "place_id": "ChIJw9uWHoV3QQ0R9oAUxoQaeiI", "plus_code": {"compound_code": "J32P+G2 Hoyo de Manzanares, Spain", "global_code": "8CGRJ32P+G2"}, "rating": 4.6, "reference": "ChIJw9uWHoV3QQ0R9oAUxoQaeiI", "scope": "GOOGLE", "types": ["park", "tourist_attraction", "point_of_interest", "establishment"], "user_ratings_total": 212, "vicinity": "Camino Manzanares, Hoyo de Manzanares"}, {"business_status": "OPERATIONAL", "geometry": {"location": {"lat": 40.6222003, "lng": -3.907375}, "viewport": {"northeast": {"lat": 40.6236521802915, "lng": -3.906053469708497}, "southwest": {"lat": 40.62095421970851, "lng": -3.908751430291502}}}, "icon": "https://maps.gstatic.com/mapfiles/place_api/icons/v1/png_71/park-71.png", "icon_background_color": "#4DB546", "icon_mask_base_uri": "https://maps.gstatic.com/mapfiles/place_api/icons/v2/tree_pinlet", "name": "Alcantara Park", "opening_hours": {"open_now": true}, "place_id": "ChIJXYSsYWJ3QQ0RXOIWD1vtmDI", "plus_code": {"compound_code": "J3CV+V2 Hoyo de Manzanares, Spain", "global_code": "8CGRJ3CV+V2"}, "rating": 5, "reference": "ChIJXYSsYWJ3QQ0RXOIWD1vtmDI", "scope": "GOOGLE", "types": ["park", "point_of_interest", "establishment"], "user_ratings_total": 1, "vicinity": "Hoyo de Manzanares"}, {"business_status": "OPERATIONAL", "geometry": {"location": {"lat": 40.6204646, "lng": -3.913351}, "viewport": {"northeast": {"lat": 40.6219272802915, "lng": -3.912095819708497}, "southwest": {"lat": 40.6192293197085, "lng": -3.914793780291502}}}, "icon": "https://maps.gstatic.com/mapfiles/place_api/icons/v1/png_71/park-71.png", "icon_background_color": "#4DB546", "icon_mask_base_uri": "https://maps.gstatic.com/mapfiles/place_api/icons/v2/tree_pinlet", "name": "Infantil La Paloma Park", "place_id": "ChIJMXyrTQB3QQ0RSg6hsbx1gEI", "plus_code": {"compound_code": "J3CP+5M Hoyo de Manzanares, Spain", "global_code": "8CGRJ3CP+5M"}, "reference": "ChIJMXyrTQB3QQ0RSg6hsbx1gEI", "scope": "GOOGLE", "types": ["park", "point_of_interest", "establishment"], "vicinity": "Avenida de la Paloma, Hoyo de Manzanares"}, {"business_status": "OPERATIONAL", "geometry": {"location": {"lat": 40.6202956, "lng": -3.9140018}, "viewport": {"northeast": {"lat": 40.6217134802915, "lng": -3.912697719708498}, "southwest": {"lat": 40.6190155197085, "lng": -3.915395680291502}}}, "icon": "https://maps.gstatic.com/mapfiles/place_api/icons/v1/png_71/park-71.png", "icon_background_color": "#4DB546", "icon_mask_base_uri": "https://maps.gstatic.com/mapfiles/place_api/icons/v2/tree_pinlet", "name": "Parque de calistenia MEIN.ES", "opening_hours": {"open_now": true}, "photos": [{"height": 2464, "html_attributions": ["<a href=\"https://maps.google.com/maps/contrib/102231872682688074671\">MEIN CALISTENIA</a>"], "photo_reference": "AWn5SU6BpqenWWB-RH52wG0P5X6S7ImuRGIYnykMk3hrbzq6yP5CQZ1P3vEEwZwk-H705b9_771Wr4TnyoEAEJgccmLbXodcTH1kWk_iGveLhWKXnv7VLkpaLouW5M0VLFrwyEGBY9AMxjiG1tgU9JUCZllbHx65L_mNaxsi-9yCwZj4jGp2VwePNLhqDHTUoFXCgsAQhwppU7ieduLKK46BSGIXwkc0-xowMslKp5mwNaWXHr_-sgm_FR4AfBBOjTZqEQF4suZZbpj3gGcITG66d5dXcpj-kdPcrE-VhWCayg44hFpatN2B0ZX_mYNehuHHhA0LDvVpgy6Wk01huuR0zaD1UfaQUivlzeID7rhpIhTpq_GsPokf3_zlLsmc8zZ11luZJ244805hspQCKriHvk4XGKS5XKiJ2xvyPCy0t58Gkb59Y0mrJVjQu4UrDEWKVgHudxjt0Zh7x3ZRG1imJ8i--rbo-JWFI0OeBdRg9cyyz_GXUrNUgqI67kHxaATgFvancJto9cL1j4B5vinpIwM83rNmbbG5V7FQoy8AnzccdpjMXHfnFQUhqqBonrC6YLFFpFMfsipmN4QYvO44A36a2dLOqmFIhBCYJ-yRx9J0WW02G8FCwiC-_LSpo1mSuXxlqA", "width": 3280}], "place_id": "ChIJJczwPTJ3QQ0RNU2NxgSoY3Q", "plus_code": {"compound_code": "J3CP+49 Hoyo de Manzanares, Spain", "global_code": "8CGRJ3CP+49"}, "rating": 4.3, "reference": "ChIJJczwPTJ3QQ0RNU2NxgSoY3Q", "scope": "GOOGLE", "types": ["park", "point_of_interest", "establishment"], "user_ratings_total": 3, "vicinity": "Avenida de la Paloma, 25V, Hoyo de Manzanares"}, {"business_status": "OPERATIONAL", "geometry": {"location": {"lat": 40.6290118, "lng": -3.9133862}, "viewport": {"northeast": {"lat": 40.6304255302915, "lng": -3.912384519708498}, "southwest": {"lat": 40.6277275697085, "lng": -3.915082480291503}}}, "icon": "https://maps.gstatic.com/mapfiles/place_api/icons/v1/png_71/park-71.png", "icon_background_color": "#4DB546", "icon_mask_base_uri": "https://maps.gstatic.com/mapfiles/place_api/icons/v2/tree_pinlet", "name": "Sierra de Hoyo", "place_id": "ChIJZ-IZFwB3QQ0RVgYvQgReN2A", "plus_code": {"compound_code": "J3HP+JJ Hoyo de Manzanares, Spain", "global_code": "8CGRJ3HP+JJ"}, "rating": 5, "reference": "ChIJZ-IZFwB3QQ0RVgYvQgReN2A", "scope": "GOOGLE", "types": ["park", "point_of_interest", "establishment"], "user_ratings_total": 1, "vicinity": "Calle de María de los Milagros, 1D, Hoyo de Manzanares"}, {"business_status": "OPERATIONAL", "geometry": {"location": {"lat": 40.6191615, "lng": -3.918514899999999}, "viewport": {"northeast": {"lat": 40.6205326302915, "lng": -3.917283969708498}, "southwest": {"lat": 40.6178346697085, "lng": -3.919981930291502}}}, "icon": "https://maps.gstatic.com/mapfiles/place_api/icons/v1/png_71/park-71.png", "icon_background_color": "#4DB546", "icon_mask_base_uri": "https://maps.gstatic.com/mapfiles/place_api/icons/v2/tree_pinlet", "name": "Jose Saramago Park", "opening_hours": {"open_now": true}, "place_id": "ChIJr0zU1293QQ0RKHke7l-AwT8", "plus_code": {"compound_code": "J39J+MH Hoyo de Manzanares, Spain", "global_code": "8CGRJ39J+MH"}, "rating": 4, "reference": "ChIJr0zU1293QQ0RKHke7l-AwT8", "scope": "GOOGLE", "types": ["park", "point_of_interest", "establishment"], "user_ratings_total": 1, "vicinity": "Hoyo de Manzanares"}, {"business_status": "OPERATIONAL", "geometry": {"location": {"lat": 40.6277631, "lng": -3.8956736}, "viewport": {"northeast": {"lat": 40.6290992302915, "lng": -3.894582769708498}, "southwest": {"lat": 40.6264012697085, "lng": -3.897280730291503}}}, "icon": "https://maps.gstatic.com/mapfiles/place_api/icons/v1/png_71/park-71.png", "icon_background_color": "#4DB546", "icon_mask_base_uri": "https://maps.gstatic.com/mapfiles/place_api/icons/v2/tree_pinlet", "name": "Cabilda Park", "opening_hours": {"open_now": true}, "photos": [{"height": 3024, "html_attributions": ["<a href=\"https://maps.google.com/maps/contrib/106702089104999630992\">Adrian Di Paolo</a>"], "photo_reference": "AWn5SU7Eyr4wzuKbBRFB8ocR8Ks5lGjYfNSb74Ete_7dIsIlk_c65z-wyO53-tCWiiwt83-5g-Wpoiehichl36F6vptOQ6uDKaPEwULsz5eKamQQN0VTjb4lggMEIeMOhNt1L96EEah4Yahbu4v16L2aN1TaN7qySAo4qfAJPYPa8Kl7M6iti2O_wJyj2LjjVq5KGw9qclaC4kWzmNLX0dj3KQTOgcHU8ucawRF2PSvhF-ZQFrQvHfTVsTbCl_WTnHJCNAhQGxmpCNsnuYOwROiiYXHhl6XeSGJTF0eQh7CXwSxaMbhXR_JwZw5jgA_R39kN_L_-3byCOGGPv1uFv-u2H8zbRqnwIKqOMov6kApPxEw4qgRXKhzKb3TZwFhugKb7ZFFFYqwXc7OvM4VsAXlm3XuxA_YhsQYvRsUTHUscFxpnyx5eB2bjK7VT7KTV8O42loKEKu41nleO6mbIOYBKv5lzSc5P6akl7Vft-XuSMy3Vtb7SHrlfKcCXjDY7Sudq5YlPlh1prr6vXFS7J26WzDw0J8w3YyLXMk-3OMhrts85Eyoyrhy7AbE-uhGoIxasNmsa1LWoOQt6CwH_SCzSEt102NZCkeBBopTUAwwRFnRxc3LV0uTkXPUL6Qzl_2W0qwFhgQ", "width": 4032}], "place_id": "ChIJz3Ojfnx5QQ0RSDlQEwZRbBw", "plus_code": {"compound_code": "J4H3+4P Hoyo de Manzanares, Spain", "global_code": "8CGRJ4H3+4P"}, "rating": 4.7, "reference": "ChIJz3Ojfnx5QQ0RSDlQEwZRbBw", "scope": "GOOGLE", "types": ["park", "point_of_interest", "establishment"], "user_ratings_total": 55, "vicinity": "Urbanización Navagrande, 44, Hoyo de Manzanares"}, {"business_status": "OPERATIONAL", "geometry": {"location": {"lat": 40.6116419, "lng": -3.9041373}, "viewport": {"northeast": {"lat": 40.6130763302915, "lng": -3.902631969708497}, "southwest": {"lat": 40.6103783697085, "lng": -3.905329930291502}}}, "icon": "https://maps.gstatic.com/mapfiles/place_api/icons/v1/png_71/park-71.png", "icon_background_color": "#4DB546", "icon_mask_base_uri": "https://maps.gstatic.com/mapfiles/place_api/icons/v2/tree_pinlet", "name": "Monte Los Altillos", "opening_hours": {"open_now": true}, "photos": [{"height": 1800, "html_attributions": ["<a href=\"https://maps.google.com/maps/contrib/101321764474141234821\">ricardo fernández del Blanco</a>"], "photo_reference": "AWn5SU7Oja93v1O8kp64z-As2qXynGZM102RHEL_yHOH15Vey_O3doP9AWulZpk1g2Etlr2IGiLYGPTeIq78iw08rnPr0YvNsehiRlkdgiShHrzI9KR12NO1k2qKfxnJE4_YgFnyaG5QjVzKENQpWTGUrNdeH5EvOoP8WJ8DolyJ-GdWIGJzEVs2gOuM07vjAm5P4UUZikwdIIsbCkH2kOXXgq8xVNl-KwYXCqOySYdsIAEFlqLr_vRugiyq_mWl313HqFYisHk8zZ3F0Zr0JlyEbCtt35MHI65BtrEr4hJPoPmcqSzGEFuwpFHeCZgPt_YslD_yjSYzB_92rnpyUj7R1VdAJ-2cSAnusSEZTlwTbVDJalxdIm2JYd8pxVVzzJCTzntxMttf9tOgvwmvZxhomb7_F7MoAa2BgRs7kvP23BLsZJty4Zl4x0o43P4A4On4A7ssJLhQ6OIu_PM8jVk8rsTQ1f8LJfSscgRZ5rK7MlvHG0VA3G77EnyRjIRP878uOy368OBf0L6ZhT-bdZBJKV6y7vld8m-gbvJWJHC37wyh991GltdS9IfzWegOklrWawWetmyLsg2Xermp2W1rXoWzjLudrQeqBtuCBAaEiHi4g_HBHafH8b60ljsHGrlF", "width": 4000}], "place_id": "ChIJda6w18t5QQ0RmtvfPcN-nJw", "reference": "ChIJda6w18t5QQ0RmtvfPcN-nJw", "scope": "GOOGLE", "types": ["park", "point_of_interest", "establishment"], "vicinity": "J36W+M8, Hoyo de Manzanares"}, {"business_status": "OPERATIONAL", "geometry": {"location": {"lat": 40.6203076, "lng": -3.922002599999999}, "viewport": {"northeast": {"lat": 40.62162558029149, "lng": -3.920660769708498}, "southwest": {"lat": 40.61892761970849, "lng": -3.923358730291502}}}, "icon": "https://maps.gstatic.com/mapfiles/place_api/icons/v1/png_71/park-71.png", "icon_background_color": "#4DB546", "icon_mask_base_uri": "https://maps.gstatic.com/mapfiles/place_api/icons/v2/tree_pinlet", "name": "Vía Pecuaria \"La Ladera y Picazos\"", "photos": [{"height": 4032, "html_attributions": ["<a href=\"https://maps.google.com/maps/contrib/101662984731277904686\">Casa Rural la Calzada Rubén</a>"], "photo_reference": "AWn5SU6fEZjVFEXNvkAwAmsUKdknPiFkT-ryc-WCg_f4oHrjJuenNEVPzcFaoodHYIxOV6bEk2j5L2k_y1JJWb53pzA6QJ6Sg7ILKi3sMeI8x7Wzke60awDYYXKCtW2Irwh_Cz0lWCALwsO9MjOIbtCbPQ6AGGjaGd6CpORQLXyrKy-0PORaqh2VJw0Y-vjtseRRrtr7v-rYx5SImG-12bZb_RId2u-oNRxRh2REvKMCVd8sA0P1MnrKkV5ra5PRxlkxOVvakxwa61j8lPmlaPY3Bhs0fgkiZ3QvrIM0Nw9DbMSOD9qgu3Py5w_FbeWnXouasETcFecpomc5naDYUQuneLrvPDIDksttxzRoScLCfKqVaq1zSZOOVmH0ezdQfdwuukEdz4I-h_Fc_GSLBlAZ24RVj7WNtBFMhpg1h7g-_AhtYrn-I5ZOdIneoDBzu3QfQpbMeK7XV3dRvNvHspffa_3WdbusX06YKyuMUz_5VbriV96qM3Bq71eh8Y80hCHX3NKEakJDjyUDf-lrtIPBRitXsO4-x9gIlFdEH2Rz-78J0yxkYWZ1afsaNZykmRoKLdFxy-CY6RLGD-RYXKEBm_PRTVY0yQ16gEBVS-KaBQzkN5H7W4leyWGH0bSbKa7n", "width": 3024}], "place_id": "ChIJmY4qdiF3QQ0RkZqWGZrjQB4", "plus_code": {"compound_code": "J3CH+45 Hoyo de Manzanares, Spain", "global_code": "8CGRJ3CH+45"}, "rating": 5, "reference": "ChIJmY4qdiF3QQ0RkZqWGZrjQB4", "scope": "GOOGLE", "types": ["park", "point_of_interest", "establishment"], "user_ratings_total": 2, "vicinity": "Camino de Villalba, Hoyo de Manzanares"}, {"business_status": "OPERATIONAL", "geometry": {"location": {"lat": 40.61344649999999, "lng": -3.9216618}, "viewport": {"northeast": {"lat": 40.61536823029149, "lng": -3.920947069708498}, "southwest": {"lat": 40.6126702697085, "lng": -3.923645030291503}}}, "icon": "https://maps.gstatic.com/mapfiles/place_api/icons/v1/png_71/park-71.png", "icon_background_color": "#4DB546", "icon_mask_base_uri": "https://maps.gstatic.com/mapfiles/place_api/icons/v2/tree_pinlet", "name": "Explanada del Zorro", "opening_hours": {"open_now": true}, "photos": [{"height": 1836, "html_attributions": ["<a href=\"https://maps.google.com/maps/contrib/103179130831518001354\">Mario Esquivias Pérez</a>"], "photo_reference": "AWn5SU5tST1R5tPTvRnYrskGPM-JvaXUpQgnuuF4ufAFXyuvym4JCunKdH3j46JDOIT6mpiInPhSubAmfT1ignys_ZONw8QrQOdP20td25gKhlcIThJwXAHufI8zMe0zhxgBvy-ePykaFtV1QEsDiIihB46YMuEiyhbMUBTqLhguq4deqnu1K-j-8mU5bRsAyOEJW2iVMK88ZtO_szJJ6rv98ZBIJTV5qT8JYDL7EqlNugfHlSJ9QFKyUbw0Dv6V7mAwtPHTirAuMxYoJmjBfPI8pEJX5mCu0ZEcECvyEwqujensRd49Os5bo2tCZDs44KUI58GNtZWAkdqaooJL6Mh4_z25DTV9qfgoZbEkdzgAsZb4LyRkQkwf-LHc9ejEIwKBbBpRWSjQY6FpPr11Ks5K1ZW23Oc4AIfGOeWhFPDGLQKGgO3ceoczNi3YtJFkxLvGDNNXmIEDFveCND-FTATgwAV8BaRJ6wp8kqPZ2mLqCkiYUXkl0B0oN8Z-ThPYAjXFwgpkggIMZyA8FtU1Yy6anzUmtzdagXuqzEBrDyuWap5QGb74_kn_w020ZQZq-eCfVwO2gwI885orqzUDxK50BX9BP_LLiDPwV8wY8vF9OpQHXbxAlbAHORSYuBmrbZqaHq_4AA", "width": 3264}], "place_id": "ChIJxfADbAB3QQ0RoBm15w2uilw", "rating": 5, "reference": "ChIJxfADbAB3QQ0RoBm15w2uilw", "scope": "GOOGLE", "types": ["park", "point_of_interest", "establishment"], "user_ratings_total": 3, "vicinity": "J37H+98, Hoyo de Manzanares"}, {"business_status": "OPERATIONAL", "geometry": {"location": {"lat": 40.627378, "lng": -3.886283}, "viewport": {"northeast": {"lat": 40.6287466302915, "lng": -3.885166119708498}, "southwest": {"lat": 40.6260486697085, "lng": -3.887864080291502}}}, "icon": "https://maps.gstatic.com/mapfiles/place_api/icons/v1/png_71/park-71.png", "icon_background_color": "#4DB546", "icon_mask_base_uri": "https://maps.gstatic.com/mapfiles/place_api/icons/v2/tree_pinlet", "name": "Mirador monte Egido", "opening_hours": {"open_now": true}, "photos": [{"height": 4000, "html_attributions": ["<a href=\"https://maps.google.com/maps/contrib/100496114519260928652\">Iris Rodriguez</a>"], "photo_reference": "AWn5SU7aHWMepov-e8MaLru3We8O3i-QF4kR_43Zyr6rI938bcDbCNSA6eNRSuQ-H7x5TgGqBqssjpAYDHcSTLHXA2nEuJczs-SKhG1PYc3oalriyadnOd0Z814bo-lPeksce4TVCbh7D2WM5ofgld2t5lQPdizEIVP2Si2F5bScU2Akq7VWNPB-e6kiAjW_pSNkBiJ9ZQ2hR-3HeV5b93lPFLvzoFIV3TxeDay48j42vLJZfYRhZU892A11_I2N78vWNfiQ5hKu08xQozl7eXG5Ye-oN4HovcpoeDuuexuxphmdgylJSD6RFK6Vc_BNiWgnfn915G6xvjAj7lKq9ZDID96vifOQJxqJ71ILUQOHOCJK3s3KhxrGrq--RM-b6m7sRJ9ZebT_Knz_7AZf1OFJ-MFg1Fuuoz8CMLgrRPHXb85CUKNMTpT2Vq8e9xqDTtMZZpFprO5dGWtMEDcbZD2ErB56sAulPtJU1L2rtsSXeyU06RoYDCP4x_FNQ-8oZsgaOFlji_YHl1FAstPQjpypm3Eqn5AcdIHgzd-TQyanP_JhCTEn8w6kP_cRslCkSC3oxAki4jICUh46CV0QhdzVtCHP-2uA9BefrMpq-MyWKrHHWFFJoHoI3PtRy8Bg1CE48cF7OEbN", "width": 2992}], "place_id": "ChIJ09oREwt5QQ0RpOF2mZKJ4hs", "rating": 5, "reference": "ChIJ09oREwt5QQ0RpOF2mZKJ4hs", "scope": "GOOGLE", "types": ["park", "point_of_interest", "establishment"], "user_ratings_total": 2, "vicinity": "J4G7+XF, Hoyo de Manzanares"}, {"business_status": "OPERATIONAL", "geometry": {"location": {"lat": 40.6209158, "lng": -3.883446399999999}, "viewport": {"northeast": {"lat": 40.6222646802915, "lng": -3.882097019708497}, "southwest": {"lat": 40.6195667197085, "lng": -3.884794980291502}}}, "icon": "https://maps.gstatic.com/mapfiles/place_api/icons/v1/png_71/park-71.png", "icon_background_color": "#4DB546", "icon_mask_base_uri": "https://maps.gstatic.com/mapfiles/place_api/icons/v2/tree_pinlet", "name": "Monte El Ejido", "photos": [{"height": 1800, "html_attributions": ["<a href=\"https://maps.google.com/maps/contrib/101321764474141234821\">ricardo fernández del Blanco</a>"], "photo_reference": "AWn5SU5j35oGdoeV5G8NmEnV20LQxbFhZsU4aYCKbccDR-2BipFOGqh66LH-YG4Krutj3ZOxONETk1lik93D-Onkxvb0mB_qz2YbKPXItbzBM1LG4L04Luzj7kOvUw2KWPvsgsB4NeQ6Si9CtkN-BHYTEa6LXM-bJrItR_wJ1FSixpRlFBM6FhiUXJMw6UB2nGdAFTXZSrkhXSmy4FVlAbr-dyEkyXhtbQEXXpuI7UG2qnPOVnOVQJZFg_wltx3Mhm_Vvil5Z5rUQ_YWRciWnGk2ZS0oMqBDwZV3edLbbFBBy5Djw9Xp_w3EAU15PgXCYbNCZ-H0w5pYTSjeC-1v7FsvUrGt61YwKCHpxKrH9Siaq-eY5wg_0OuzI2JTCSEYemNpzNtfNHPL__9LETMJcTTlRqkItK2wbnznUvCXheEaPbJYgWZUjwOh_cSPXU5A6EE6qVSt3E4uhDspBZWvCvO7JIQgVoGyuiRM7AfZKxKtq9pqIrLLedOH18SJIZ_JZEPHojvsX9OEkQMa0mO_IIxc1lgkl2DNpAO-Z6nyqQHvrtwgHfwDiRd6uBQT2JMfUjexk3H7Fz1EP_0abS037vkPqTXHN-AlwB7IeaeFtHsu0jXSk4d7H5cnKX8BhkphSPpV_02FGw", "width": 4000}], "place_id": "ChIJJWbZ7j55QQ0RqTyVcjN3XCw", "rating": 5, "reference": "ChIJJWbZ7j55QQ0RqTyVcjN3XCw", "scope": "GOOGLE", "types": ["park", "point_of_interest", "establishment"], "user_ratings_total": 1, "vicinity": "J4C8+9J, Hoyo de Manzanares"}, {"business_status": "OPERATIONAL", "geometry": {"location": {"lat": 40.6207773, "lng": -3.9314142}, "viewport": {"northeast": {"lat": 40.62212583029149, "lng": -3.930057219708498}, "southwest": {"lat": 40.6194278697085, "lng": -3.932755180291502}}}, "icon": "https://maps.gstatic.com/mapfiles/place_api/icons/v1/png_71/park-71.png", "icon_background_color": "#4DB546", "icon_mask_base_uri": "https://maps.gstatic.com/mapfiles/place_api/icons/v2/tree_pinlet", "name": "Roca de La Tortuga", "photos": [{"height": 2415, "html_attributions": ["<a href=\"https://maps.google.com/maps/contrib/112374853953925759985\">David R</a>"], "photo_reference": "AWn5SU4envTGTzqKEZTGqrEFeNjVio3kCFC_BLNmmxbFVPvRVjOiNZpqNowljZUusQe55qotvoRo0BjmlJ3nr2AWpz1IKMrFMIbaTZNuzaCW2GZZ2VBuowJ5xN26ngoGpIJa0fNyW-HDOeJPZPGsXLA6jgI3j4My1wPmiMPd7HsCGst16XQXIXQwe3aDkNXNqKzzZjjVBIgPvDcKRelk965NUC6p7rWjEsBdYi8hGkQKUwbaxOcLcJMCgnrhdyXQlCT4rWvDl3PxiN8sSRmjXQYtjyP9m-ufuVyhGTeTNo6EiO_mFQwnErXVr7LJ5c3KS-rdocNV8AWIODaLr6owNVO5j-C9jh8IDWMe3aNJwQdGQS7wvhxhklqgupQfq5wtDcVL0TuvE4knEM-hpjn77BraOsjKMosTkdWJgUOVTBE4V-pHqU7J9jK9CdREtEBdjOhMVhOaiY-jg4bYlvzgEOHvX1T5vVp9ZIde2OM4QC5vo7P9VgwfJmFBZcfqBZ5rFY5wjIpRzzGqvMbDeLk_U7Bxm7XV92B15__eIZtfEisPwPY8POC5sNpkKaubJAQTtw_uMT-bQAIy20VnSmC_hPT-zcunWOF6fGFySKofUiE9XhDTMe9mom2yYRJBqgGFnHMDMYj-3BrGUbBINJnlC7NEnwnvLjs", "width": 3019}], "place_id": "ChIJmc_4VwB3QQ0RjQcUl_ct0fg", "plus_code": {"compound_code": "J3C9+8C Hoyo de Manzanares, Spain", "global_code": "8CGRJ3C9+8C"}, "reference": "ChIJmc_4VwB3QQ0RjQcUl_ct0fg", "scope": "GOOGLE", "types": ["park", "point_of_interest", "establishment"], "vicinity": "Hoyo de Manzanares"}, {"business_status": "OPERATIONAL", "geometry": {"location": {"lat": 40.6141264, "lng": -3.9330325}, "viewport": {"northeast": {"lat": 40.61543658029151, "lng": -3.931670969708497}, "southwest": {"lat": 40.61273861970851, "lng": -3.934368930291502}}}, "icon": "https://maps.gstatic.com/mapfiles/place_api/icons/v1/png_71/parking-71.png", "icon_background_color": "#7B9EB0", "icon_mask_base_uri": "https://maps.gstatic.com/mapfiles/place_api/icons/v2/parking_pinlet", "name": "Aparcamiento Berzosa", "opening_hours": {"open_now": true}, "photos": [{"height": 3000, "html_attributions": ["<a href=\"https://maps.google.com/maps/contrib/109686635877810980513\">Ángel Pesquera Carrasco</a>"], "photo_reference": "AWn5SU5GASEzA0gM8OivjWmctpaUyLJTJLM83_yLCHTYJ6VD86yIgq77VBauNdJrqjtzu11Te-6lT6PIissjfkN2Nl-yyalDDtITjb7sMhHw1InovvTcABaGsmI3rj0sRXlhfqxo4x7SC9a-P1jH4SmySQBGHEzTvgfh44fHyfP3V7jAArnIb9GXV2yhJlsax73Fd2_mCbhwY5g2Q1nCPxPjOmaphbj3DxNgCqjYg-HZKejx-scxHS13qytrBYSMsSm-ekm8YkDAPFfPCQBYz_EZGmOUjNfz78ARQ5HNZejGJpoMtlw7e8PavuDE_ioziJu4TrcDPU53ZijXdntM_c1YnpWTg2bilUGlCSkoKNv6t2f8YCe-9V1hSU0UJMiWol2Fz8VTkrbfGuoZR7pS4KQ1c6aQ0BCSOMhykSIZho8AHplmSVgOeXgqXXL0A4AEHMCYHGtSf4vus5pL8R7SRZFZz9ye05c7tGUgH41y7VMUY6c9P5Q5bQcVMtuUeEtHrWfvxyy8rc9459Rp4YA6HyolxPgX1DzNvlGFIDswDAjn_CNHj-CdE5xZiFZAgk1Rp5_cQh_abFMTeHLGgeU-o_dY3CwJ9VM8LqUsXVqV76pN1vmnlBlrevr2Pn3xZZut5WY8CJhQGA", "width": 4000}], "place_id": "ChIJNSQhyA53QQ0RfAdMVPu70ws", "plus_code": {"compound_code": "J378+MQ La Berzosa, Spain", "global_code": "8CGRJ378+MQ"}, "rating": 4.3, "reference": "ChIJNSQhyA53QQ0RfAdMVPu70ws", "scope": "GOOGLE", "types": ["parking", "park", "point_of_interest", "establishment"], "user_ratings_total": 179, "vicinity": "Avenida la Berzosa, 12, La Berzosa"}, {"business_status": "OPERATIONAL", "geometry": {"location": {"lat": 40.6015413, "lng": -3.9123525}, "viewport": {"northeast": {"lat": 40.6028846802915, "lng": -3.910970869708497}, "southwest": {"lat": 40.6001867197085, "lng": -3.913668830291502}}}, "icon": "https://maps.gstatic.com/mapfiles/place_api/icons/v1/png_71/park-71.png", "icon_background_color": "#4DB546", "icon_mask_base_uri": "https://maps.gstatic.com/mapfiles/place_api/icons/v2/tree_pinlet", "name": "Finca el berzalejo", "place_id": "ChIJ_3fvi4h3QQ0Rvi0cs8GefJk", "plus_code": {"compound_code": "J32Q+J3 Hoyo de Manzanares, Spain", "global_code": "8CGRJ32Q+J3"}, "rating": 5, "reference": "ChIJ_3fvi4h3QQ0Rvi0cs8GefJk", "scope": "GOOGLE", "types": ["park", "point_of_interest", "establishment"], "user_ratings_total": 2, "vicinity": "M-618, Hoyo de Manzanares"}, {"business_status": "OPERATIONAL", "geometry": {"location": {"lat": 40.6142741, "lng": -3.9335632}, "viewport": {"northeast": {"lat": 40.6154680302915, "lng": -3.932164119708498}, "southwest": {"lat": 40.6127700697085, "lng": -3.934862080291502}}}, "icon": "https://maps.gstatic.com/mapfiles/place_api/icons/v1/png_71/park-71.png", "icon_background_color": "#4DB546", "icon_mask_base_uri": "https://maps.gstatic.com/mapfiles/place_api/icons/v2/tree_pinlet", "name": "Berzosa Park", "opening_hours": {"open_now": false}, "photos": [{"height": 3024, "html_attributions": ["<a href=\"https://maps.google.com/maps/contrib/105050101050428826551\">Bennett Ponce</a>"], "photo_reference": "AWn5SU5BBRsq0dqnt9zANq9PaJeJRygGqGYFPmxI-RLyc5B26xpiDT8W9ge9gR4K6QFcS_IYu5acoTYxgL2m-bbjNt4xbQi4Xl4QqRWQmDiAMR8gQ1wni9y6eNi5eD4hLS56NGWJcYBDMNqaJyKw5eKKoURDpFBp-AztjPg3kI08Z-GDSpADcJu9Q8eZ5El_nsRRa_-kmkb8znxgN9dgJ2OQLWTm5VyhWyLDDzNoMTm1bBf7PJL71JRfT5TIj3YgFYVFhAXXqOXNt_q6ekbv6PpHy0ikvgoMynrgjvfHL4chynBWVL2TvmN1wD37assILbncQyZj_eBlTea5XLsO3xSxbHgRWz3Izr9bvtE6ydCetCSh8IyHtDD5DrO_BFZHonvCgmC7bmjoPaehtodybeoycu5cwEVdjttw3DeC4RU8Hu2lpb9K0bE0vItau2Rp2VNG0OrCcG7eo9kffL-R2T1WvG51ID0AHE1O47has9SPMSIwFjAuElwdPXLgXWB6AsquDlu7jCRL9y3sutKovHorK7HkQvKsZmQ1pJyxxv9C8HvZ1hqnUOxifK5-bRdgWHry3z6JiE6l9F8ldSgAT3IJEsINnTZ9HCr0t-CG_cNUBw1dkt5WDt2VKwSZpKwTK4bRFYf18A", "width": 4032}], "place_id": "ChIJO0dAuw53QQ0R9ze9E9-B1Jc", "plus_code": {"compound_code": "J378+PH La Berzosa, Spain", "global_code": "8CGRJ378+PH"}, "rating": 4.6, "reference": "ChIJO0dAuw53QQ0R9ze9E9-B1Jc", "scope": "GOOGLE", "types": ["park", "point_of_interest", "establishment"], "user_ratings_total": 27, "vicinity": "Avenida la Berzosa, 14, La Berzosa"}, {"business_status": "OPERATIONAL", "geometry": {"location": {"lat": 40.61407639999999, "lng": -3.933884299999999}, "viewport": {"northeast": {"lat": 40.61533153029149, "lng": -3.932447119708497}, "southwest": {"lat": 40.61263356970849, "lng": -3.935145080291502}}}, "icon": "https://maps.gstatic.com/mapfiles/place_api/icons/v1/png_71/park-71.png", "icon_background_color": "#4DB546", "icon_mask_base_uri": "https://maps.gstatic.com/mapfiles/place_api/icons/v2/tree_pinlet", "name": "Barras", "opening_hours": {"open_now": true}, "photos": [{"height": 4000, "html_attributions": ["<a href=\"https://maps.google.com/maps/contrib/102231872682688074671\">MEIN CALISTENIA</a>"], "photo_reference": "AWn5SU769vrakUwO0T6xl2RO5qvo94PkEJGJfv0w4wP7rDeawzpBYiX5zLov5PrhS7llBaiUbKR4g36Szl3AH4UHnyEh-BYi42F67Kpj52d_MFGji6ze_9tXhMankpHEyTl40nvsHco-NyKS3hCxSfYlQNXG-SDhkYr6rhyRuWzetzvpBWojId1QPQg6bQOD6D31T3z7w2UI-M4m4brkLDbk3OI0za-F14bfFQ35TBi0zuCCe6A0w6KhLaTObMlPhyLbiJXBHOOS-j6auKwtOGOBIcxYYJM0zRTLbQ3-dHahpp-zExG-MNClEd2B74ehnMCJ9kX9T9qVbnUghIjFZT9UT7u7LSttsRlOEJ64nk_GGoD6RcdviyAFTP78xe-tQ8bZcX5Zl0cQOYDwRoKXlgh3WXE3-WaDhJY817L-WbA83MXKfO4DNSQ5A3zTsItqCQwzu6VewM7VEe_S22Av31zDOa8vaXffmCUjXrjc4jSDkalK2XzCBumifL883Y5oM6MWY6YukBLLbll6OsrnURtc2YCd9JVdL4gYEoxiKsqB2DIFjkSnWcmrr5AngNuaHYkRgpKxZu9P9eYo7lH7zcTujZZRnDJT_bJwbvRqleH0OE1-rgA_smudehQaOsgMTXNyQmxA5uXy", "width": 3000}], "place_id": "ChIJTUA2jSZ3QQ0RYfRs2Lj4lw0", "plus_code": {"compound_code": "J378+JC La Berzosa, Spain", "global_code": "8CGRJ378+JC"}, "reference": "ChIJTUA2jSZ3QQ0RYfRs2Lj4lw0", "scope": "GOOGLE", "types": ["park", "point_of_interest", "establishment"], "vicinity": "Berzosa Park, Avenida la Berzosa, 14, La Berzosa"}, {"business_status": "OPERATIONAL", "geometry": {"location": {"lat": 40.60133739999999, "lng": -3.9149677}, "viewport": {"northeast": {"lat": 40.6026867302915, "lng": -3.913618019708498}, "southwest": {"lat": 40.5999887697085, "lng": -3.916315980291503}}}, "icon": "https://maps.gstatic.com/mapfiles/place_api/icons/v1/png_71/park-71.png", "icon_background_color": "#4DB546", "icon_mask_base_uri": "https://maps.gstatic.com/mapfiles/place_api/icons/v2/tree_pinlet", "name": "Crawler La Berzosa", "opening_hours": {"open_now": true}, "photos": [{"height": 9000, "html_attributions": ["<a href=\"https://maps.google.com/maps/contrib/112017916824416295687\">Miguel Angel Sanchez Alonso</a>"], "photo_reference": "AWn5SU5EFsk8jDAWBCplJOT4Jb266Oz3JgogsqFO64X-nJwctembmeUtVYxf0HRzCPXD5BrHiGlZuN-uWV4CEJarZHdRfyx5jBb9Kd2KhddgBaOeflF-wZliq_VilnV3XMjJAV3qByBcLyidg-5KU_xcvIg2wmCERnLWRmQ8rS7yMM_P9uMwJGMlfy9rb-4a9on5UN5ORXQddRNWFEDTClZf0mk4252He05ygaN7tOfDCe3fIthIPWz13yrym3koN9p2iPKnySWr3-aL1RwMgnUYynjlanQI4x_le7snuPFwUCnpzvbvzBiqcEt8qrkYvFbp8KbGfyjJDY_PkB5VFGD4358thb6zG5w0XXwu4rNmcqobuAMa16NE0ONer0mSXOi_x8yKplejumX_ivmnTfIUJhmOyA05SSVyZFI74Dc1px3Q1sCuJxdavLgU-T2y7BMXQZy_9tZllgFPIIUyDPoh-mFIz40e1ePtipDBBMJ2NNfG9wgZsTHLfuPUIOCTkpKEJ6HnqbrlSLzDLGaO8qaaeRbfrvS4fzB7OcYuPFQUK3wqZAC1rzX3-Ni-EkBMJp49mpaan3jlBWVJoqll894QfAC8W0zYJI9oh1TuVHs8cNBS6CykgKZEW_q_coaCKnBye6oGHg", "width": 12000}], "place_id": "ChIJeWbxHoV3QQ0Rbwrfe1ZXR-w", "plus_code": {"compound_code": "J32P+G2 Hoyo de Manzanares, Spain", "global_code": "8CGRJ32P+G2"}, "rating": 5, "reference": "ChIJeWbxHoV3QQ0Rbwrfe1ZXR-w", "scope": "GOOGLE", "types": ["park", "point_of_interest", "establishment"], "user_ratings_total": 3, "vicinity": "Camino Manzanares, Hoyo de Manzanares"}]