[{"business_status": "OPERATIONAL", "geometry": {"location": {"lat": 40.54138380000001, "lng": -3.4645383}, "viewport": {"northeast": {"lat": 40.5426826302915, "lng": -3.463160919708498}, "southwest": {"lat": 40.53998466970851, "lng": -3.465858880291501}}}, "icon": "https://maps.gstatic.com/mapfiles/place_api/icons/v1/png_71/bus-71.png", "icon_background_color": "#10BDFF", "icon_mask_base_uri": "https://maps.gstatic.com/mapfiles/place_api/icons/v2/bus_share_taxi_pinlet", "name": "Daganzo - Ctra Ajalvir N 5", "place_id": "ChIJx-8w5FU0Qg0R8iKC_l_SAAM", "plus_code": {"compound_code": "GGRP+H5 Daganzo de Arriba, Spain", "global_code": "8CGRGGRP+H5"}, "reference": "ChIJx-8w5FU0Qg0R8iKC_l_SAAM", "scope": "GOOGLE", "types": ["bus_station", "transit_station", "point_of_interest", "establishment"], "vicinity": "Spain"}, {"business_status": "OPERATIONAL", "geometry": {"location": {"lat": 40.5043976, "lng": -3.5304238}, "viewport": {"northeast": {"lat": 40.5057539302915, "lng": -3.529060669708499}, "southwest": {"lat": 40.50305596970851, "lng": -3.531758630291502}}}, "icon": "https://maps.gstatic.com/mapfiles/place_api/icons/v1/png_71/bus-71.png", "icon_background_color": "#10BDFF", "icon_mask_base_uri": "https://maps.gstatic.com/mapfiles/place_api/icons/v2/bus_share_taxi_pinlet", "name": "Real-Atarre", "place_id": "ChIJYdwe_NkzQg0RehhyulVq8Ho", "plus_code": {"compound_code": "GF39+QR Paracuellos de Jarama, Spain", "global_code": "8CGRGF39+QR"}, "reference": "ChIJYdwe_NkzQg0RehhyulVq8Ho", "scope": "GOOGLE", "types": ["bus_station", "transit_station", "point_of_interest", "establishment"], "vicinity": "Spain"}, {"business_status": "OPERATIONAL", "geometry": {"location": {"lat": 40.5632897, "lng": -3.551935499999999}, "viewport": {"northeast": {"lat": 40.5646166802915, "lng": -3.550587269708498}, "southwest": {"lat": 40.5619187197085, "lng": -3.553285230291502}}}, "icon": "https://maps.gstatic.com/mapfiles/place_api/icons/v1/png_71/bus-71.png", "icon_background_color": "#10BDFF", "icon_mask_base_uri": "https://maps.gstatic.com/mapfiles/place_api/icons/v2/bus_share_taxi_pinlet", "name": "Belvis de Jarama-Mayor", "photos": [{"height": 3456, "html_attributions": ["<a href=\"https://maps.google.com/maps/contrib/101929999582598923905\">Rebecca Venecia</a>"], "photo_reference": "AWn5SU7t-XZpDRCUaKikTw2h6XS9Z0IXtKG8d-ccEtisHkK29WdnROyYEqVDTJWiD17RnOBeW4wrZP6YaIpHTKeReVHl79KBIxeabJbhzX3pPRM6D_iocS1Eo8eKYD-grMydqQVg85kn6HhFWXR4go-TBjCAG1DwA4bwy59ItzDYSSG_EyjsmnErx5tI1I_VNuhYy0ZOyMG0ZEE0TDBPZSNLX-sVDoX0Ez5nznyxrYdwaoyMF3-qhx2BS6U75q-Z9GbSpGCWIBqT_M5OWJakc0dHyb03N-7vvyAis9FFuYqQBeOrY7mzZrIDHbTFAjngHZgcgsSlBlgVWus9ga5Y6Yh2HIYWWvLO23xLvPnnjWuXgPploOamJBva1fqFHgoryDL-ZNqLj_6PrTyYTjb4iTHq14s2ck9vqRYMAATWWNwd1PAwbmNbizJWYFJ8iFFgCUWxyajfGkhDIhycmeroQT-DTn3WPkJL0ARpr8Rl7Ey3Gq5GfhZsNsOPkaDo5B8GwW-4pO41UKvn5qP1-_RVH4Wt0EqEYWO_7w9HW8NbCQJGngUvDYRJGJmBbWet3I7NBDGMvb5yxUjzNZW6pV818UGYHCztnHkAAtPE8ICELwhCGUyTiwiPmb1KaXshfD9gN-rMxdA59Q", "width": 3456}], "place_id": "ChIJkZElF8MyQg0R8W-O7Xgzg6o", "plus_code": {"compound_code": "HC7X+86 Belvis de Jarama, Spain", "global_code": "8CGRHC7X+86"}, "rating": 4.5, "reference": "ChIJkZElF8MyQg0R8W-O7Xgzg6o", "scope": "GOOGLE", "types": ["bus_station", "transit_station", "point_of_interest", "establishment"], "user_ratings_total": 2, "vicinity": "Spain"}, {"business_status": "OPERATIONAL", "geometry": {"location": {"lat": 40.595089, "lng": -3.4982376}, "viewport": {"northeast": {"lat": 40.5964509302915, "lng": -3.496855169708498}, "southwest": {"lat": 40.5937529697085, "lng": -3.499553130291502}}}, "icon": "https://maps.gstatic.com/mapfiles/place_api/icons/v1/png_71/bus-71.png", "icon_background_color": "#10BDFF", "icon_mask_base_uri": "https://maps.gstatic.com/mapfiles/place_api/icons/v2/bus_share_taxi_pinlet", "name": "Alcalá-Ronda de la Constitución", "place_id": "ChIJWwsM-1jLQw0R1pV-v6PGzhQ", "plus_code": {"compound_code": "HGW2+2P Algete, Spain", "global_code": "8CGRHGW2+2P"}, "reference": "ChIJWwsM-1jLQw0R1pV-v6PGzhQ", "scope": "GOOGLE", "types": ["bus_station", "transit_station", "point_of_interest", "establishment"], "vicinity": "Spain"}]