[{"business_status": "OPERATIONAL", "geometry": {"location": {"lat": 40.1690254, "lng": -3.2753186}, "viewport": {"northeast": {"lat": 40.17033208029149, "lng": -3.273954469708498}, "southwest": {"lat": 40.1676341197085, "lng": -3.276652430291502}}}, "icon": "https://maps.gstatic.com/mapfiles/place_api/icons/v1/png_71/bank-71.png", "icon_background_color": "#909CE1", "icon_mask_base_uri": "https://maps.gstatic.com/mapfiles/place_api/icons/v2/bank-intl_pinlet", "international_phone_number": "+34 918 74 59 28", "name": "BBVA", "opening_hours": {"open_now": false}, "photos": [{"height": 720, "html_attributions": ["<a href=\"https://maps.google.com/maps/contrib/117188502476084618189\">BBVA</a>"], "photo_reference": "AWn5SU4d8G_1N7OIwfX7Bct861FzAF89jQKXiBQ4dZfKmJi7vc0pfPKZopT4YxFdC1I8aYar-Yf4OEHhJW_Khr00dIpMjNDNhfEO84BmIT08OOskDAamGrhqUj-j-RqUaUNL9q5vHFKAR2hHjo_w6BqjpZT4OfTc_wGHjQi5QZ02K3kyTFIFoCmYYUqaTMprJy5dRbqsnp4E7rziQjU5kgTiIgki6Ke70D_EfS-VtoeApBJ4Eh4rw6JKGMai-u_zPSrzkR77rUXhMA3fV5H4o0BAX1qOrcbRl7E1QPX93CNCWdY349bNUA8w8SmA52OZW8Wz3NYUJrXLuvc", "width": 1280}], "place_id": "ChIJY1l5RUZvQg0RsdptgFoHvoY", "plus_code": {"compound_code": "5P9F+JV Villarejo de Salvanés, Spain", "global_code": "8CGR5P9F+JV"}, "rating": 2, "reference": "ChIJY1l5RUZvQg0RsdptgFoHvoY", "scope": "GOOGLE", "types": ["bank", "atm", "accounting", "finance", "point_of_interest", "establishment"], "user_ratings_total": 21, "vicinity": "Calle Mayor, 5, Villarejo de Salvanés"}, {"business_status": "OPERATIONAL", "geometry": {"location": {"lat": 40.1682914, "lng": -3.2751447}, "viewport": {"northeast": {"lat": 40.1696063302915, "lng": -3.273816069708498}, "southwest": {"lat": 40.1669083697085, "lng": -3.276514030291502}}}, "icon": "https://maps.gstatic.com/mapfiles/place_api/icons/v1/png_71/bank-71.png", "icon_background_color": "#909CE1", "icon_mask_base_uri": "https://maps.gstatic.com/mapfiles/place_api/icons/v2/bank-intl_pinlet", "international_phone_number": "+34 918 74 20 67", "name": "Eurocaja Rural", "opening_hours": {"open_now": false}, "place_id": "ChIJmzKJWEZvQg0RrZxGZ6R3DoA", "plus_code": {"compound_code": "5P9F+8W Villarejo de Salvanés, Spain", "global_code": "8CGR5P9F+8W"}, "rating": 1, "reference": "ChIJmzKJWEZvQg0RrZxGZ6R3DoA", "scope": "GOOGLE", "types": ["bank", "atm", "finance", "point_of_interest", "establishment"], "user_ratings_total": 11, "vicinity": "Calle de los Mesones, 7, Villarejo de Salvanés"}, {"business_status": "OPERATIONAL", "geometry": {"location": {"lat": 40.16848019999999, "lng": -3.27624}, "viewport": {"northeast": {"lat": 40.1698849302915, "lng": -3.274816069708498}, "southwest": {"lat": 40.1671869697085, "lng": -3.277514030291502}}}, "icon": "https://maps.gstatic.com/mapfiles/place_api/icons/v1/png_71/bank-71.png", "icon_background_color": "#909CE1", "icon_mask_base_uri": "https://maps.gstatic.com/mapfiles/place_api/icons/v2/bank-intl_pinlet", "international_phone_number": "+34 918 74 50 94", "name": "Banco Santander", "opening_hours": {"open_now": false}, "photos": [{"height": 720, "html_attributions": ["<a href=\"https://maps.google.com/maps/contrib/104225973697707282724\">Banco Santander</a>"], "photo_reference": "AWn5SU7lcPMwuQ2SXEKC-bDRt5TZpsC1PaL0mHZOhQdeIswbWiSf_Qr9BEKknqOCkIB6RsCCDcsC74A-f9-VjMMWpUxq8Tii-SdFQercYmbLjMf7jpPnXt4z6lsZCJuFWNVSMpWsu9U8hgLOV-5rPu6hYlB515PE9K8syIcajXFnCg1R6xEXk2oxvSrk-AemBTEmLZWSXH9sMaHO3uEA1Xgsbqs9vBeLV0-dTbDrSD1h1R-jDRFoHJ0ZHBZZ-a41DQcqd5LItDyTtpr40r9akjnCK4YYafhwG6uexf4O8xuaFE1oPVQl_0O1vFrKwrete3pldBMsaJ_7N8w", "width": 1280}], "place_id": "ChIJaVj1rEdvQg0R4hYLIBspgro", "plus_code": {"compound_code": "5P9F+9G Villarejo de Salvanés, Spain", "global_code": "8CGR5P9F+9G"}, "rating": 1.2, "reference": "ChIJaVj1rEdvQg0R4hYLIBspgro", "scope": "GOOGLE", "types": ["bank", "atm", "finance", "point_of_interest", "establishment"], "user_ratings_total": 21, "vicinity": "Plaza de España, 16, Villarejo de Salvanés"}, {"business_status": "OPERATIONAL", "geometry": {"location": {"lat": 40.16834599999999, "lng": -3.2754235}, "viewport": {"northeast": {"lat": 40.1696661302915, "lng": -3.274021269708498}, "southwest": {"lat": 40.1669681697085, "lng": -3.276719230291502}}}, "icon": "https://maps.gstatic.com/mapfiles/place_api/icons/v1/png_71/atm-71.png", "icon_background_color": "#909CE1", "icon_mask_base_uri": "https://maps.gstatic.com/mapfiles/place_api/icons/v2/atm_pinlet", "international_phone_number": "+34 900 404 090", "name": "ATM CaixaBank - Cajero", "opening_hours": {"open_now": true}, "photos": [{"height": 681, "html_attributions": ["<a href=\"https://maps.google.com/maps/contrib/113668509069035122416\">ATM CaixaBank - Cajero</a>"], "photo_reference": "AWn5SU7QLnOnGUW0bxLwKJ6nCnJI0eNW4Se-1JNMuHkCJ0KWlMk57gwOA8joGiuhPluRoEqWwRQi5HJnsx1tj86qnVsAv3HmA-cX9DNrZpn-jiEGsdrRgOhvzMRK00ORODTdfb_Q4r4ClhbvGC_sF1PDU86TQRsSmICsVovuyZAzcVePP6WXcuXwiINoljVkXzaiZWVZQcC1_UEJwPWqwJv-RVX1K5UJx83j58DverXHPh7Mzbad075AnFJLHa7POWhNl6pco-U-18rTYQfcILAx0hIQX7HlbvsjQQ7iE8E-OgjOy0agWUiHWxrRPXL4Nfjctc7dzRCy", "width": 1024}], "place_id": "ChIJ20PJv5hvQg0RHo6C2oHxZmA", "plus_code": {"compound_code": "5P9F+8R Villarejo de Salvanés, Spain", "global_code": "8CGR5P9F+8R"}, "reference": "ChIJ20PJv5hvQg0RHo6C2oHxZmA", "scope": "GOOGLE", "types": ["atm", "finance", "point_of_interest", "establishment"], "vicinity": "Calle de los Mesones, 3, Villarejo de Salvanés"}]