[{"geometry": {"location": {"lat": 40.7058621, "lng": -3.427332}, "viewport": {"northeast": {"lat": 40.70774365349565, "lng": -3.423132218933748}, "southwest": {"lat": 40.69778227672143, "lng": -3.436353946269928}}}, "icon": "https://maps.gstatic.com/mapfiles/place_api/icons/v1/png_71/geocode-71.png", "icon_background_color": "#7B9EB0", "icon_mask_base_uri": "https://maps.gstatic.com/mapfiles/place_api/icons/v2/generic_pinlet", "name": "El Casar", "photos": [{"height": 3024, "html_attributions": ["<a href=\"https://maps.google.com/maps/contrib/101973523579475130876\">Rosa Paula</a>"], "photo_reference": "AWn5SU7ASd9cIcsP82E9-AzpmRn0qHd5NTXKiJOAGs9p18HdzG6NK0NvUX6cZzFc-0IgOUCPepbowkP5pRvl8Lr-NeAcM0Yd5q_BDOCZf4ztocIy04BGwIy8pfulI5jAIP5JiIuSRPZauH7bJ5YWdQkU_yuFjsCtmr-SP9Gv3ykYL0e0_5qfLIIRqRyEoq8WvxcJhlJasthGWlFJ3yTpVnSMttFO2MnhLTtH1Adckajln9XQr84keeNOb2JyqvSgTYI0WqGkkFe800DpvfEEnPSFus5UNBB9rAKKJIwhfYRq0CHSDqjVHw6cVZVqPzpfjmSXDDXWb5tAndaNh-pmtQ0uum4rbQiqkS2yFVcFrmKA2RMVBPEDlg4hDU_fQdY958I1g-H4s2sgvgOktOCeaZWP6YBK0qw5PNOz6G8h_FtXdm5p1zF1VB4hsHC4VrqAH9n-jMbxGUklFiDH7VpAvlTe5R-S0uuXZb7GvYN3Ucj1Ne513wX55D0Ue-pWBfPCVA1UKM2LEDH3Vb64n9h_WSgW4T0cyFQH_QJ_XMGPswEAb_cc_-eRq7O9VPJkxYAbWMBngxU93HJYY6CKMGGm1oc54GoxYdxeRqOzJsir7OauMbF0lod45utYaufCUXxBF952-ODOkQ", "width": 4032}], "place_id": "ChIJo6o0h83JQw0Ryo7rXp28t_4", "reference": "ChIJo6o0h83JQw0Ryo7rXp28t_4", "scope": "GOOGLE", "types": ["locality", "political"], "vicinity": "El Casar"}, {"business_status": "OPERATIONAL", "geometry": {"location": {"lat": 40.7023489, "lng": -3.456632500000001}, "viewport": {"northeast": {"lat": 40.70369858029149, "lng": -3.455362669708498}, "southwest": {"lat": 40.70100061970849, "lng": -3.458060630291502}}}, "icon": "https://maps.gstatic.com/mapfiles/place_api/icons/v1/png_71/lodging-71.png", "icon_background_color": "#909CE1", "icon_mask_base_uri": "https://maps.gstatic.com/mapfiles/place_api/icons/v2/hotel_pinlet", "international_phone_number": "+34 670 31 57 91", "name": "CASA SPA 1514", "place_id": "ChIJAdc_CKvJQw0RHr0M1X3g2Pc", "plus_code": {"compound_code": "PG2V+W8 El Casar, Spain", "global_code": "8CGRPG2V+W8"}, "rating": 3.5, "reference": "ChIJAdc_CKvJQw0RHr0M1X3g2Pc", "scope": "GOOGLE", "types": ["lodging", "point_of_interest", "establishment"], "user_ratings_total": 21, "vicinity": "Calle Albacete, 1514, El Casar"}, {"business_status": "OPERATIONAL", "geometry": {"location": {"lat": 40.6376966, "lng": -3.51763}, "viewport": {"northeast": {"lat": 40.6389842802915, "lng": -3.516318769708499}, "southwest": {"lat": 40.6362863197085, "lng": -3.519016730291502}}}, "icon": "https://maps.gstatic.com/mapfiles/place_api/icons/v1/png_71/generic_business-71.png", "icon_background_color": "#7B9EB0", "icon_mask_base_uri": "https://maps.gstatic.com/mapfiles/place_api/icons/v2/generic_pinlet", "international_phone_number": "+34 918 23 54 00", "name": "Algeco Construcciones Modulares", "opening_hours": {"open_now": false}, "photos": [{"height": 2448, "html_attributions": ["<a href=\"https://maps.google.com/maps/contrib/112418867413302071946\">ramon aragon rodriguez</a>"], "photo_reference": "AWn5SU7is4D9pgJH9FYlfm7EUsmM1rA9tHHH43rqWeWn9WV5sGgi8eqhBm10qd4bEgquL38XWXTaOVdD9IqyBmo3PShnNE3ReA0n0Mm7mi99PCdz2_ymZKLG-5jw9ejLrlHVcx5Fr9jp39by04Ao2kjOJU-mHkwDIR25qdLi2A6dY738-laohsmSra7D5tpy4ywWqel_oDzwgBreBoBHQDjOTM6XXUwkkDk6tU9YT6bZfsqUHyMVrfzyDHb-wSTNMPlnMF4mn-ljoBHr4ZApV6AGpG7wI2SqAjuYdGpkxmnZdmYGw9l1HNmE08dsxBhYNiYUkmCyDGI-JPp7ROd3hthmIQHr5TvP8Zv108zjcU4_LhAq5Wug6jOHlBdwwuuZjTMOGlRhcYL5OCwIFBxFY-zmGfCRAW7UU0hOlQy0blop4mXf8sXUnRSdog8gRCX6n3JSUzDy3w4Yz4eIDfkau6PlldM72LVPDvHNkcGsAlh41yNiMyiwld57jMoxJ3wwpBSfYHwWFHwUN3feTY2QuQdAz-KewusEzzVvNWaqMFdgIPbNc7MkVbGmRiC6hsQgZAi2SzMLQ5un_PlA5pHHuJ1LCl5XzeUkK3UHc-dl5cJzV9uMzFNrNJd_yJ0fQ0npCXeE8-El0w", "width": 3264}], "place_id": "ChIJE5hB0GvMQw0RqF9q_zv0TuU", "plus_code": {"compound_code": "JFQJ+3W Fuente el Saz de Jarama, Spain", "global_code": "8CGRJFQJ+3W"}, "rating": 4.2, "reference": "ChIJE5hB0GvMQw0RqF9q_zv0TuU", "scope": "GOOGLE", "types": ["point_of_interest", "establishment"], "user_ratings_total": 54, "vicinity": "Camino de las Bodegas, 4, Fuente el Saz de Jarama"}, {"business_status": "OPERATIONAL", "geometry": {"location": {"lat": 40.745309, "lng": -3.511186299999999}, "viewport": {"northeast": {"lat": 40.74669643029151, "lng": -3.509821119708498}, "southwest": {"lat": 40.74399846970851, "lng": -3.512519080291502}}}, "icon": "https://maps.gstatic.com/mapfiles/place_api/icons/v1/png_71/civic_building-71.png", "icon_background_color": "#7B9EB0", "icon_mask_base_uri": "https://maps.gstatic.com/mapfiles/place_api/icons/v2/civic-bldg_pinlet", "international_phone_number": "+34 918 41 70 07", "name": "Talamanca de Jarama Town Hall", "opening_hours": {"open_now": false}, "photos": [{"height": 3024, "html_attributions": ["<a href=\"https://maps.google.com/maps/contrib/107765540348981846130\">Juan Carlos Rodriguez Arias</a>"], "photo_reference": "AWn5SU5J9fX2GG0AsC3I8g5i2vgmjEL0aM4BzrbDnqb-D-54ihlTJzQeBYTnNr2Xz2dP_O4oFCd-8_VNN-DCEla1bJzymsDCHaMKkGj4XAqXNOJwG2vdf6FxEbpctNhU1sQJkwWcKmywAuq4IZ5Ze9HbD_tAsgr7Pouo345BayJOKuRbTu1OVGO0P5sGsRBJI4PTN5jwcqEl7A1sZOlQIfPx06nDm3emgm72eh0HSJnkI_ZERgG-PVYJZROHoUoNkEyNZGK4KrFEiGHDqVefYG2AdtDQAiRju8JfRLtnEAOlOwgzSbW7xavp1iGr4h5F4zGc03hh7nI9AQw1W6fT7HLGpmGFrSBCcjDKyFMEk94RsijkuH8hqO9gx_wMvqUIKIXBH86HbK7DMOoqWmMJm5uNuhRrmFxKt6Cue6vqAhY3hLTMU4XfiGLdNvDA88xSv9YTSNAJPId0nMWvZSoOqHzyz8_jppNPaAvxOMtBZ_kmetm7i_tUFRnI2kPJ_7ZZq0gEZv9SvWXwKVwcfDmfllBrW8uG0N9KONiMZzEIvRjK4rnO3e-IEA8_L70mxieDGN-TKMCL_R5sh4Iw1ezbFmku8gyKUFBrQSbXhWpHG6JkLUACGLhb4mKMAjB8vqBD4jFKwAdZzw", "width": 4032}], "place_id": "ChIJn3-li_fFQw0RGrGed2TCUlM", "plus_code": {"compound_code": "PFWQ+4G Talamanca de Jarama, Spain", "global_code": "8CGRPFWQ+4G"}, "rating": 4.3, "reference": "ChIJn3-li_fFQw0RGrGed2TCUlM", "scope": "GOOGLE", "types": ["city_hall", "local_government_office", "point_of_interest", "establishment"], "user_ratings_total": 226, "vicinity": "Calle de la Fuente del Arca, 19, Talamanca de Jarama"}, {"business_status": "OPERATIONAL", "geometry": {"location": {"lat": 40.7001066, "lng": -3.458718999999999}, "viewport": {"northeast": {"lat": 40.7013606302915, "lng": -3.457445319708498}, "southwest": {"lat": 40.6986626697085, "lng": -3.460143280291502}}}, "icon": "https://maps.gstatic.com/mapfiles/place_api/icons/v1/png_71/generic_business-71.png", "icon_background_color": "#7B9EB0", "icon_mask_base_uri": "https://maps.gstatic.com/mapfiles/place_api/icons/v2/generic_pinlet", "international_phone_number": "+34 691 42 64 00", "name": "Vivienda Casar", "opening_hours": {"open_now": false}, "place_id": "ChIJnUGJRK3JQw0RQaEeVXmAElM", "plus_code": {"compound_code": "PG2R+2G El Casar, Spain", "global_code": "8CGRPG2R+2G"}, "rating": 5, "reference": "ChIJnUGJRK3JQw0RQaEeVXmAElM", "scope": "GOOGLE", "types": ["real_estate_agency", "point_of_interest", "establishment"], "user_ratings_total": 3, "vicinity": "Calle Huelva, 1613, El Casar"}, {"business_status": "OPERATIONAL", "geometry": {"location": {"lat": 40.7019177, "lng": -3.5089018}, "viewport": {"northeast": {"lat": 40.7032627802915, "lng": -3.507469769708498}, "southwest": {"lat": 40.7005648197085, "lng": -3.510167730291502}}}, "icon": "https://maps.gstatic.com/mapfiles/place_api/icons/v1/png_71/generic_business-71.png", "icon_background_color": "#7B9EB0", "icon_mask_base_uri": "https://maps.gstatic.com/mapfiles/place_api/icons/v2/generic_pinlet", "international_phone_number": "+34 918 41 53 80", "name": "Luz Y Claridad SL", "opening_hours": {"open_now": false}, "photos": [{"height": 860, "html_attributions": ["<a href=\"https://maps.google.com/maps/contrib/103705288051748469769\">Luz Y Claridad SL</a>"], "photo_reference": "AWn5SU7-mSOoLJb_xFV0p8R9HeICAdOGteVEhzDU0rIHfRkd_9PMgUmynyvJijR-YrHVSB3niMBC7OIap3QmWvp4B3JSn2-jm3aGzx1_WJl0YUVSRgeP3UADOD8Bdx_8QZDw00TRsC-9lQ4xmoq1zr0rMjzGSCXaicTQBUSFenBJ1BsI5jES3KmuPdsgwBvXypL3fkScEy2wxmjW-9rSwiJuvrcR4Bjbs0cU5Gm4QsxuWNPMdMWSba9zeWKnjIUhZeciWb4dFeo_X2EUlmptHieQ6aamTJBVIINGoj3Ux2L3p5chSwl5Ecq0mx6OpIjzwIhNpEn78RyLM4w", "width": 1460}], "place_id": "ChIJY5GCPtbOQw0RQKK7SHHPrEg", "plus_code": {"compound_code": "PF2R+QC Valdetorres de Jarama, Spain", "global_code": "8CGRPF2R+QC"}, "rating": 5, "reference": "ChIJY5GCPtbOQw0RQKK7SHHPrEg", "scope": "GOOGLE", "types": ["point_of_interest", "establishment"], "user_ratings_total": 6, "vicinity": "Calle Arroyo de la Hiruela, 11, Valdetorres de Jarama"}, {"business_status": "OPERATIONAL", "geometry": {"location": {"lat": 40.7021834, "lng": -3.5067037}, "viewport": {"northeast": {"lat": 40.7035261802915, "lng": -3.505253869708498}, "southwest": {"lat": 40.7008282197085, "lng": -3.507951830291502}}}, "icon": "https://maps.gstatic.com/mapfiles/place_api/icons/v1/png_71/generic_business-71.png", "icon_background_color": "#7B9EB0", "icon_mask_base_uri": "https://maps.gstatic.com/mapfiles/place_api/icons/v2/generic_pinlet", "international_phone_number": "+34 916 52 40 51", "name": "Grupo Comafast", "opening_hours": {"open_now": false}, "place_id": "ChIJg8wr1ussQg0RoGDkMM68SRI", "plus_code": {"compound_code": "PF2V+V8 Valdetorres de Jarama, Spain", "global_code": "8CGRPF2V+V8"}, "rating": 4.2, "reference": "ChIJg8wr1ussQg0RoGDkMM68SRI", "scope": "GOOGLE", "types": ["car_repair", "point_of_interest", "establishment"], "user_ratings_total": 11, "vicinity": "Calle Arroyo Salobre, 4, Valdetorres de Jarama"}, {"business_status": "OPERATIONAL", "geometry": {"location": {"lat": 40.6955184, "lng": -3.5129811}, "viewport": {"northeast": {"lat": 40.6968554802915, "lng": -3.511604719708498}, "southwest": {"lat": 40.6941575197085, "lng": -3.514302680291502}}}, "icon": "https://maps.gstatic.com/mapfiles/place_api/icons/v1/png_71/generic_business-71.png", "icon_background_color": "#7B9EB0", "icon_mask_base_uri": "https://maps.gstatic.com/mapfiles/place_api/icons/v2/generic_pinlet", "name": "Euroresa", "place_id": "ChIJx1ql9MfJQw0RF7hFshkPJJ4", "plus_code": {"compound_code": "MFWP+6R Valdetorres de Jarama, Spain", "global_code": "8CGRMFWP+6R"}, "rating": 5, "reference": "ChIJx1ql9MfJQw0RF7hFshkPJJ4", "scope": "GOOGLE", "types": ["general_contractor", "point_of_interest", "establishment"], "user_ratings_total": 1, "vicinity": "Spain"}, {"business_status": "OPERATIONAL", "geometry": {"location": {"lat": 40.7019444, "lng": -3.5086111}, "viewport": {"northeast": {"lat": 40.7033368302915, "lng": -3.507322769708498}, "southwest": {"lat": 40.70063886970851, "lng": -3.510020730291502}}}, "icon": "https://maps.gstatic.com/mapfiles/place_api/icons/v1/png_71/shopping-71.png", "icon_background_color": "#4B96F3", "icon_mask_base_uri": "https://maps.gstatic.com/mapfiles/place_api/icons/v2/shoppingcart_pinlet", "international_phone_number": "+34 918 41 43 86", "name": "Coviran Valdetorres", "opening_hours": {"open_now": false}, "photos": [{"height": 1746, "html_attributions": ["<a href=\"https://maps.google.com/maps/contrib/114726501496013120204\">Ana Belen Morales Montero</a>"], "photo_reference": "AWn5SU7IwENiFxPGx4GDmp56Et_SkMCMtoyFNwinQ0pzykRc8mvU1snLkd1oqoQr_a-n4J6WE7sIA9HrKHyQwALkgxbLP7uFgS115geyfR1GZAhFGSTCm3irILq6LFF81b_z4Oe-xs1Y0z2egZo52oNEc5rAksjsl2TXfmJwDqBS4UaIeGF1K5PCTILyKlKgLBB7I9D5ALmhkbUoQEnd_WLjdNYHdN2dw8gqJcnjw4hDljITtYITKfjvCU4kQYCr4YDJCjrWnlsHAOc_bBqWn85pCCJTEe4LAU6uRWvB2xU49NPdJuk77-v33Q9rU0YtaFSPTwht2VPmzAxOPejxj8V3aTdPhzjlYZV6laYNx_bbec9HOEf0o63pXqQc_PBwEOfVEIoHZvomYYiB356suP-CXxns2BwvTP-T_wNor1xdxEGWmSCjVeSKCZEaAsFlovpcmG6huwOT8BXEpoXcAb4pznGM-OkHrp2U1FrDa6VaRJO95fiWF6nK4Zak4i9g5tW5d51dHARi78N8EEZMx_jif-1xLzfdQ6XXfYjiW6OS-ZRQqudeEsoiSpH-2_TK5n-dIsv2gfmLGRSSeG28B3b06yYDp3lO2yTEsRxcvDioWG20MXQH3qNcM6pQX69YceOia0O-FVJH", "width": 1440}], "place_id": "ChIJtwCNx9fOQw0RJTQu9TW0lpQ", "plus_code": {"compound_code": "PF2R+QH Valdetorres de Jarama, Spain", "global_code": "8CGRPF2R+QH"}, "rating": 3.8, "reference": "ChIJtwCNx9fOQw0RJTQu9TW0lpQ", "scope": "GOOGLE", "types": ["supermarket", "grocery_or_supermarket", "store", "point_of_interest", "food", "establishment"], "user_ratings_total": 325, "vicinity": "Calle Arroyo de la Hiruela, 9, Valdetorres de Jarama"}, {"business_status": "OPERATIONAL", "geometry": {"location": {"lat": 40.7015214, "lng": -3.5066617}, "viewport": {"northeast": {"lat": 40.7028676302915, "lng": -3.505267869708498}, "southwest": {"lat": 40.7001696697085, "lng": -3.507965830291502}}}, "icon": "https://maps.gstatic.com/mapfiles/place_api/icons/v1/png_71/shopping-71.png", "icon_background_color": "#4B96F3", "icon_mask_base_uri": "https://maps.gstatic.com/mapfiles/place_api/icons/v2/shopping_pinlet", "international_phone_number": "+34 918 41 57 95", "name": "VIHERMA S.L (VÍCTOR HERNANDEZ MADERAS S.L.)", "opening_hours": {"open_now": false}, "photos": [{"height": 2448, "html_attributions": ["<a href=\"https://maps.google.com/maps/contrib/102535795930571901316\">José María Taravillo</a>"], "photo_reference": "AWn5SU5FCYNGzO0TiBZTadRDIXJpOvjZaHLXrB6O6HZOppcFSSdUFGdMhmuWa9yA_H8AYZPoE1mW7jNeRfaTIhDRxBt30MhnvMSlkGGkGRbDHXHuk77PqJIq9s88xefe_DZWGTOnbQUXS31I1a0I5odSurDKWEUaWaHxfHOfE1PthPw3QgIUYm0lih-jtest_hBInx4hrIrTKJ9gaQ3GhpCPrwcMuxAm0Jw2feuDBVCuMGQUPx_gVjJRf80YaWAUU7X5okoKyM29T4t6qj9Daha8htcIsktN4o3ochhXjtHlX55TU8988mZFlQmW3ppLpruZ6DfNtlYvATI16wHUZ-k-vX9Px7ZhHAZRD8wMxnsjrpsDZC3zFV1vikO8gQIj0e_x9LnNf9qAp-0Wflxs_WrwyKLkw83bgTRS0oJ2dJzycO2xB26mG_jCkFKfUcza2jcc93S1nN_VkXMQLh_586mD92HWhweR2liiwZOYy8awBJtrEXwhdk8RfR2hXp-i2xmywB9xCg22XWhAjDRiJS-e74H-FjjYvS0zJA44j_uYrAiKNZaQ8dxoMCyjutyWYraBp_HtQur_Jxv-ZHRg6xvxOlDRW3HcgznjBweIVY3JpFAv7POEeZTItgHdC5Iv-zKcrBjvAA", "width": 3264}], "place_id": "ChIJs7C2S9bOQw0RyKgOMLlauIk", "plus_code": {"compound_code": "PF2V+J8 Valdetorres de Jarama, Spain", "global_code": "8CGRPF2V+J8"}, "rating": 4.8, "reference": "ChIJs7C2S9bOQw0RyKgOMLlauIk", "scope": "GOOGLE", "types": ["furniture_store", "home_goods_store", "store", "point_of_interest", "establishment"], "user_ratings_total": 145, "vicinity": "Polígono Industrial Valtorón, C/Arroyo de Pozas Nº 9, 11 Y 14, Valdetorres de Jarama"}, {"business_status": "OPERATIONAL", "geometry": {"location": {"lat": 40.69222660000001, "lng": -3.516801999999999}, "viewport": {"northeast": {"lat": 40.6935398302915, "lng": -3.515479269708498}, "southwest": {"lat": 40.69084186970851, "lng": -3.518177230291502}}}, "icon": "https://maps.gstatic.com/mapfiles/place_api/icons/v1/png_71/school-71.png", "icon_background_color": "#7B9EB0", "icon_mask_base_uri": "https://maps.gstatic.com/mapfiles/place_api/icons/v2/school_pinlet", "international_phone_number": "+34 918 47 20 60", "name": "Public school Jesús Aramburu", "opening_hours": {"open_now": false}, "photos": [{"height": 1822, "html_attributions": ["<a href=\"https://maps.google.com/maps/contrib/103644858766260406648\">Un opinante delirante</a>"], "photo_reference": "AWn5SU4eDbAuazE6sO55DRSbyvRc2_03aBWNnwho9-iTvkAkKP3Pkv6RWWOSh1UWDL9gZ1Lm4fgtJ4nkcn_BAEYJW36D_cgf4wRFjpukNG4dum0Lo2x5dhXC1tXOXQ8G5p27sfotoYid1106dMtNZzSwRL7QqvJ8HARZEI9nz1KMNs77rw5_fK9pHSEFyuWdIh_DmY6QMqP868vv_EozOxEeFrYbFmt4uh6Ex_23kMyYbwf8mgtSw0mZ4-vG7SJWaIA9q4q5PjomEpNRJWb0fnt2W_IzaWRbycRh8fudRshp7ppo4rylx107mKCUToTxBdgB_UJTCKsVil96dogbWmiOXrX3n2yjJw2VpevfgbRwVocksflol4LzVJycYxg-5oFGNpmG9Op-p49-5RZkKxjdEsaBz6-Qd8qd9H-0rk06M43w-Sv7HYZsQI6dR8Oj0jJBDRAmZH06RirmtfNul25vGIxB8n9d1N_IUbJYmdEcw__PPPdrJCSSeVHroGhwiSPAdMcIcwA2UeyKLQv84C-X_jhnXZcZyX2ZjuURU49l7t-pjEiKnYR43J391MOOB4zjmYeAksZMXI50loHXrUzQ5Ing2I1YjQACUwHM0kBy0SGfBmxVBa0HE0mS2S9IAY9wecL3pryC", "width": 2330}], "place_id": "ChIJ6xz97NvOQw0RHJt1hOLjNhs", "plus_code": {"compound_code": "MFRM+V7 Valdetorres de Jarama, Spain", "global_code": "8CGRMFRM+V7"}, "reference": "ChIJ6xz97NvOQw0RHJt1hOLjNhs", "scope": "GOOGLE", "types": ["point_of_interest", "school", "establishment"], "vicinity": "Calle del Jarama, 10, Valdetorres de Jarama, Madrid"}, {"business_status": "OPERATIONAL", "geometry": {"location": {"lat": 40.7014317, "lng": -3.5055267}, "viewport": {"northeast": {"lat": 40.7027732802915, "lng": -3.504151619708498}, "southwest": {"lat": 40.7000753197085, "lng": -3.506849580291501}}}, "icon": "https://maps.gstatic.com/mapfiles/place_api/icons/v1/png_71/generic_business-71.png", "icon_background_color": "#7B9EB0", "icon_mask_base_uri": "https://maps.gstatic.com/mapfiles/place_api/icons/v2/generic_pinlet", "international_phone_number": "+34 918 47 20 40", "name": "Suministros Industriales Sumser", "opening_hours": {"open_now": false}, "place_id": "ChIJx7Z-2NfOQw0RVjEzZdlfQIs", "plus_code": {"compound_code": "PF2V+HQ Valdetorres de Jarama, Spain", "global_code": "8CGRPF2V+HQ"}, "rating": 5, "reference": "ChIJx7Z-2NfOQw0RVjEzZdlfQIs", "scope": "GOOGLE", "types": ["point_of_interest", "establishment"], "user_ratings_total": 6, "vicinity": "Lugar Arroyo de los Berros, 14, Polígono Industrial, Valdetorres de Jarama"}, {"business_status": "OPERATIONAL", "geometry": {"location": {"lat": 40.691026, "lng": -3.5103945}, "viewport": {"northeast": {"lat": 40.6923745302915, "lng": -3.508946719708499}, "southwest": {"lat": 40.6896765697085, "lng": -3.511644680291503}}}, "icon": "https://maps.gstatic.com/mapfiles/place_api/icons/v1/png_71/generic_business-71.png", "icon_background_color": "#7B9EB0", "icon_mask_base_uri": "https://maps.gstatic.com/mapfiles/place_api/icons/v2/generic_pinlet", "international_phone_number": "+34 620 75 46 70", "name": "Proinfor", "place_id": "ChIJF9N2i8_OQw0RsXiQCRmD3lU", "plus_code": {"compound_code": "MFRQ+CR Valdetorres de Jarama, Spain", "global_code": "8CGRMFRQ+CR"}, "rating": 4.7, "reference": "ChIJF9N2i8_OQw0RsXiQCRmD3lU", "scope": "GOOGLE", "types": ["point_of_interest", "establishment"], "user_ratings_total": 3, "vicinity": "Calle de San Martín, 22, Valdetorres de Jarama"}, {"business_status": "OPERATIONAL", "geometry": {"location": {"lat": 40.69793010000001, "lng": -3.5160254}, "viewport": {"northeast": {"lat": 40.6992743802915, "lng": -3.514534019708498}, "southwest": {"lat": 40.6965764197085, "lng": -3.517231980291502}}}, "icon": "https://maps.gstatic.com/mapfiles/place_api/icons/v1/png_71/hospital-71.png", "icon_background_color": "#F88181", "icon_mask_base_uri": "https://maps.gstatic.com/mapfiles/place_api/icons/v2/hospital-H_pinlet", "international_phone_number": "+34 918 41 55 99", "name": "Consultorio Local de Valdetorres", "opening_hours": {"open_now": false}, "photos": [{"height": 2322, "html_attributions": ["<a href=\"https://maps.google.com/maps/contrib/113810346162547529254\">Patricia Madrigal Martín</a>"], "photo_reference": "AWn5SU4qi47R6vxYUTwnMt3Mp_G8egIQmWtIk3vT9DFyVftrlUicMd7E2--p3YbER5geX6no3OQToILWzEjmtDwIX6WP_ZidtgL7PAuhLSVP72JuMddVwTUgmCVvEpLc3fSyuQKxoAPlNc1mgmIIM9D-S9qhwydIiqbKbnEeZnKBmveq1ICFhb_l9gLjllwUKmvvAKXULcuJmqc7TGwrx21-BZZuCZ2gYc0SC5T339FNZZ4Zci_WwSOK414-FF89YRpY8B9-k5S2MUFBv2-FRCoIOnkpZCP-i0SX1AC23BmTZAp41nanr9OocZqH2iR2b43feKGfjPKByMD7NDAQ496XP1xJ5xJqCfPO-R4JHCVihZmZld8J7CQq9FGqTSFk4AY41cLPTGldRHayUio6pHLA2jLajGqwMkyYDeDX7stxDBBu28lbuSgJdnrMq98mK-vTOFusRwMyP5n_sHANjodq5OPOYs05ED_oQcbmlj7dVG5_TJideOIec031md1QnfJ6JS1r3ReNEx1831ygyxTIOSA9L4j0MzTUx5BKMgFPWw3jD7sQ0SUbYLtYiiNrcian4IhHWV3dKbsNDwvKLwdOiQt4bXnMxbU6_ZhmbUztr4yme5OcDiWo7KSExc_jERA5022rfo2j", "width": 4128}], "place_id": "ChIJCTO-rt7OQw0Rkfm3-RaP_No", "plus_code": {"compound_code": "MFXM+5H Valdetorres de Jarama, Spain", "global_code": "8CGRMFXM+5H"}, "rating": 3, "reference": "ChIJCTO-rt7OQw0Rkfm3-RaP_No", "scope": "GOOGLE", "types": ["hospital", "health", "point_of_interest", "establishment"], "user_ratings_total": 22, "vicinity": "Plaza del Rodeo, 1, Valdetorres de Jarama"}, {"business_status": "OPERATIONAL", "geometry": {"location": {"lat": 40.6973244, "lng": -3.515276699999999}, "viewport": {"northeast": {"lat": 40.6986811302915, "lng": -3.513947919708498}, "southwest": {"lat": 40.69598316970851, "lng": -3.516645880291501}}}, "icon": "https://maps.gstatic.com/mapfiles/place_api/icons/v1/png_71/generic_business-71.png", "icon_background_color": "#7B9EB0", "icon_mask_base_uri": "https://maps.gstatic.com/mapfiles/place_api/icons/v2/generic_pinlet", "international_phone_number": "+34 918 41 55 94", "name": "JSC Productions", "place_id": "ChIJrbxA99vOQw0RWrFoam7ORR0", "plus_code": {"compound_code": "MFWM+WV Valdetorres de Jarama, Spain", "global_code": "8CGRMFWM+WV"}, "reference": "ChIJrbxA99vOQw0RWrFoam7ORR0", "scope": "GOOGLE", "types": ["point_of_interest", "establishment"], "vicinity": "Calle Bellas Vistas, 4, Valdetorres de Jarama"}, {"business_status": "OPERATIONAL", "geometry": {"location": {"lat": 40.71620679999999, "lng": -3.5113048}, "viewport": {"northeast": {"lat": 40.7174312802915, "lng": -3.509933469708499}, "southwest": {"lat": 40.7147333197085, "lng": -3.512631430291502}}}, "icon": "https://maps.gstatic.com/mapfiles/place_api/icons/v1/png_71/shopping-71.png", "icon_background_color": "#4B96F3", "icon_mask_base_uri": "https://maps.gstatic.com/mapfiles/place_api/icons/v2/shopping_pinlet", "international_phone_number": "+34 918 41 51 30", "name": "BMI Cobert Valdetorres del Jarama", "opening_hours": {"open_now": false}, "photos": [{"height": 1197, "html_attributions": ["<a href=\"https://maps.google.com/maps/contrib/111806619425687065054\">BMI Cobert Valdetorres del Jarama</a>"], "photo_reference": "AWn5SU5qBo6ekuNiXq2WQJV4uwS0bbd6kiCX_nEJZD9LowoGJXsCUswSsB_cYNXDORR7rsjTZPaVCYmGe9F4TIHdgf6x52kh1UWK3a6R7u3Vv3A1s7N6xOtSVee2yCKiU_OVJz9Oqq9WjI8yLpz4UQXv_Lyxy4PDogYRXxUY1o3Z2Hcx8VsjUX5fzgQi0wCp0ndLkjCgnS8mwUg6BU8dK8hGVQZFYgT5CjV3bJnn1PX6tjudpZuZ3uMZQlifiFQLpR-jjPJqIGe8q87wiNyQ9pFST3m-MPm8htrDA31DrgC02onVLZ3TwvfBSAm-L7s7bqCfKlZut1ciY2w", "width": 1600}], "place_id": "ChIJ58M8xNDOQw0RmSR7HBUCvGA", "plus_code": {"compound_code": "PF8Q+FF Valdetorres de Jarama, Spain", "global_code": "8CGRPF8Q+FF"}, "rating": 4.2, "reference": "ChIJ58M8xNDOQw0RmSR7HBUCvGA", "scope": "GOOGLE", "types": ["store", "point_of_interest", "establishment"], "user_ratings_total": 28, "vicinity": "M-103, km 21, 800, Valdetorres de Jarama"}, {"business_status": "OPERATIONAL", "geometry": {"location": {"lat": 40.7142945, "lng": -3.5379602}, "viewport": {"northeast": {"lat": 40.7156767802915, "lng": -3.536602969708498}, "southwest": {"lat": 40.7129788197085, "lng": -3.539300930291502}}}, "icon": "https://maps.gstatic.com/mapfiles/place_api/icons/v1/png_71/generic_business-71.png", "icon_background_color": "#7B9EB0", "icon_mask_base_uri": "https://maps.gstatic.com/mapfiles/place_api/icons/v2/generic_pinlet", "international_phone_number": "+34 626 89 06 03", "name": "Durcan Montelúa 7flechas", "opening_hours": {"open_now": false}, "photos": [{"height": 1599, "html_attributions": ["<a href=\"https://maps.google.com/maps/contrib/117584210121979423147\">Durcan Montelúa 7flechas</a>"], "photo_reference": "AWn5SU7OI4TPlDC021-z951wOkZEZXMxWSCMW_gXFtCk9S8Btwv3tU-H6BENTPTK-Mh-KbnzLLXDnWvZpJdZgcPECkpYwd2Ew451H1_nvnviRPfkHWT3kHioT6qWelt2gyu5B6JCxAZaKbVyOvPIf2I3YrfIeMUGoKtnM_G7_L5IzvyQ4PQsK7Z1c0_Pnu2sXLmm2BE9Q6hsN9t6tzuQtrr8JENoP8jZlLROEc2nAj5r-a-ccLPj1Rq4qC0oeWzvNrNqVKpZcdbdY1Qv2LRUKinFUjtSoBxX8TYBYjKGcGSPPEFyssSIUFDcaz3GK_mIvDF-G67Hh6S89-Y", "width": 899}], "place_id": "ChIJUeCMjTPOQw0REidTWFXqmZ0", "plus_code": {"compound_code": "PF76+PR El Molar, Spain", "global_code": "8CGRPF76+PR"}, "rating": 4.3, "reference": "ChIJUeCMjTPOQw0REidTWFXqmZ0", "scope": "GOOGLE", "types": ["point_of_interest", "establishment"], "user_ratings_total": 67, "vicinity": "Extrarradio Los Rosales, 0 S/N, El Molar"}, {"business_status": "OPERATIONAL", "geometry": {"location": {"lat": 40.67434129999999, "lng": -3.4971736}, "viewport": {"northeast": {"lat": 40.67568938029149, "lng": -3.495708919708498}, "southwest": {"lat": 40.6729914197085, "lng": -3.498406880291502}}}, "icon": "https://maps.gstatic.com/mapfiles/place_api/icons/v1/png_71/generic_business-71.png", "icon_background_color": "#7B9EB0", "icon_mask_base_uri": "https://maps.gstatic.com/mapfiles/place_api/icons/v2/generic_pinlet", "international_phone_number": "+34 636 26 16 62", "name": "DeMascotas Cecilia Rodriguez", "opening_hours": {"open_now": false}, "photos": [{"height": 809, "html_attributions": ["<a href=\"https://maps.google.com/maps/contrib/100652486370116438991\">DeMascotas Cecilia Rodriguez</a>"], "photo_reference": "AWn5SU7kA2ZNZrOTkJB5WRDPRROZFuu5gnc3UelJmMEO15JWjSArue7NExUS0C-6q55FJ5WcT0zozBHpoWIYPgwfrICv6s5cgFy6I0PCbrJoAla0C_Inswm9rGJ6yanh3ksjKn5qW1pSl0rMrGRmXZ2etSC2k8i8MMrfrVYmtjZpQeitUaiXF_vQGN3Ccu6kbtaq2EwfaNvGlCTjS0wF6ux4uHkpDnndjm7wgIpvFjQ7_2MMQSwmHL7oSTaXaBIJ-4aOqJX7o6Gxgste8o5AOmdMkedBf93s3E3yUDHd45ni0PWp7GUE9lNZ8WXlr6ocUJSyplbH3RkefQA", "width": 1440}], "place_id": "ChIJq6xNkG_MQw0RasA2-7qNBkQ", "plus_code": {"compound_code": "MGF3+P4 Fuente el Saz de Jarama, Spain", "global_code": "8CGRMGF3+P4"}, "rating": 4.9, "reference": "ChIJq6xNkG_MQw0RasA2-7qNBkQ", "scope": "GOOGLE", "types": ["point_of_interest", "establishment"], "user_ratings_total": 30, "vicinity": "Urbanización la Escarabajosa, Fuente el Saz de Jarama"}, {"business_status": "OPERATIONAL", "geometry": {"location": {"lat": 40.7378259, "lng": -3.511826699999999}, "viewport": {"northeast": {"lat": 40.7391706302915, "lng": -3.510409119708497}, "southwest": {"lat": 40.7364726697085, "lng": -3.513107080291501}}}, "icon": "https://maps.gstatic.com/mapfiles/place_api/icons/v1/png_71/restaurant-71.png", "icon_background_color": "#FF9E67", "icon_mask_base_uri": "https://maps.gstatic.com/mapfiles/place_api/icons/v2/restaurant_pinlet", "international_phone_number": "+34 916 28 91 80", "name": "Vircar Panificación, S.L.", "opening_hours": {"open_now": true}, "photos": [{"height": 3472, "html_attributions": ["<a href=\"https://maps.google.com/maps/contrib/110008972728959672976\">María Esther Resina Jiménez</a>"], "photo_reference": "AWn5SU6zHUC3azR2qIMTHgWrLkU4Hc0AxF4bjsFvslITfuP_53bnkXsB_7-jCEPVqGc4WNsQVEIh-ls4ydQDcLYz0uD-diHNNlFbx3CFFOKoddgjm9c9e5xXEnOmyk8FHRd_uxjrzX5kgLrCy0XXwzzqgqpb4pRQnbNjD84w5xK6DfvGk4V4tYC23QnSsYqpFPQ2fk1f0QW7NvPubdJsh9mUtbVp58TdVto5HGL48it687E60bZDKbs2Q4ktlXnRGEP_CzjDarwRcmPNrhy0vfzyFtyyI9JOE576BOCJsYBoFmEP8qoK9F5Yw-JqOfvNSXRnvdpuraPFjBtsXTvKoQBHVHPRcXkLCunyBMeS-HX6mWsV-nQH_rJO-k4ZQ9UShE1UPm6V2bUgnd3A4MN44yjDolEdh9vwyR90uDoeIi-A54dPiTa1MiC_61mT1u_Ha1w2Lh11b5vY2jSvEVw0mRZ9vztn2pnBvqxkdPsdoIrznXJmauOO-Lkv1SxauhwGTU-NvblZlMv4mseMvvDYwXYF31VI4b4SAsaC_U68wshlOACbmhucClLSls9CKhdrUieRN4BBXTdIadB6WjQLpHPuu91iB4GRkd_BmuT4dUWkSYOkge4pioxFPULMf10wXkoSEkFlwA", "width": 4640}], "place_id": "ChIJw6JoP1rPQw0RDYAuiYdhdTk", "plus_code": {"compound_code": "PFQQ+47 Talamanca de Jarama, Spain", "global_code": "8CGRPFQQ+47"}, "price_level": 1, "rating": 4.4, "reference": "ChIJw6JoP1rPQw0RDYAuiYdhdTk", "scope": "GOOGLE", "types": ["bakery", "store", "point_of_interest", "food", "establishment"], "user_ratings_total": 77, "vicinity": "Polígono Industrial, Avenida de Alcalá, 26, Talamanca de Jarama"}, {"geometry": {"location": {"lat": 40.7351603, "lng": -3.5825347}, "viewport": {"northeast": {"lat": 40.74021336898591, "lng": -3.576447456324869}, "southwest": {"lat": 40.72873502693603, "lng": -3.586620608344755}}}, "icon": "https://maps.gstatic.com/mapfiles/place_api/icons/v1/png_71/geocode-71.png", "icon_background_color": "#7B9EB0", "icon_mask_base_uri": "https://maps.gstatic.com/mapfiles/place_api/icons/v2/generic_pinlet", "name": "El Molar", "photos": [{"height": 2335, "html_attributions": ["<a href=\"https://maps.google.com/maps/contrib/101830352464938515708\">Sandra Pereira</a>"], "photo_reference": "AWn5SU58l2f7-15gWwcJnUBO8vWSz0p_D4tzohp24VSOyceB55wYU9VM-ixRajaEIBq7TD_H0UcrYPNDNtp-Rro5AJk_25Ior39i7ozgm8I2t5H5utGyVjGvmC2O0CqVO0JAym7uTY2LWJtH9WlG7F9gTmDdLa0rJQ6hyR7Vu2LKSo4ImMgFTyNcph-BlUMd--RB8BM0RtTV5-IpclZiE6ILk8uWOGeqDcPfU9TQjwoN_QqkmSd4gDJHgP8CzjA-sWm7nlBp3VVKusG7vrw0lqE7oc6Zs-skwV_OS-PQ825wQ-Qo_51AFt9tDHO-p5lZp_uzw2SAFk7Zt38W9sbVdc9ZNXJI0OQfZA3l4mIfwqHCmCGfm0usIg2AkJc0SqRWq5ss7y-t1oye667n9fdSL-Bv5uNBwvfLyMICQj_C3rDuL_RNfEnYkFTAHFxJ2dyNWA8vRqjqcbYtrQ_Y_Zr511HNgPrhy69Wo_xNMqlDxBLPd7pJII2fYEod9BTN50isl2NlCdeQUGcyP3lrBQBnB0HwjfrDGLSouAzVXCtCtnfWOYisNsbAqpXpTvV3sI3Ly5GJIwUBvT1jczsrxOPSr4ce50fj5o6QCvUipLnZnltlwAX02EeHgMVJwBYCsW5zs68No4prUw", "width": 2160}], "place_id": "ChIJPxiTeQLQQw0RVaOLHLpmYV0", "reference": "ChIJPxiTeQLQQw0RVaOLHLpmYV0", "scope": "GOOGLE", "types": ["locality", "political"], "vicinity": "El Molar"}]