[{"business_status": "OPERATIONAL", "geometry": {"location": {"lat": 40.66662669999999, "lng": -3.3922921}, "viewport": {"northeast": {"lat": 40.6679810302915, "lng": -3.390951719708499}, "southwest": {"lat": 40.6652830697085, "lng": -3.393649680291502}}}, "icon": "https://maps.gstatic.com/mapfiles/place_api/icons/v1/png_71/shopping-71.png", "icon_background_color": "#4B96F3", "icon_mask_base_uri": "https://maps.gstatic.com/mapfiles/place_api/icons/v2/shopping_pinlet", "international_phone_number": "+34 918 79 15 30", "name": "ESTANCO EN RIBATEJADA", "opening_hours": {"open_now": false}, "photos": [{"height": 1239, "html_attributions": ["<a href=\"https://maps.google.com/maps/contrib/105856961254422132741\">MGV</a>"], "photo_reference": "AWn5SU4xp0F3YlSzQUEW3bBRviN9XiCVFKOu7sQeMIev_31firXF0KECthDYOXabkDvRJyxJodOKzdWJPto5nrzUwZ2m9k6oD-lb__22G5M-5-i5K8tY56LCF2zhMyXflz2O8MZGRog1qMRpQsNooeqKQ6av3zjsKo_96JtNV0aUyUpu5CrCKx3ibH3PiS6nTyXZOhWfVj3FXx3c2pOKQeRR-EDCHvYVtNy0kAwr3ZmHvO96u69om-LVpt8Cv4Pq-IG90Yx8DunHgPCQNVHixeL-6BGap6F-E1t6Qex252tZP_X_qxuvLpvcL0uEPi6k8BlssEppcXZK9v4Jtv9wmgl8Xv5qcWw9r5IhXWMh7Mw73SiXb80qXAClJwhr8Cn23v2YnTU4ZW_41EDF5bjqX4vsh8_jDM2UZhQsoORDhnLjl905awEtc-_iPxWuP00AvD5BaE15BPR-fUTi171ZpMISymK_0IvC87RBRIjoSQIfKBwXj_HS9r866rpxvczzK2Nzd_adkxWb6CNmWCmF8LcKsFgb6XejheLIJJlyfTTxJd0xATBQ2oIq8B-H8OK5HmYZo5UASz8AgVkCb79Mi3WViG0reN7WGAhTp2bGP0LMapJy5h__BGioBZML8_PlgCfoHjN8ig", "width": 3024}], "place_id": "ChIJ1xk7qem3Qw0Rcx3ZQ6lVWsU", "plus_code": {"compound_code": "MJ85+M3 Ribatejada, Spain", "global_code": "8CGRMJ85+M3"}, "rating": 4.4, "reference": "ChIJ1xk7qem3Qw0Rcx3ZQ6lVWsU", "scope": "GOOGLE", "types": ["supermarket", "grocery_or_supermarket", "food", "point_of_interest", "store", "establishment"], "user_ratings_total": 36, "vicinity": "Calle Fuente, 2, Ribatejada"}, {"business_status": "OPERATIONAL", "geometry": {"location": {"lat": 40.6820998, "lng": -3.3734586}, "viewport": {"northeast": {"lat": 40.68340738029149, "lng": -3.372166619708498}, "southwest": {"lat": 40.68070941970849, "lng": -3.374864580291502}}}, "icon": "https://maps.gstatic.com/mapfiles/place_api/icons/v1/png_71/shopping-71.png", "icon_background_color": "#4B96F3", "icon_mask_base_uri": "https://maps.gstatic.com/mapfiles/place_api/icons/v2/shoppingcart_pinlet", "name": "Coaliment", "opening_hours": {"open_now": false}, "place_id": "ChIJuapvHYy2Qw0RpRYBfCxwBeA", "plus_code": {"compound_code": "MJJG+RJ Parque de Las Castillas, Spain", "global_code": "8CGRMJJG+RJ"}, "rating": 4.1, "reference": "ChIJuapvHYy2Qw0RpRYBfCxwBeA", "scope": "GOOGLE", "types": ["supermarket", "grocery_or_supermarket", "food", "point_of_interest", "store", "establishment"], "user_ratings_total": 8, "vicinity": ""}, {"business_status": "OPERATIONAL", "geometry": {"location": {"lat": 40.68213160000001, "lng": -3.373402}, "viewport": {"northeast": {"lat": 40.6834208302915, "lng": -3.372135219708498}, "southwest": {"lat": 40.6807228697085, "lng": -3.374833180291502}}}, "icon": "https://maps.gstatic.com/mapfiles/place_api/icons/v1/png_71/shopping-71.png", "icon_background_color": "#4B96F3", "icon_mask_base_uri": "https://maps.gstatic.com/mapfiles/place_api/icons/v2/shoppingcart_pinlet", "name": "Supermercados", "place_id": "ChIJTwD9oJS3Qw0RnSY_F0D7buM", "plus_code": {"compound_code": "MJJG+VJ Torrejón del Rey, Spain", "global_code": "8CGRMJJG+VJ"}, "rating": 5, "reference": "ChIJTwD9oJS3Qw0RnSY_F0D7buM", "scope": "GOOGLE", "types": ["supermarket", "grocery_or_supermarket", "food", "point_of_interest", "store", "establishment"], "user_ratings_total": 1, "vicinity": "Calle Castillo Peñafiel, 300B, Torrejón del Rey"}]