[{"business_status": "OPERATIONAL", "geometry": {"location": {"lat": 40.36122, "lng": -4.40047}, "viewport": {"northeast": {"lat": 40.3625758302915, "lng": -4.399124269708498}, "southwest": {"lat": 40.3598778697085, "lng": -4.401822230291502}}}, "icon": "https://maps.gstatic.com/mapfiles/place_api/icons/v1/png_71/pharmacy-71.png", "icon_background_color": "#F88181", "icon_mask_base_uri": "https://maps.gstatic.com/mapfiles/place_api/icons/v2/pharmacy_pinlet", "international_phone_number": "+34 918 61 00 60", "name": "Farmacia Julio Álvarez Palacios", "opening_hours": {"open_now": false}, "photos": [{"height": 4000, "html_attributions": ["<a href=\"https://maps.google.com/maps/contrib/102628395385083912249\">Farmacia Julio Álvarez Palacios</a>"], "photo_reference": "AWn5SU5ZnFbDou63gDaxKJM1eu8TnL47d7jqmaojKUbCHx4aPduOv7wv2go-CUvhe0-0_0mJytSKLUaY__KFESfXOCQYSzhgecvpaskRB4X622UbJEUqY0efZObsAimXKc25D4XKQ1xsbtlcipm2IQw8a99uAA0fwNms4NWBIS7DxRQhOrRga0a3Rq-YuPdCrmZMOVz_Jq2KcDKnPLR54m0Lt4Vxn6KPST2JGHrLJagT8j9_T18JYWwF5ydvcF2L7YLWjAFCQAJCh_6HvCmPLt8s1iaPSlCRC6R2XlhwQ91RdBbkzYOOzwi2dluQnfizvcrYh9ZPEkZZhGo", "width": 6000}], "place_id": "ChIJCSbHrTNNQA0RW8SIgWavnzE", "plus_code": {"compound_code": "9H6X+FR San Martín de Valdeiglesias, Spain", "global_code": "8CGQ9H6X+FR"}, "rating": 4.4, "reference": "ChIJCSbHrTNNQA0RW8SIgWavnzE", "scope": "GOOGLE", "types": ["pharmacy", "shoe_store", "store", "health", "point_of_interest", "establishment"], "user_ratings_total": 92, "vicinity": "Plaza de la Corredera, 4, San Martín de Valdeiglesias"}, {"business_status": "OPERATIONAL", "geometry": {"location": {"lat": 40.3616449, "lng": -4.3324719}, "viewport": {"northeast": {"lat": 40.3629316802915, "lng": -4.331193569708498}, "southwest": {"lat": 40.3602337197085, "lng": -4.333891530291503}}}, "icon": "https://maps.gstatic.com/mapfiles/place_api/icons/v1/png_71/pharmacy-71.png", "icon_background_color": "#F88181", "icon_mask_base_uri": "https://maps.gstatic.com/mapfiles/place_api/icons/v2/pharmacy_pinlet", "international_phone_number": "+34 918 64 50 47", "name": "Farmacia", "opening_hours": {"open_now": false}, "place_id": "ChIJn86ujjeyQQ0R-uxcjeMBt4c", "plus_code": {"compound_code": "9M69+M2 Pelayos de la Presa, Spain", "global_code": "8CGQ9M69+M2"}, "rating": 2.4, "reference": "ChIJn86ujjeyQQ0R-uxcjeMBt4c", "scope": "GOOGLE", "types": ["pharmacy", "store", "health", "point_of_interest", "establishment"], "user_ratings_total": 28, "vicinity": "Callejón de la Estación, 4, Pelayos de la Presa"}, {"business_status": "OPERATIONAL", "geometry": {"location": {"lat": 40.3618616, "lng": -4.398047299999999}, "viewport": {"northeast": {"lat": 40.3631832302915, "lng": -4.396676569708498}, "southwest": {"lat": 40.3604852697085, "lng": -4.399374530291502}}}, "icon": "https://maps.gstatic.com/mapfiles/place_api/icons/v1/png_71/pharmacy-71.png", "icon_background_color": "#F88181", "icon_mask_base_uri": "https://maps.gstatic.com/mapfiles/place_api/icons/v2/pharmacy_pinlet", "international_phone_number": "+34 690 17 22 29", "name": "La Farmacia de María", "opening_hours": {"open_now": false}, "photos": [{"height": 4032, "html_attributions": ["<a href=\"https://maps.google.com/maps/contrib/109369671013199258864\">Maria Alvarez Palacios</a>"], "photo_reference": "AWn5SU4BehmzjO7R1CZicPo2QCwbyQBwRHLA6TgNmbxgvRZ1sN6r1G4kLvOKCrgvLl-LvYbKeCAHO3IFWd9Fwi9QjPcrSkDDBkRTEbyftDLsap_wuQAa8zyeTgRgyC0p6pyMyhpCBTO_j5q_AjQm1Ye3HDyMcga542jAXdY84fds8Mzibdz2hNamXMjId4FRLGJy1JzhcJyBdofIFBoti47_n1E01GIvS5wSZcp823tLxdXeqFMV2923c8KbmRvNXNzW5Lh7LRhrmD0KEozPE6MM-65347ty8a-pjdhj4TW1J1jpLDrJ4fMBMZNEcYehWUAly8l1jXrJiSQCc9KezHQigAQkTiCyaBP7c5Fuf5ZjwiRAVTSI20Q2jEr6vK-JHRmuYoEH376Y3pcQu-W9gEktoKKo99cQE3r98Ti7RvuUCWPKLzwSKHyivmXG1npbYr3sNloO3owi0mldAFEedUHfMPL1qk2OSFC8qdSnARVt_BYf3SaKcdJhaXzm9CnWpvlu_882jpBeh1_nCSDdgHWLEEqqvOn_SJ2wHSBKwaDTDARUW8GDAXhbbTpSGQCpVc9507neJCkC8gUlXSyhsodro835FTsdntVeD-OcMCHxo43gCHsX6tp-YXqk0EUV0S2d8JUTV_B_IjWeTHKsVMggFw", "width": 3024}], "place_id": "ChIJrV4cNjNNQA0RV8EZIo2mahA", "plus_code": {"compound_code": "9J62+PQ San Martín de Valdeiglesias, Spain", "global_code": "8CGQ9J62+PQ"}, "rating": 4, "reference": "ChIJrV4cNjNNQA0RV8EZIo2mahA", "scope": "GOOGLE", "types": ["pharmacy", "store", "health", "point_of_interest", "establishment"], "user_ratings_total": 52, "vicinity": "Calle de Ramón y Cajal, 18, San Martín de Valdeiglesias"}, {"business_status": "OPERATIONAL", "geometry": {"location": {"lat": 40.3646776, "lng": -4.398041899999999}, "viewport": {"northeast": {"lat": 40.36603418029151, "lng": -4.396779819708498}, "southwest": {"lat": 40.36333621970851, "lng": -4.399477780291503}}}, "icon": "https://maps.gstatic.com/mapfiles/place_api/icons/v1/png_71/pharmacy-71.png", "icon_background_color": "#F88181", "icon_mask_base_uri": "https://maps.gstatic.com/mapfiles/place_api/icons/v2/pharmacy_pinlet", "international_phone_number": "+34 918 61 30 29", "name": "Farmacia José Manuel Martín Díaz", "opening_hours": {"open_now": false}, "place_id": "ChIJ96o_Us4xQA0RKAajCm5jJAI", "plus_code": {"compound_code": "9J72+VQ San Martín de Valdeiglesias, Spain", "global_code": "8CGQ9J72+VQ"}, "rating": 4.6, "reference": "ChIJ96o_Us4xQA0RKAajCm5jJAI", "scope": "GOOGLE", "types": ["pharmacy", "store", "health", "point_of_interest", "establishment"], "user_ratings_total": 5, "vicinity": "Calle de la Fuente, 10b, San Martín de Valdeiglesias"}, {"business_status": "OPERATIONAL", "geometry": {"location": {"lat": 40.3647128, "lng": -4.3980717}, "viewport": {"northeast": {"lat": 40.3660475802915, "lng": -4.396794719708498}, "southwest": {"lat": 40.3633496197085, "lng": -4.399492680291503}}}, "icon": "https://maps.gstatic.com/mapfiles/place_api/icons/v1/png_71/pharmacy-71.png", "icon_background_color": "#F88181", "icon_mask_base_uri": "https://maps.gstatic.com/mapfiles/place_api/icons/v2/pharmacy_pinlet", "international_phone_number": "+34 918 61 30 29", "name": "FARMACIA LA ESTACIÓN", "opening_hours": {"open_now": false}, "photos": [{"height": 4032, "html_attributions": ["<a href=\"https://maps.google.com/maps/contrib/108301208868881549989\">FARMACIA LA ESTACIÓN</a>"], "photo_reference": "AWn5SU7mvfb6SiVIjkAvZKiqeKEJMc6zBLH4ONkhT83wUQhX407McxzMa1im6N1uGsR-JUxjKAVuH8COoe6S8s07QZjgh7L7Xp9i97fTcql2bEtjzP13NMgeoWI6i9olPoTIEUdASnDiQalYZIxK6M5p-0R8TXD6_Rf2HclGyIJxIQw4n3DTfWxQ2XbitweyUz_repi-llhcln0-BQJ1P3eIKdjaPoHk5070144RGNCIrict6z-hxnF8_M0QIdONPYA_yYXmDYvbbEw9VMMyxCZ-A5EgJxRxyGMXKOcO_761x9xHEMI3etYHuNTBqsYzZSopkqA1pl5ij7o", "width": 3024}], "place_id": "ChIJ4WPS1jRNQA0RpyyE3m6nuds", "plus_code": {"compound_code": "9J72+VQ San Martín de Valdeiglesias, Spain", "global_code": "8CGQ9J72+VQ"}, "rating": 4.1, "reference": "ChIJ4WPS1jRNQA0RpyyE3m6nuds", "scope": "GOOGLE", "types": ["pharmacy", "store", "health", "point_of_interest", "establishment"], "user_ratings_total": 47, "vicinity": "Calle de la Fuente, 10, San Martín de Valdeiglesias"}, {"business_status": "OPERATIONAL", "geometry": {"location": {"lat": 40.4006134, "lng": -4.3871433}, "viewport": {"northeast": {"lat": 40.40194183029151, "lng": -4.385748119708499}, "southwest": {"lat": 40.39924386970851, "lng": -4.388446080291503}}}, "icon": "https://maps.gstatic.com/mapfiles/place_api/icons/v1/png_71/pharmacy-71.png", "icon_background_color": "#F88181", "icon_mask_base_uri": "https://maps.gstatic.com/mapfiles/place_api/icons/v2/pharmacy_pinlet", "international_phone_number": "+34 655 11 13 63", "name": "Farmacia Médica", "photos": [{"height": 541, "html_attributions": ["<a href=\"https://maps.google.com/maps/contrib/113988893901364352542\">Farmacia Médica</a>"], "photo_reference": "AWn5SU4s0Q-rUuCaq5otHq_qs-SThwoQ42YonPObS4YFg8mJQ4uOCtFw6g0mjfIZ2bv0y2ephLhZb2oZO_AqeQcXy81hxK2zjUgoU75wuIZuRQf5iZMk1QIxZMCuhciV6y9tQBtMyovtXXK2_hokM8eRs9e9Q9UmqiBEQfFw_0Fv73tsUgv2eK-GNOQsItywIhbBBMlaK8QJsTu9jWDJ7ZGIgvodC0gDlTc4fDJ8G7XBi7qwIgx1sLqh2jrxj39Bajs4U7r6_f9w35KFO2kEYiPqHXTx8culzh7YXxaqDm8iIQXzvn4ge_GdXveZ0KYlDpHE8ctd4A8SyGI", "width": 960}], "place_id": "ChIJW3rqYEWtQQ0RcETEospvdu4", "plus_code": {"compound_code": "CJ27+64 San Martín de Valdeiglesias, Spain", "global_code": "8CGQCJ27+64"}, "rating": 1, "reference": "ChIJW3rqYEWtQQ0RcETEospvdu4", "scope": "GOOGLE", "types": ["pharmacy", "store", "health", "point_of_interest", "establishment"], "user_ratings_total": 1, "vicinity": "Calle de la Goleta, 17, San Martín de Valdeiglesias"}]