[{"business_status": "OPERATIONAL", "geometry": {"location": {"lat": 40.50979940000001, "lng": -3.530676499999999}, "viewport": {"northeast": {"lat": 40.5112580802915, "lng": -3.529434169708498}, "southwest": {"lat": 40.5085601197085, "lng": -3.532132130291502}}}, "icon": "https://maps.gstatic.com/mapfiles/place_api/icons/v1/png_71/generic_business-71.png", "icon_background_color": "#7B9EB0", "icon_mask_base_uri": "https://maps.gstatic.com/mapfiles/place_api/icons/v2/generic_pinlet", "international_phone_number": "+34 916 58 09 94", "name": "APLISA S.l.", "opening_hours": {"open_now": false}, "place_id": "ChIJrWFuLzQyQg0RC9Y6LyCTKeU", "rating": 5, "reference": "ChIJrWFuLzQyQg0RC9Y6LyCTKeU", "scope": "GOOGLE", "types": ["doctor", "store", "point_of_interest", "health", "establishment"], "user_ratings_total": 2, "vicinity": "C/Granja de las nieves, nave 6, Paracuellos de Jarama"}, {"business_status": "OPERATIONAL", "geometry": {"location": {"lat": 40.5052694, "lng": -3.5304919}, "viewport": {"northeast": {"lat": 40.5066239302915, "lng": -3.529190369708498}, "southwest": {"lat": 40.5039259697085, "lng": -3.531888330291502}}}, "icon": "https://maps.gstatic.com/mapfiles/place_api/icons/v1/png_71/shopping-71.png", "icon_background_color": "#4B96F3", "icon_mask_base_uri": "https://maps.gstatic.com/mapfiles/place_api/icons/v2/shopping_pinlet", "international_phone_number": "+34 916 58 26 63", "name": "Centro Optico Paracuellos", "opening_hours": {"open_now": false}, "photos": [{"height": 437, "html_attributions": ["<a href=\"https://maps.google.com/maps/contrib/112315046684666884060\">Centro Optico y Auditivo Paracuellos</a>"], "photo_reference": "AWn5SU5oxMdF7h-ACgxXx_9aY7ZTV99LL9jnI7-3VoV2OwdzZ6rJ31vjgemUXW4VBivanewihj3IlbMwwzMBaA3bwq0jM6a7Mq1aWYPP1t5-Tc5TTtOmZFVUZgPtuEGhgpDp3u1HP81ek59wEU89rzzrewWiTUcAX929zirkC9JPzQSYfcrW94JaRZ2nalKvxonxmO-IIs5Lnn3it0CSjhooz84rbUAs_BDbKB8a0ThnTYwiCeYVzIUm3bWoRod4h5q8hDUiChvy_dHK5RTjWHIwqGDqtrwoR4dFiXPH30BasSadQU8hMrWk8nqhFPLXy8ULQeewAoXKGoA", "width": 437}], "place_id": "ChIJQdySidkzQg0Rdtn8bI4Vvmw", "plus_code": {"compound_code": "GF49+4R Paracuellos de Jarama, Spain", "global_code": "8CGRGF49+4R"}, "rating": 4.5, "reference": "ChIJQdySidkzQg0Rdtn8bI4Vvmw", "scope": "GOOGLE", "types": ["doctor", "store", "point_of_interest", "health", "establishment"], "user_ratings_total": 44, "vicinity": "Calle Real de Burgos, 18, Paracuellos de Jarama"}, {"business_status": "OPERATIONAL", "geometry": {"location": {"lat": 40.5065507, "lng": -3.5323656}, "viewport": {"northeast": {"lat": 40.5078537802915, "lng": -3.530757169708498}, "southwest": {"lat": 40.5051558197085, "lng": -3.533455130291502}}}, "icon": "https://maps.gstatic.com/mapfiles/place_api/icons/v1/png_71/civic_building-71.png", "icon_background_color": "#7B9EB0", "icon_mask_base_uri": "https://maps.gstatic.com/mapfiles/place_api/icons/v2/civic-bldg_pinlet", "international_phone_number": "+34 916 58 21 57", "name": "Health Center Paracuellos de Jarama", "opening_hours": {"open_now": false}, "photos": [{"height": 2268, "html_attributions": ["<a href=\"https://maps.google.com/maps/contrib/113246429826754002636\">Jose Manuel Alvarez Ilarri</a>"], "photo_reference": "AWn5SU6Usti_oMqF0ICUtrUb3-fiHRKy7Gh4OsE5bhmAQeaSEIpY8x0CPXQcYuSnn_5wOtS_mKkkvPW7ZEBLssUoI7MS97jDXABs8vr1N8kPw5z_w33pgbiHxFgzn4rt0UjT0gB0BrdioRSx3932l5h5iZc6zg_eLdk39q231Nx_ZQwvJH40uPwW6yIjHYDwKOfiASzHx2AYaOda3g3A7EDg8MIRIwIKQsE0Jchy52N0S8XEl31DRt9CfCmywnYQPNiAyJDbjHXa1ZFUFiIDCUBWuyDpRUK_2vSoCMoPULuqi7GqadEO0oeIOdpbsQ5zbb1fxwvqG6wSPj8U6KsCgMw5nPZU5WVsYkFKhvRl5FAVAiA0Wxj2Mvu2Ng4VwdonNK79OlcL_cZrbhlrX2MhkYhiYIi9_JuF5a9av-A-jma7gk2XEfcPFOzlw6zGNhMS4vHOC2VljO10YKZsvg81zW_gZTAFYpmFj_d_3FRK9LFXq8grDjP1Tk0zYVmn5eBsN6kBI4OPyhd-_gkt46gNp3ew0S9DqIXyZMfULnzsVAPrQ_XVs7oWbEkf7wbLtF4LpZtTNrJDRYtDoMyp_aqmJXwhotmPUIkJo88JWqy3853BqN64owEjGMffz5Ba3hm7K80auTYV3DYG", "width": 4032}], "place_id": "ChIJySosZF8xQg0Rygwk4ikf5u4", "plus_code": {"compound_code": "GF49+J3 Paracuellos de Jarama, Spain", "global_code": "8CGRGF49+J3"}, "rating": 2.2, "reference": "ChIJySosZF8xQg0Rygwk4ikf5u4", "scope": "GOOGLE", "types": ["doctor", "point_of_interest", "health", "establishment"], "user_ratings_total": 160, "vicinity": "Calle del Chorrillo, 26, Paracuellos de Jarama"}, {"business_status": "OPERATIONAL", "geometry": {"location": {"lat": 40.5049599, "lng": -3.5299798}, "viewport": {"northeast": {"lat": 40.5062730302915, "lng": -3.528651069708498}, "southwest": {"lat": 40.5035750697085, "lng": -3.531349030291502}}}, "icon": "https://maps.gstatic.com/mapfiles/place_api/icons/v1/png_71/generic_business-71.png", "icon_background_color": "#7B9EB0", "icon_mask_base_uri": "https://maps.gstatic.com/mapfiles/place_api/icons/v2/generic_pinlet", "international_phone_number": "+34 916 58 19 11", "name": "Clínica Del Pie Belén Kayser", "opening_hours": {"open_now": false}, "photos": [{"height": 2428, "html_attributions": ["<a href=\"https://maps.google.com/maps/contrib/113145874561759437953\">Clínica Del Pie Belén Kayser</a>"], "photo_reference": "AWn5SU5SNJnynVJ_WELtiRiuQGOHaKhXEUTtAa9xDhgib35PD-CFkpJtw0ATM5z_V_ynvXTZlDSdyECZPpcau-Yxk279A7wzGwrWAuHmP7_PuejN5p1NUi57qkaWR8vVU-rbt6G5Myi7cDIcvZQj_P22VnAU_xRhZCBC4KhdBHH2yQXAuFl4Ed5RzstaX_TPx4V9-inyLsqwaAyvATk4V3ss7n8ENW8zb3mlSIf_dzDJi9rdczwargkTsxGppdOh5MlXObpOk-Cu5m03tjowqQ_Yp26q9teftM5rAAcNgvGE2bVM0MqNcxG0IRvNFC3QxRLbeLSrZeFm1wg", "width": 2915}], "place_id": "ChIJZWVZTtczQg0RPAGztuPMmJE", "plus_code": {"compound_code": "GF3C+X2 Paracuellos de Jarama, Spain", "global_code": "8CGRGF3C+X2"}, "rating": 5, "reference": "ChIJZWVZTtczQg0RPAGztuPMmJE", "scope": "GOOGLE", "types": ["doctor", "point_of_interest", "health", "establishment"], "user_ratings_total": 26, "vicinity": "Calle Real de Burgos, 6, Paracuellos de Jarama"}, {"business_status": "OPERATIONAL", "geometry": {"location": {"lat": 40.5059833, "lng": -3.5319992}, "viewport": {"northeast": {"lat": 40.5073348302915, "lng": -3.530709119708498}, "southwest": {"lat": 40.5046368697085, "lng": -3.533407080291501}}}, "icon": "https://maps.gstatic.com/mapfiles/place_api/icons/v1/png_71/generic_business-71.png", "icon_background_color": "#7B9EB0", "icon_mask_base_uri": "https://maps.gstatic.com/mapfiles/place_api/icons/v2/generic_pinlet", "international_phone_number": "+34 916 58 43 97", "name": "Villa de Paracuellos - Clínica Dental", "opening_hours": {"open_now": false}, "photos": [{"height": 1066, "html_attributions": ["<a href=\"https://maps.google.com/maps/contrib/100857961436517595411\">Villa de Paracuellos - Clínica Dental</a>"], "photo_reference": "AWn5SU79_uMguojfr3a0z7TXFNiXHhVPV-KSPvtvlIp5wUjC4Q0b0XetT12dcCXv-XyIK0Rkq3gousjr3cbGcpAmWg5lNOjeDhOesZ1AMS5jOZXxUcDZcHaRc7LAiRI7dMYj8kD0YtEE-c9B_gajD7GrehzGTQCx-UoH-eCgxYCy6XADrYY4ZH7InNxv9UmVg9_7N7ESl5A4GB9kCGl5YTYXF49MENLChszyJx9Yp684JAtrofQnXn5mnNckpa4Yrgj4x6jkxVGO9LOtyF6e7HKr86pSOFmjX0ZgBSco58CQj4obHYwReg46WvZZE4fZK5hBLuuLbyUT-ZA", "width": 1600}], "place_id": "ChIJJw276tAzQg0RnQcy5cikQQA", "plus_code": {"compound_code": "GF49+96 Paracuellos de Jarama, Spain", "global_code": "8CGRGF49+96"}, "rating": 5, "reference": "ChIJJw276tAzQg0RnQcy5cikQQA", "scope": "GOOGLE", "types": ["doctor", "dentist", "point_of_interest", "health", "establishment"], "user_ratings_total": 61, "vicinity": "Calle Chorrillo Alta, 22, Paracuellos de Jarama"}, {"business_status": "OPERATIONAL", "geometry": {"location": {"lat": 40.50571470000001, "lng": -3.5294002}, "viewport": {"northeast": {"lat": 40.5070623802915, "lng": -3.528053019708498}, "southwest": {"lat": 40.5043644197085, "lng": -3.530750980291502}}}, "icon": "https://maps.gstatic.com/mapfiles/place_api/icons/v1/png_71/generic_business-71.png", "icon_background_color": "#7B9EB0", "icon_mask_base_uri": "https://maps.gstatic.com/mapfiles/place_api/icons/v2/generic_pinlet", "international_phone_number": "+34 611 56 91 99", "name": "AV Clinic - Clínica de Podología Paracuellos", "photos": [{"height": 1168, "html_attributions": ["<a href=\"https://maps.google.com/maps/contrib/102240742517460954275\">AV Clinic - Clínica de Podología Paracuellos</a>"], "photo_reference": "AWn5SU7Kgz850makbV6SUFDqX6o--eCzsEH2fOpdwS-17O-_w0oqRHxj53ha6OBqXC1HJ614y_5Zbju4rXUdcVTPHiWpvRqSqTjp0earNCaw38Gyawakh_3xK5jJJXSzTQOovGPi7RxQn81AS5850A8fTONYVn4_tShDlKpp6Eon40lfA5lsn3mZPSVWOqn4TUPzYOaUldzAVptMZ17LEVJ9OdfsYWN20GJnzIwt3mM9p48ukU-YgtmegBhFJGi_3s9rYpgrl6MNhonAZ_iF4sTffwiNAmcEjPXCwBZ-0v4qLKNyh9DQD4gJF7QgubScjs-A9uYZcwHpQa0", "width": 1600}], "place_id": "ChIJk6elO9ozQg0RadL3cU4FJww", "plus_code": {"compound_code": "GF4C+76 Madrid, Spain", "global_code": "8CGRGF4C+76"}, "rating": 5, "reference": "ChIJk6elO9ozQg0RadL3cU4FJww", "scope": "GOOGLE", "types": ["doctor", "point_of_interest", "health", "establishment"], "user_ratings_total": 65, "vicinity": "Calle de la Ronda de la Fuente, 1, Bajo A, Madrid"}, {"business_status": "OPERATIONAL", "geometry": {"location": {"lat": 40.5042557, "lng": -3.5459306}, "viewport": {"northeast": {"lat": 40.5055536302915, "lng": -3.544571619708498}, "southwest": {"lat": 40.5028556697085, "lng": -3.547269580291502}}}, "icon": "https://maps.gstatic.com/mapfiles/place_api/icons/v1/png_71/generic_business-71.png", "icon_background_color": "#7B9EB0", "icon_mask_base_uri": "https://maps.gstatic.com/mapfiles/place_api/icons/v2/generic_pinlet", "name": "Imagen Radiologica Integral S.L.", "place_id": "ChIJGZNzWcEzQg0RKz7ju59DBwg", "plus_code": {"compound_code": "GF33+PJ Paracuellos de Jarama, Spain", "global_code": "8CGRGF33+PJ"}, "reference": "ChIJGZNzWcEzQg0RKz7ju59DBwg", "scope": "GOOGLE", "types": ["doctor", "point_of_interest", "health", "establishment"], "vicinity": "Calle del Jarama, 11, Paracuellos de Jarama"}, {"business_status": "OPERATIONAL", "geometry": {"location": {"lat": 40.5004844, "lng": -3.50953}, "viewport": {"northeast": {"lat": 40.5018041302915, "lng": -3.508194319708498}, "southwest": {"lat": 40.4991061697085, "lng": -3.510892280291502}}}, "icon": "https://maps.gstatic.com/mapfiles/place_api/icons/v1/png_71/generic_business-71.png", "icon_background_color": "#7B9EB0", "icon_mask_base_uri": "https://maps.gstatic.com/mapfiles/place_api/icons/v2/generic_pinlet", "name": "Dr. Antonio Becerra Fernandez, Endocrino", "place_id": "ChIJ6bLBokgzQg0RJNDiUAozHCQ", "plus_code": {"compound_code": "GF2R+55 Paracuellos de Jarama, Spain", "global_code": "8CGRGF2R+55"}, "rating": 2.3, "reference": "ChIJ6bLBokgzQg0RJNDiUAozHCQ", "scope": "GOOGLE", "types": ["doctor", "point_of_interest", "health", "establishment"], "user_ratings_total": 3, "vicinity": "Calle Quevedo, S/N, Paracuellos de Jarama"}]