[{"business_status": "OPERATIONAL", "geometry": {"location": {"lat": 40.5460743, "lng": -3.4582992}, "viewport": {"northeast": {"lat": 40.54742398029151, "lng": -3.456968369708498}, "southwest": {"lat": 40.54472601970851, "lng": -3.459666330291502}}}, "icon": "https://maps.gstatic.com/mapfiles/place_api/icons/v1/png_71/pharmacy-71.png", "icon_background_color": "#F88181", "icon_mask_base_uri": "https://maps.gstatic.com/mapfiles/place_api/icons/v2/pharmacy_pinlet", "international_phone_number": "+34 918 84 56 73", "name": "Farmacia Castellano Alberti", "opening_hours": {"open_now": false}, "photos": [{"height": 583, "html_attributions": ["<a href=\"https://maps.google.com/maps/contrib/107130153691974803004\">Farmacia Castellano Alberti</a>"], "photo_reference": "AWn5SU5iUxhD6615G7Sdrjs2B74IKCIqujQd3-uYhImUCKHYgsszoQZH8GCFSACUXDub1Y6BGDD7_nk8hLdgGwrg1PMrl50pk2sEGJyC6mIwTyKHcwf9-8DgVMfR6mg7hul-XuazHH6gVVW63g8WyvgmT8_ZNkcSjQwN9UNgD-QFy8gBR3s-BrhTkG-xNgsYvn5MADia1lfJYZ24N-LJr4T7Iygyh9CfC4OppZps7PFLpACqCmJCPF9G6Vz0AqzovmVAzLVmvipLWDYCnyHiJ9es5N4LSuG2cKM2nyWtF7nVKHahkP2HrO2Lzoh8_t3qBZ0X6_NMT6HNqzA", "width": 1047}], "place_id": "ChIJG8kSvAE1Qg0ReS75EKUeAJo", "plus_code": {"compound_code": "GGWR+CM Daganzo de Arriba, Spain", "global_code": "8CGRGGWR+CM"}, "rating": 4.1, "reference": "ChIJG8kSvAE1Qg0ReS75EKUeAJo", "scope": "GOOGLE", "types": ["pharmacy", "point_of_interest", "health", "store", "establishment"], "user_ratings_total": 33, "vicinity": "Calle Algete, 4, Daganzo de Arriba"}, {"business_status": "OPERATIONAL", "geometry": {"location": {"lat": 40.5423417, "lng": -3.4584669}, "viewport": {"northeast": {"lat": 40.54368263029149, "lng": -3.457149369708498}, "southwest": {"lat": 40.54098466970849, "lng": -3.459847330291501}}}, "icon": "https://maps.gstatic.com/mapfiles/place_api/icons/v1/png_71/pharmacy-71.png", "icon_background_color": "#F88181", "icon_mask_base_uri": "https://maps.gstatic.com/mapfiles/place_api/icons/v2/pharmacy_pinlet", "international_phone_number": "+34 918 78 22 40", "name": "Farmacia Camino Ancho", "opening_hours": {"open_now": false}, "photos": [{"height": 2848, "html_attributions": ["<a href=\"https://maps.google.com/maps/contrib/112707589432528757820\">Farmacia Camino Ancho</a>"], "photo_reference": "AWn5SU4MxwJf_yL2zpCUBu7FijbAsfLq54ExEkxxH7P4I72vNCHGYfpGQlj1vJQEVE2SibEhoX1yLt6AQ9_nYgRe_E18SJ5J-MkmEvk8rP6psitJe6rxI8vs5jhj1L2_1OcsTAYwJfd3LuJuGZFY3IAA-_DQWiT16_jqk3CC1FOAtSU6Fp_bi29sJEqGJLvzYc1WyKsfHzRvcDyHaB_PF53VsctvEC1AZFBD6yMjaxuria63TdIFIxBnxMB_5ct0H0359EohlMvJp5UQS_fCED2cyf7PaX6m4nJKUW0k-oV7xQ6_XtqPsEAzJtAC_wQ2VZo79vZ_ilcMnm8", "width": 4288}], "place_id": "ChIJr_ybmKo1Qg0RDuKKY54oqpM", "plus_code": {"compound_code": "GGRR+WJ Daganzo de Arriba, Spain", "global_code": "8CGRGGRR+WJ"}, "rating": 4.2, "reference": "ChIJr_ybmKo1Qg0RDuKKY54oqpM", "scope": "GOOGLE", "types": ["pharmacy", "point_of_interest", "health", "store", "establishment"], "user_ratings_total": 37, "vicinity": "Camino Ancho, 13, Daganzo de Arriba"}, {"business_status": "OPERATIONAL", "geometry": {"location": {"lat": 40.5423215, "lng": -3.4584138}, "viewport": {"northeast": {"lat": 40.5436868302915, "lng": -3.457124169708499}, "southwest": {"lat": 40.54098886970851, "lng": -3.459822130291502}}}, "icon": "https://maps.gstatic.com/mapfiles/place_api/icons/v1/png_71/pharmacy-71.png", "icon_background_color": "#F88181", "icon_mask_base_uri": "https://maps.gstatic.com/mapfiles/place_api/icons/v2/pharmacy_pinlet", "name": "José Ángel Petrirena Ortiz", "place_id": "ChIJJ4quM5A1Qg0RoOwS-o_JOmE", "plus_code": {"compound_code": "GGRR+WJ Daganzo de Arriba, Spain", "global_code": "8CGRGGRR+WJ"}, "rating": 4.9, "reference": "ChIJJ4quM5A1Qg0RoOwS-o_JOmE", "scope": "GOOGLE", "types": ["pharmacy", "point_of_interest", "health", "store", "establishment"], "user_ratings_total": 8, "vicinity": "Camino Ancho, 13, Daganzo de Arriba"}, {"business_status": "OPERATIONAL", "geometry": {"location": {"lat": 40.5341025, "lng": -3.4796084}, "viewport": {"northeast": {"lat": 40.53551093029151, "lng": -3.478330419708498}, "southwest": {"lat": 40.53281296970851, "lng": -3.481028380291502}}}, "icon": "https://maps.gstatic.com/mapfiles/place_api/icons/v1/png_71/pharmacy-71.png", "icon_background_color": "#F88181", "icon_mask_base_uri": "https://maps.gstatic.com/mapfiles/place_api/icons/v2/pharmacy_pinlet", "international_phone_number": "+34 918 84 30 31", "name": "Farmacia Lojo Galván", "opening_hours": {"open_now": false}, "place_id": "ChIJWZaNnWc0Qg0Ru5keSGNrk_Y", "plus_code": {"compound_code": "GGMC+J5 Ajalvir, Spain", "global_code": "8CGRGGMC+J5"}, "rating": 4, "reference": "ChIJWZaNnWc0Qg0Ru5keSGNrk_Y", "scope": "GOOGLE", "types": ["pharmacy", "point_of_interest", "health", "store", "establishment"], "user_ratings_total": 35, "vicinity": "Calle Carlos Ruiz, 16, Ajalvir"}]