[{"business_status": "OPERATIONAL", "geometry": {"location": {"lat": 41.0393184, "lng": -3.6422096}, "viewport": {"northeast": {"lat": 41.0406089302915, "lng": -3.640834969708498}, "southwest": {"lat": 41.0379109697085, "lng": -3.643532930291502}}}, "icon": "https://maps.gstatic.com/mapfiles/place_api/icons/v1/png_71/pharmacy-71.png", "icon_background_color": "#F88181", "icon_mask_base_uri": "https://maps.gstatic.com/mapfiles/place_api/icons/v2/pharmacy_pinlet", "international_phone_number": "+34 918 68 11 47", "name": "Sanguino San Román María Encarnación", "photos": [{"height": 1920, "html_attributions": ["<a href=\"https://maps.google.com/maps/contrib/108991065925202119120\">Jesus</a>"], "photo_reference": "AWn5SU7SztC2F4REcv8jlhU-s3QZQZxhbTEcQZ8NysPV30HD44WzGEA4uj8IXAwoStFyplDURCU2qnXC7wIpldn0BAXSQ7EIWSE6BP3ZQy55WjYr8-rdV9rrY5bXuPknRgNucogCMk2RWJSmqYkcNDfYTAbwvplEg7GP4zdRmlegh2FOoNd_ffnC-y_Mixtb5gXQSYfAjmgYBaASnCw0KFO2ID5fwqdVOI8N0-yoW9IrdGwMCBNlwkrTg-UzXQiRKLKcMDHEDSFjfwxWN2DuaiVukj3PlBtjC3x8RuXnGizaKC0lf9mw4P9rCVPk58OGosbIMbsSeX85sbRMu3vDPGeFCwlBKY5648KdFMHLKKW9f7sdeYYheTlFPrWTRWiDEfjVdDllw5OIfAe0saSodq4saxYiZkC-4JN1KQztnJcpztGKXJBogjLk6MMRjfcLaS5N4y5Y8CbsIlzJwRf-b_cQdVAffPUX5E-yRUSOSWPWFVNrdBH_Y6aR9J-uDzEeUK_vShmLSLzB7pZJK-xZoLrXegcaWfliKBkXkK0Fyw1LT5ErRkJ6CuDGlhrsRwElv4s34khqe2xYbtK02OEhYfN7a9O6yQV4vNPf_n9tMS9F7F4LK1c7S1ItWt0_cSBloSWlJ9CXRraS", "width": 1080}], "place_id": "ChIJiUKFNevkQw0RiQOfJmyfLB8", "plus_code": {"compound_code": "29Q5+P4 Braojos, Spain", "global_code": "8CHR29Q5+P4"}, "rating": 5, "reference": "ChIJiUKFNevkQw0RiQOfJmyfLB8", "scope": "GOOGLE", "types": ["pharmacy", "store", "health", "point_of_interest", "establishment"], "user_ratings_total": 3, "vicinity": "Plaza del Sol, 15, Braojos de la Sierra"}, {"business_status": "OPERATIONAL", "geometry": {"location": {"lat": 40.9933992, "lng": -3.6370396}, "viewport": {"northeast": {"lat": 40.9947438802915, "lng": -3.635683719708498}, "southwest": {"lat": 40.99204591970851, "lng": -3.638381680291503}}}, "icon": "https://maps.gstatic.com/mapfiles/place_api/icons/v1/png_71/pharmacy-71.png", "icon_background_color": "#F88181", "icon_mask_base_uri": "https://maps.gstatic.com/mapfiles/place_api/icons/v2/pharmacy_pinlet", "international_phone_number": "+34 918 68 07 80", "name": "Farmacia Buitrago", "opening_hours": {"open_now": false}, "photos": [{"height": 1080, "html_attributions": ["<a href=\"https://maps.google.com/maps/contrib/108991065925202119120\">Jesus</a>"], "photo_reference": "AWn5SU4pTCWBJhArdmhPzW9JjNZX4QA4mUz07yS1CK57-sdBU2Io6oclwHDIf64UZrDgrxPvSo51xmQRs2QptqAlt_3c4dWA3Bl4O9KxMiFDlTLGxNwfXB0KRdA_TDZlT_LrKNlsQgs6vZHEjni4iBD393pBwd7kYkrScdwUHQFn5zr-Coh-UCJ5gNUGOXCMD78EnSIjZ8rUT9Opxb9ivRxBLxtawV8YAmHwDGaVaMHP0XNUEELUVqsv5kwDmjk6a4TMSLvqAA6Il1T_GbIjujgEprzqe9DW52Sl52onFFRhWol9qRe8-mROeRaSq9X1yPddokmCqAYzDDKCLiIPKAIUo3rxiZ2sCYywN8oPZm_VRKSxRKBJGm2dgwckwh2g2AMdB3wO_4vjQ8tJ_XYvt62WMyEiX7mtqf5y1vxPrNetoIBEhXp3A42lzRF2SxJxUFaBkBHuZzA6aHUbuvd906IwKqrgOjI_zifI0PRNWxhMOe4qYxdPuw90aNvQK4FGyt-tC7_YVHcMo5uo4YwVfaskWmjw1ybmTa17V0Yuo1BjvDFHry9ed-K9bPR-INE9Y9kkKQYYjc8qCOjIN2fvdpUidj2YxMQoTpGH3t7SCBG8Iye3YX5E3pwORWrHCdXhgFgkRu1cvA", "width": 1920}], "place_id": "ChIJfaQVFFnlQw0RakySiELFbs0", "plus_code": {"compound_code": "X9V7+95 Buitrago del Lozoya, Spain", "global_code": "8CGRX9V7+95"}, "rating": 2.6, "reference": "ChIJfaQVFFnlQw0RakySiELFbs0", "scope": "GOOGLE", "types": ["pharmacy", "store", "health", "point_of_interest", "establishment"], "user_ratings_total": 45, "vicinity": "Calle Real, 38, Buitrago del Lozoya"}, {"business_status": "OPERATIONAL", "geometry": {"location": {"lat": 41.00564619999999, "lng": -3.6705248}, "viewport": {"northeast": {"lat": 41.0069493302915, "lng": -3.669150769708498}, "southwest": {"lat": 41.0042513697085, "lng": -3.671848730291503}}}, "icon": "https://maps.gstatic.com/mapfiles/place_api/icons/v1/png_71/pharmacy-71.png", "icon_background_color": "#F88181", "icon_mask_base_uri": "https://maps.gstatic.com/mapfiles/place_api/icons/v2/pharmacy_pinlet", "international_phone_number": "+34 918 68 14 11", "name": "Martín Velasco María Mercedes", "place_id": "ChIJ-7_uz43jQw0R69qQgaB7xzQ", "plus_code": {"compound_code": "284H+7Q Villavieja del Lozoya, Spain", "global_code": "8CHR284H+7Q"}, "rating": 4.2, "reference": "ChIJ-7_uz43jQw0R69qQgaB7xzQ", "scope": "GOOGLE", "types": ["pharmacy", "store", "health", "point_of_interest", "establishment"], "user_ratings_total": 5, "vicinity": "Calle del Pino, 17, Villavieja del Lozoya"}]