[{"geometry": {"location": {"lat": 40.1910568, "lng": -3.8372005}, "viewport": {"northeast": {"lat": 40.20090481374069, "lng": -3.826591840903899}, "southwest": {"lat": 40.18578945307296, "lng": -3.855352936997888}}}, "icon": "https://maps.gstatic.com/mapfiles/place_api/icons/v1/png_71/geocode-71.png", "icon_background_color": "#7B9EB0", "icon_mask_base_uri": "https://maps.gstatic.com/mapfiles/place_api/icons/v2/generic_pinlet", "name": "Cubas de la Sagra", "photos": [{"height": 3000, "html_attributions": ["<a href=\"https://maps.google.com/maps/contrib/114085115519170436521\">Sonia Gonzalez</a>"], "photo_reference": "AWn5SU6DC1arL6uiqOSfGsl6sQwHbSWkrJZPC4PX9Hct9mFGTfHb1OlMC11jdFzA8tWLr6P8v9SsMwVunJANMJX-HnJAn4vtfI22FRSqmm_MZ2tD4gwkXTmyx9zc3nnW3ZV018wNCjocVYmtGVvjQSFiKq84jXxlFaxtTqlUxlTxYBf_Bb7rPxXaXwDe6Ltnt-96A4bIYLobN9jTyzLNBg-AtvrND27ozq0sik7QTYOtscdhWAe9b01cAR-M3ds5mG3-Fuv70G350tjdbpmO9CB7-5H1BLDDN-t7Jo0nltWZdeSsM8FY7OTr5mB67ifcySxgismA65rDRk6P4kSnZkXkNmET582sXh_haNAkTVQnksEvACeER3L6Vkx-Hnw3bLtasbbvn4JocHsnEROvsg92nexnaXR0dxcflpTUwFH3-YuOg8YEowu3i7umY--nSKeghWMqFdHB5E1CMeTWxxxHSI495t98RCj4_jjOd3DOIrhvbFT0WUFMt5asWapw6tfFWvrhWThQoc_-6moq05lozglV0CPOy45qG-eDnUcQsoUf7MOhtekTSnhFpuZaIpp91WqxPHnB9rejDGqIBIMkIjHcpcibNTHfujtSyogT3gxosaWNg_n-YcZ3XKZ1tcMdVE4yUg", "width": 4000}], "place_id": "ChIJy6vYrpHzQQ0RD8SSAPvcrpU", "reference": "ChIJy6vYrpHzQQ0RD8SSAPvcrpU", "scope": "GOOGLE", "types": ["locality", "political"], "vicinity": "Cubas de la Sagra"}, {"business_status": "OPERATIONAL", "geometry": {"location": {"lat": 40.16329349999999, "lng": -3.8193398}, "viewport": {"northeast": {"lat": 40.1645161802915, "lng": -3.818077519708498}, "southwest": {"lat": 40.1618182197085, "lng": -3.820775480291502}}}, "icon": "https://maps.gstatic.com/mapfiles/place_api/icons/v1/png_71/lodging-71.png", "icon_background_color": "#909CE1", "icon_mask_base_uri": "https://maps.gstatic.com/mapfiles/place_api/icons/v2/hotel_pinlet", "international_phone_number": "+34 925 15 71 67", "name": "OYO Hotel Route 42", "opening_hours": {"open_now": true}, "photos": [{"height": 1280, "html_attributions": ["<a href=\"https://maps.google.com/maps/contrib/102946575111090642828\">Hotel Alda Route 42</a>"], "photo_reference": "AWn5SU5ZKAKNiMNuFTljsUhbLujltFzHcgoyKw7lqh1sJCTRIQxzEm_OA_x0SzrSW9RWB4jR15k1l7_wIhcqflXWcAealQ39i2SL8M_bKY9Ek7xeMix40cirZHhQlzUI-2e-vBlvjDUMUhfroCgwuwYHlxCgqOq8a1xB9PH8EUQuD0iOxqnKzMRP7itLCSKs8XdOzoHItedB2-ecVF0i-jkUftTl9S-8XEVnuI85fRqx7H83e-v6anCsfKmmv2KI3kWBlhWeIt-N641p5yPU2Fvw315wqqzsx3FB45ijsDwuzvWYz7J5SB9D0-HXuqvUv0HzZVid8Gg9", "width": 1920}], "place_id": "ChIJ-1l0-yP3QQ0RgSy256SmgRE", "plus_code": {"compound_code": "557J+87 Illescas, Spain", "global_code": "8CGR557J+87"}, "rating": 4, "reference": "ChIJ-1l0-yP3QQ0RgSy256SmgRE", "scope": "GOOGLE", "types": ["lodging", "point_of_interest", "establishment"], "user_ratings_total": 816, "vicinity": "Calle Sierra de Albarracín, 8, Illescas"}, {"business_status": "OPERATIONAL", "geometry": {"location": {"lat": 40.1647264, "lng": -3.814779300000001}, "viewport": {"northeast": {"lat": 40.1660487302915, "lng": -3.813452519708497}, "southwest": {"lat": 40.16335076970851, "lng": -3.816150480291502}}}, "icon": "https://maps.gstatic.com/mapfiles/place_api/icons/v1/png_71/generic_business-71.png", "icon_background_color": "#7B9EB0", "icon_mask_base_uri": "https://maps.gstatic.com/mapfiles/place_api/icons/v2/generic_pinlet", "international_phone_number": "+34 618 17 87 45", "name": "La Quinta de Illescas", "opening_hours": {"open_now": false}, "photos": [{"height": 630, "html_attributions": ["<a href=\"https://maps.google.com/maps/contrib/110804072214286169202\">La Quinta de Illescas</a>"], "photo_reference": "AWn5SU5FaScPe3i860Mi5fzkz62CM9QXsUd9QpWkU4FOyGKpAABMhBTGgRjW2wKCjdg0jRaeAKl0B5N_F20Wj0BY7YSVK1ZhaPDFhh2lqOpKQz6hOrALXeni81ActyvE_u00j3zUINSgSkVkxZupppu-R469w4fVFTvX0YkJs6OqSoJum9Puf3OMdl-8NQ324yZf3S6qWSCd5_CFI8hg_yv9HnB6Sz_2aVL41Q-uUeOaqfU5GmRJSfu_eD1hYN7fQPXvKkJIiiN-BYkbdcg7l49-gYvDsO92nMgii5wrx4qdu3hIVR2sCr05xfQkRWP3XaS5KDz5GRpymcI", "width": 1350}], "place_id": "ChIJhTYenAL0QQ0RjngYG0xpKOU", "plus_code": {"compound_code": "557P+V3 Illescas, Spain", "global_code": "8CGR557P+V3"}, "rating": 4.4, "reference": "ChIJhTYenAL0QQ0RjngYG0xpKOU", "scope": "GOOGLE", "types": ["restaurant", "point_of_interest", "food", "establishment"], "user_ratings_total": 1130, "vicinity": "40°09'51.5\"N 3°48'59.6\"W, Illescas"}, {"business_status": "OPERATIONAL", "geometry": {"location": {"lat": 40.1716519, "lng": -3.833387}, "viewport": {"northeast": {"lat": 40.1730082302915, "lng": -3.831925669708498}, "southwest": {"lat": 40.1703102697085, "lng": -3.834623630291503}}}, "icon": "https://maps.gstatic.com/mapfiles/place_api/icons/v1/png_71/worship_general-71.png", "icon_background_color": "#7B9EB0", "icon_mask_base_uri": "https://maps.gstatic.com/mapfiles/place_api/icons/v2/worship_christian_pinlet", "international_phone_number": "+34 918 16 71 15", "name": "Parroquia de Santiago Apóstol", "opening_hours": {"open_now": false}, "photos": [{"height": 4032, "html_attributions": ["<a href=\"https://maps.google.com/maps/contrib/114430092814739424812\">Parroquia de Santiago Apóstol</a>"], "photo_reference": "AWn5SU4feGkcRCZ_ZE14SVMGec72r9vI1qKK32Io-uU4d_g6uCsOJQdTQO51wbqH5GHDZvY-vSIrPmk6tbOXe-Q007fxF6UBgw6YIHntR-OyngLI4FzF5gaVmkNXyBgPV7KWZ9OUlig-W36YabNzJeoPjCmx2Km9qiS_yhOfrNuQ9bTIz-0pbL2dkPkt4jrQy3NUmVDv1Z-RLhj10KWUrrtEyDyCpE02RHxRGxUVr_tuyMUYsxLGRjPBPT8vZqKMk0P5B1uWtkqqA72n60rkPr2pWal7dCiKE7sm_jnu9qgO2EsN9Y2eGlWU7t4WRqx_5nirugRQqq6l", "width": 3024}], "place_id": "ChIJpVXZl_vzQQ0RPBEYARpy5x8", "plus_code": {"compound_code": "55C8+MJ Casarrubuelos, Spain", "global_code": "8CGR55C8+MJ"}, "rating": 4.2, "reference": "ChIJpVXZl_vzQQ0RPBEYARpy5x8", "scope": "GOOGLE", "types": ["church", "place_of_worship", "point_of_interest", "establishment"], "user_ratings_total": 27, "vicinity": "Calle de la Iglesia, 11, Casarrubuelos"}, {"business_status": "OPERATIONAL", "geometry": {"location": {"lat": 40.17185850000001, "lng": -3.8308548}, "viewport": {"northeast": {"lat": 40.1732266802915, "lng": -3.829575519708498}, "southwest": {"lat": 40.17052871970851, "lng": -3.832273480291503}}}, "icon": "https://maps.gstatic.com/mapfiles/place_api/icons/v1/png_71/generic_business-71.png", "icon_background_color": "#7B9EB0", "icon_mask_base_uri": "https://maps.gstatic.com/mapfiles/place_api/icons/v2/generic_pinlet", "international_phone_number": "+34 918 75 20 06", "name": "Spinit Sistemas", "place_id": "ChIJ81WBtInxQQ0RPwdZf9yRXG4", "plus_code": {"compound_code": "55C9+PM Casarrubuelos, Spain", "global_code": "8CGR55C9+PM"}, "reference": "ChIJ81WBtInxQQ0RPwdZf9yRXG4", "scope": "GOOGLE", "types": ["point_of_interest", "establishment"], "vicinity": "Calle de Antonio Gala, 8, Casarrubuelos"}, {"business_status": "OPERATIONAL", "geometry": {"location": {"lat": 40.170783, "lng": -3.8297895}, "viewport": {"northeast": {"lat": 40.1721282802915, "lng": -3.828412419708498}, "southwest": {"lat": 40.1694303197085, "lng": -3.831110380291503}}}, "icon": "https://maps.gstatic.com/mapfiles/place_api/icons/v1/png_71/school-71.png", "icon_background_color": "#7B9EB0", "icon_mask_base_uri": "https://maps.gstatic.com/mapfiles/place_api/icons/v2/school_pinlet", "international_phone_number": "+34 918 12 48 52", "name": "Autoescuela Límite", "photos": [{"height": 4160, "html_attributions": ["<a href=\"https://maps.google.com/maps/contrib/109976792054638214876\">Pablo Sánchez López</a>"], "photo_reference": "AWn5SU56qN7iNUrgTCH6HrOQVRo0PBKipvgkUWkevFGus9c8-XeHJIHYVkkNrUMUmlLSIuboH5r5cmm6XjPqHbBGL90H-L2155SWW-sL2czCa92TTI9peLYsVa4pWXhkFAHUwpLKVNOe1S5d0QIV2nOfs2DS1_AkrKW_5Gnq3NVFKIIzUeBWgC-NMauYEP4bM3yrcgFCqei18EZjteZdTXDgzmzHb-cHFKicLBiVQ3PXGpsTf1l5RWmICQbRDuR965umbneOfFTRMwZX3RjZ5H0EIm-9BdQjMnekBc3BT4fXI03T6mNsNvn5MizGhfZ8LmUJeYTxBXnfJCC1iE1Qbq4lc4svvn8BSXARAia3MaBthmBLpfswSV1nmWftLDEYOaYmpCO_maQiKbo9JjGUT6lZD0Pqcul3SZ1D3YCZ-pi1qZmAOFp0vOPwHL5xsWQzfE2q5gE67A066W9pWlHB2_9sFm8zGijrSFVrP3YLYmqxiNyn4YZKQMsA2uYDd3bYRJzx7o5z3XOU-1XVxNIBCekX00MNSGi-ycetsZPuGr1Bf5BEroG8fjnYggc_gFe8Bv5dJ4xaNG3IiC0rMNL-yCSoE9HtyWJM5CJQ6fHRy87rigBm6rz459u5UhG0jxb21nMNdcPoMZGH", "width": 2336}], "place_id": "ChIJDfgzYvnzQQ0RKbEO8EcUpUU", "plus_code": {"compound_code": "55CC+83 Casarrubuelos, Spain", "global_code": "8CGR55CC+83"}, "rating": 4.6, "reference": "ChIJDfgzYvnzQQ0RKbEO8EcUpUU", "scope": "GOOGLE", "types": ["point_of_interest", "establishment"], "user_ratings_total": 10, "vicinity": "Calle Goya, 3, Local 6, Casarrubuelos"}, {"business_status": "OPERATIONAL", "geometry": {"location": {"lat": 40.1719241, "lng": -3.831520099999999}, "viewport": {"northeast": {"lat": 40.1733528302915, "lng": -3.830111769708497}, "southwest": {"lat": 40.17065486970851, "lng": -3.832809730291502}}}, "icon": "https://maps.gstatic.com/mapfiles/place_api/icons/v1/png_71/generic_business-71.png", "icon_background_color": "#7B9EB0", "icon_mask_base_uri": "https://maps.gstatic.com/mapfiles/place_api/icons/v2/generic_pinlet", "international_phone_number": "+34 610 55 73 37", "name": "PROMOCIONES Y CONS. APARICIO ESTEBAN, S.L.", "place_id": "ChIJK9dwSfrzQQ0RYrSoTqMa3Jw", "plus_code": {"compound_code": "55C9+Q9 Casarrubuelos, Spain", "global_code": "8CGR55C9+Q9"}, "rating": 4, "reference": "ChIJK9dwSfrzQQ0RYrSoTqMa3Jw", "scope": "GOOGLE", "types": ["general_contractor", "point_of_interest", "establishment"], "user_ratings_total": 1, "vicinity": "Calle de María Jesús García Zazo, 12, Casarrubuelos"}, {"business_status": "OPERATIONAL", "geometry": {"location": {"lat": 40.171611, "lng": -3.8264826}, "viewport": {"northeast": {"lat": 40.1730632302915, "lng": -3.825086419708497}, "southwest": {"lat": 40.1703652697085, "lng": -3.827784380291502}}}, "icon": "https://maps.gstatic.com/mapfiles/place_api/icons/v1/png_71/generic_business-71.png", "icon_background_color": "#7B9EB0", "icon_mask_base_uri": "https://maps.gstatic.com/mapfiles/place_api/icons/v2/generic_pinlet", "international_phone_number": "+34 918 16 57 10", "name": "Centro de Estética Vanesa Cuesta", "opening_hours": {"open_now": false}, "photos": [{"height": 2448, "html_attributions": ["<a href=\"https://maps.google.com/maps/contrib/109688512838690327063\">ALBANO CURIEL</a>"], "photo_reference": "AWn5SU7HdQ_6QOtnTk-KVHkPvIsq73NXMRQd_YfU8mLYmFPz5NUqezzL_6zjsJPQDthNxwN823caBVhbTCBMwcaOLseOwSzcrowsskMSnIHlIP2NL0X_ptVhWB3lpTOtfLft8H8UVy0Wel6jDeasrxIIXMCivyvuVM_z62ZBmmvShC5enzArb1tXq9j1GyZFf64OjoXnl0_aVBZ0iRPOAoUDKsPvHIkExQ7H-VIu-mZbpoPW4V_PRKVbt5Ji7bV-4GApgjFykrjE2k6P4cycoVHo-XfCdBufLfddnu2ZUSueIFv6rJTDD12_zX1chWVmKKHti3WRj7J1cOIWrnXN7FpcnAJY8Pi9KnMNyVJnmrLDHdO9PJ9oJkQ-NeRrlg-eAKWP4GNf6qqLTXdfAlZ5rIUUl1akFS2uDFFfOSjAz2mJJgzfC6q8sndpGGlWAEYnBAJR7PlBQmHBKxrwYj8b7lLjDuPX2kpneBVT-Zi6tHhgC3i6po-aeCKogU9fjM87y_yUvUSm1VPLLqxm58VDh2i5kyhos05YN8qnAKh4rdriwEWwZCfu4ztapyz7i30W_lYF1D0BAr80dbPNB3o9o79EPHUDKue1hwHHaQfLMFrWoaWNeI6C-JvxcUKYDcf1zjJQ", "width": 2448}], "place_id": "ChIJ24k_X_jzQQ0RPYZpSPTu7s0", "plus_code": {"compound_code": "55CF+JC Casarrubuelos, Spain", "global_code": "8CGR55CF+JC"}, "rating": 4.7, "reference": "ChIJ24k_X_jzQQ0RPYZpSPTu7s0", "scope": "GOOGLE", "types": ["beauty_salon", "point_of_interest", "establishment"], "user_ratings_total": 49, "vicinity": "Paseo de León, 3, Bajo, Casarrubuelos"}, {"business_status": "OPERATIONAL", "geometry": {"location": {"lat": 40.1615135, "lng": -3.8216748}, "viewport": {"northeast": {"lat": 40.16292028029149, "lng": -3.820249869708497}, "southwest": {"lat": 40.1602223197085, "lng": -3.822947830291502}}}, "icon": "https://maps.gstatic.com/mapfiles/place_api/icons/v1/png_71/shopping-71.png", "icon_background_color": "#4B96F3", "icon_mask_base_uri": "https://maps.gstatic.com/mapfiles/place_api/icons/v2/shopping_pinlet", "international_phone_number": "+34 618 61 11 54", "name": "Cobamaq, Hornos para panadería.", "opening_hours": {"open_now": false}, "photos": [{"height": 1200, "html_attributions": ["<a href=\"https://maps.google.com/maps/contrib/107630030385881160833\">tienda.cobamaq.com</a>"], "photo_reference": "AWn5SU6D8-shPSUWKLE56lJmGt37rSfBYSJVGH9fkn8F0814cvm2rew0SYu_2qf6cyCVPWpAeD_Z14vFeqN2yvCB07G72u-H7SysNGGE0kS8GeI8-gC2tmMG3aApegqSZhGj-J01I5M_NWuO7yJ_tZ9qmmaLj_FIpLEMwmTTgr-Y4HEAEdLLuxWH4oONFkgNBduReb3e2CFZhYxDQobNdLSX9TBd_7lAfh2padUHIsVmCj_F4x8HT98Dh5XQmOPRhghe1FdTo3it7GKQ0JDMEUXFRu_K-zYM48AYqjhMQJUpGMW69-z12DAl6EnjgnNF5YnsoU_u1_yWzwY", "width": 1600}], "place_id": "ChIJ____vx7xQQ0RU7dJm6ZAfwQ", "plus_code": {"compound_code": "556H+J8 Illescas, Spain", "global_code": "8CGR556H+J8"}, "rating": 5, "reference": "ChIJ____vx7xQQ0RU7dJm6ZAfwQ", "scope": "GOOGLE", "types": ["store", "point_of_interest", "food", "establishment"], "user_ratings_total": 12, "vicinity": "Montes de León, 9, El Señorío de Illescas, Calle Montes de León, 7, Illescas"}, {"business_status": "OPERATIONAL", "geometry": {"location": {"lat": 40.17036239999999, "lng": -3.831728399999999}, "viewport": {"northeast": {"lat": 40.1717095802915, "lng": -3.830386619708497}, "southwest": {"lat": 40.1690116197085, "lng": -3.833084580291501}}}, "icon": "https://maps.gstatic.com/mapfiles/place_api/icons/v1/png_71/generic_business-71.png", "icon_background_color": "#7B9EB0", "icon_mask_base_uri": "https://maps.gstatic.com/mapfiles/place_api/icons/v2/generic_pinlet", "international_phone_number": "+34 918 16 57 63", "name": "Asociación Entre Pinto y Valdemoro", "place_id": "ChIJX_EWo_vzQQ0RXsMD3-oMhH0", "plus_code": {"compound_code": "55C9+48 Casarrubuelos, Spain", "global_code": "8CGR55C9+48"}, "rating": 4.5, "reference": "ChIJX_EWo_vzQQ0RXsMD3-oMhH0", "scope": "GOOGLE", "types": ["point_of_interest", "establishment"], "user_ratings_total": 10, "vicinity": "Calle de la Hermandad, 4, Casarrubuelos"}, {"business_status": "OPERATIONAL", "geometry": {"location": {"lat": 40.16046899999999, "lng": -3.819312}, "viewport": {"northeast": {"lat": 40.16162688029149, "lng": -3.818041119708498}, "southwest": {"lat": 40.15892891970849, "lng": -3.820739080291502}}}, "icon": "https://maps.gstatic.com/mapfiles/place_api/icons/v1/png_71/generic_business-71.png", "icon_background_color": "#7B9EB0", "icon_mask_base_uri": "https://maps.gstatic.com/mapfiles/place_api/icons/v2/generic_pinlet", "international_phone_number": "+34 925 51 12 00", "name": "Honeywell - Bombas Ercole Marelli S.R.L. (Sundyne Spain)", "opening_hours": {"open_now": false}, "photos": [{"height": 472, "html_attributions": ["<a href=\"https://maps.google.com/maps/contrib/113699584288253104368\">Bombas Ercole Marelli S.R.L. (Sundyne Spain)</a>"], "photo_reference": "AWn5SU7rY9Y_OO1Zgzj3XExlSdrYmydDHzkEg6BZJz66dXZ6r9LDjnha87O0DxLngarYfdVy_YeO5kNzCtERYrQHp2yhBj2rv1qhkeyDDXbWpWWBvzPTf26W2Eo_rN8rreyK5dEr2l-l8--RUFEsTj3H1LWW5b1iidiBoin4o2zDn9OTUirbr84DIGRHB10DJpXP5cQNwhDloyVtgP8AHlgWE5lMUOp6-Z6_gZnFNbfAwhE0WXWfFfWxZ_3SSwgmFVUqtsOvDTWTzXBZUWMcnqZ8pJ-J1J8MkIvBTUz42n52pE_YxoOQqEn-CfAlZ59txXg9cZcyzhYR", "width": 1401}], "place_id": "ChIJpX0yA-PwQQ0RyEuOsN2jz80", "plus_code": {"compound_code": "556J+57 Illescas, Spain", "global_code": "8CGR556J+57"}, "rating": 4.1, "reference": "ChIJpX0yA-PwQQ0RyEuOsN2jz80", "scope": "GOOGLE", "types": ["point_of_interest", "establishment"], "user_ratings_total": 22, "vicinity": "Calle Montes de León"}, {"business_status": "OPERATIONAL", "geometry": {"location": {"lat": 40.1711317, "lng": -3.833196599999999}, "viewport": {"northeast": {"lat": 40.1724231802915, "lng": -3.831873969708497}, "southwest": {"lat": 40.1697252197085, "lng": -3.834571930291501}}}, "icon": "https://maps.gstatic.com/mapfiles/place_api/icons/v1/png_71/civic_building-71.png", "icon_background_color": "#7B9EB0", "icon_mask_base_uri": "https://maps.gstatic.com/mapfiles/place_api/icons/v2/civic-bldg_pinlet", "international_phone_number": "+34 918 16 71 00", "name": "Casarrubuelos Town Hall", "opening_hours": {"open_now": false}, "photos": [{"height": 1536, "html_attributions": ["<a href=\"https://maps.google.com/maps/contrib/109688512838690327063\">ALBANO CURIEL</a>"], "photo_reference": "AWn5SU4DrkU6PjznNrHhOvT5dOAsfKMD55FOWjM3x--dKIOEHcolgDvQNV941o3VMx5nsFKqOT80xsfqrs7yMzwmdZhtPSCGJKuIib75AMvKSaR2I4flulolc6PfvU09fnJ9Ge1UFg3Ivx5fq8UFnMWr7zgduWiQufVM9cFUiUaTdjxFcPVS8va42YVpH-WA2GFPn4IWrDLe5ESEK7qKmwQ_It4BZw3z-kceO_cBdzy_vVeWfTSWxp7lh13hn5ENYNCuw4x_zHI6dYKang1SkLWx2fPOwWSpD_mrDKqHq-58tffVKA4GOwvj7SufpypLxKxmVJumNA7X0qDUngcFtEz1bxIq6YOwkhR14LDYXZGt5VOeC7Ig6sbVbdf6nXeoSEeGOzJ22y8lNvAj7gcYSd3oDs5AprJUx7yFhn9uZsoSzkiO6Q5HcB2iXm3MpbuPCnTAEnkh4NRstPcp6pjV8O6aoIImLbVf-FPf9qRy5oejZbJeTLLSa2G2NHgro0HQoRyEBCyTE599jTKCkNCQ7S2kACctDPfw6LxRwoHnprD2eu3K1byl91cQLQZij4nqgzl53T5IHngLHoVb0Z9bbz_q1E1-I3PoyPf5efs-IT7rCCqmChHlzIceATff7nMvmNrCr9R1Ig", "width": 2048}], "place_id": "ChIJrWUTG_vzQQ0RRgAJeMIzlec", "plus_code": {"compound_code": "55C8+FP Casarrubuelos, Spain", "global_code": "8CGR55C8+FP"}, "rating": 4.2, "reference": "ChIJrWUTG_vzQQ0RRgAJeMIzlec", "scope": "GOOGLE", "types": ["city_hall", "local_government_office", "point_of_interest", "establishment"], "user_ratings_total": 141, "vicinity": "Plaza de la Constitución, 1, Casarrubuelos"}, {"business_status": "OPERATIONAL", "geometry": {"location": {"lat": 40.17092640000001, "lng": -3.834034400000001}, "viewport": {"northeast": {"lat": 40.1722614802915, "lng": -3.832658319708498}, "southwest": {"lat": 40.1695635197085, "lng": -3.835356280291502}}}, "icon": "https://maps.gstatic.com/mapfiles/place_api/icons/v1/png_71/civic_building-71.png", "icon_background_color": "#7B9EB0", "icon_mask_base_uri": "https://maps.gstatic.com/mapfiles/place_api/icons/v2/civic-bldg_pinlet", "name": "Juzgado De Paz", "opening_hours": {"open_now": false}, "photos": [{"height": 2420, "html_attributions": ["<a href=\"https://maps.google.com/maps/contrib/109688512838690327063\">ALBANO CURIEL</a>"], "photo_reference": "AWn5SU6ssPPND5_bjyXLmW4UtLAKoRAq0yAOqbJxy-B9Gz-1D81E4EW_bYqHnDwpla5Ow1EKglwCmJHDymnmxDH50h2v6dz1EKeGVCOkSxR1R-6aZs_qDPcq26p2ZAyIwVPfX2Fo_3WXcXzGWVQrxRHtsk6IGw0cQejseJeTD5ky2ykv1mSGmhVTo42IXEsNi9ufI_wcCVMuwmdgoTruZdNQkKNG8oaSfQu0J2YqVHesbR525s6YlN_1ju3Ng2F0Y4XFuPe9lDFkcDcDITVcDuAp4jyDwLBVxAWcYcxYjjzFMN5Z6IOXu0ObRZZmIMu74L0sWWw6KcSKiDWsz3UXb8DY5bJRd85564NHlNv-UQKuBNvQDlbzktK-ByqgYZZ2FIGd5_OeGI2iqzeWddLcXkGL98i2e0ztejlF5HnuVrCvl69rj81Jem17F9MAFmS5h66zpmdYBiLq_6r2_5rtVGGvX9LWexafWokgG5WTLf27I5aP8oyaKM99HM5hafs32ggmwOj5IvCZ8K3vkhC8NNg8w4AHqpgcv0R1pdZ-W7dLjyJPcerO4ggAhmRgsMTPK1HLlHRWFY-DbDde_HMX1kl_eQGl67xT4cnYDxb5WLX_caeMusD49luMbwgPIR62qIPxSkXZmMf7", "width": 3227}], "place_id": "ChIJH6gD0_vzQQ0Reo-wP-uFZXQ", "plus_code": {"compound_code": "55C8+99 Casarrubuelos, Spain", "global_code": "8CGR55C8+99"}, "rating": 1, "reference": "ChIJH6gD0_vzQQ0Reo-wP-uFZXQ", "scope": "GOOGLE", "types": ["courthouse", "point_of_interest", "establishment"], "user_ratings_total": 3, "vicinity": "Calle de Josefa Tome y Orgaz, 12, Casarrubuelos"}, {"business_status": "OPERATIONAL", "geometry": {"location": {"lat": 40.1709059, "lng": -3.834076599999999}, "viewport": {"northeast": {"lat": 40.1722614802915, "lng": -3.832679419708497}, "southwest": {"lat": 40.1695635197085, "lng": -3.835377380291501}}}, "icon": "https://maps.gstatic.com/mapfiles/place_api/icons/v1/png_71/civic_building-71.png", "icon_background_color": "#7B9EB0", "icon_mask_base_uri": "https://maps.gstatic.com/mapfiles/place_api/icons/v2/civic-bldg_pinlet", "international_phone_number": "+34 918 14 06 49", "name": "Oficina Rural de Correos", "opening_hours": {"open_now": false}, "photos": [{"height": 1536, "html_attributions": ["<a href=\"https://maps.google.com/maps/contrib/109688512838690327063\">ALBANO CURIEL</a>"], "photo_reference": "AWn5SU50uYP6R5XySAFuEmfs384PFC2mniFBxJ3HPkkS-x1iIlMRULVx-Y0ArvwETskoVqvh6xGT8ZGNSWhk-jocasA2bApx_0MgSXMwZK-yh8H_JdmCFt6FR9QwjTfomshf0EmhVQrXYB9S4Ln0l4SoyhxSn1uolB4ZS27JD8AaDjVhcewVehtL-o0EMYQ-JFu-HWoleNODrYTQXAeI_xuHD9Qb2QpRuMHHUPwe0TIly1L05tXE1nzQNdeeKyL4tKkHxvzx2ZyDApCyQ_nPGukAOIhflBsIAso6S4WPljIw3i4CBDQzS0xan9yBJrs4wqy3VJxYXMO4fyE9e0exdSrPXhJlR_-skTp5cYXc6b1AqX3IkoLmRrms_vXJgdEe6FDLsrjVBDctyXO-UjZMzPSXv2UFmJmU-nB1Y4pRzk-ULCTp7JYiydrUsdIuMNDn8TOucJhKCBqPPU0mLs-bUjpI9kd6Bwai8KrkSKDEeHxk8YfgoBU1feTNWhg_oVAt3XYSDJnBrVYrc7zfGhtK2MrofgHjcMZWOjo5koTMT9W3QFm-_QCPP3nkyborMDN0fZqYbg4oaAY8t4pL-PsbvdFt9jgOLPy_QQW8FJtnWCKubYk0yKVPtrNVgBk8ad2JpTho", "width": 2048}], "place_id": "ChIJq22lJPvzQQ0ReHWFy3aYI1k", "plus_code": {"compound_code": "55C8+99 Casarrubuelos, Spain", "global_code": "8CGR55C8+99"}, "rating": 1.9, "reference": "ChIJq22lJPvzQQ0ReHWFy3aYI1k", "scope": "GOOGLE", "types": ["post_office", "finance", "point_of_interest", "establishment"], "user_ratings_total": 27, "vicinity": "Calle de Josefa Tome y Orgaz, 12, Casarrubuelos"}, {"business_status": "OPERATIONAL", "geometry": {"location": {"lat": 40.17028829999999, "lng": -3.8326209}, "viewport": {"northeast": {"lat": 40.17166428029149, "lng": -3.831217119708497}, "southwest": {"lat": 40.1689663197085, "lng": -3.833915080291502}}}, "icon": "https://maps.gstatic.com/mapfiles/place_api/icons/v1/png_71/shopping-71.png", "icon_background_color": "#4B96F3", "icon_mask_base_uri": "https://maps.gstatic.com/mapfiles/place_api/icons/v2/shopping_pinlet", "international_phone_number": "+34 918 12 48 19", "name": "Vinila Desatascos", "opening_hours": {"open_now": true}, "photos": [{"height": 330, "html_attributions": ["<a href=\"https://maps.google.com/maps/contrib/115884898417443007665\">Vinila Vinilos</a>"], "photo_reference": "AWn5SU7aJlZ3FRmrnMM36p34naJxQ6CF20AmTd0aqyf4z_avvXluqM7f-OcETR1jDu4w8JdzlzK2MzTvtuJmzIkdvx4XmoxjMUlZlULxm4CGq5sl_x6m_jogJDf08fG_ejY8kyJelKSN_q3YYlelWyztKjIi9N3RkixaCLeR27vRX1kok42zKwC_5MG7ja0dpikY-a3OGZGriAAf2WTv0hwz2U3iZ3WjMDgkz198kKDryHbsBf34X5_QzkaO-xoO53XXSaaRWrozPwtImH-HTuz1jj5ViQwkL9c9OwhpvdpLehKk97AC1MRsnKCT8cu_hrHUSdrT-ROW", "width": 980}], "place_id": "ChIJh04iC_vzQQ0RdyNQfWzWy_I", "plus_code": {"compound_code": "55C8+4X Casarrubuelos, Spain", "global_code": "8CGR55C8+4X"}, "rating": 5, "reference": "ChIJh04iC_vzQQ0RdyNQfWzWy_I", "scope": "GOOGLE", "types": ["home_goods_store", "store", "point_of_interest", "establishment"], "user_ratings_total": 1, "vicinity": "Calle de Miguel Hernández, 14, Madrid"}, {"business_status": "OPERATIONAL", "geometry": {"location": {"lat": 40.1707845, "lng": -3.831220300000001}, "viewport": {"northeast": {"lat": 40.17213298029149, "lng": -3.829858619708498}, "southwest": {"lat": 40.16943501970849, "lng": -3.832556580291502}}}, "icon": "https://maps.gstatic.com/mapfiles/place_api/icons/v1/png_71/generic_business-71.png", "icon_background_color": "#7B9EB0", "icon_mask_base_uri": "https://maps.gstatic.com/mapfiles/place_api/icons/v2/generic_pinlet", "international_phone_number": "+34 918 16 78 25", "name": "Clínica Veterinaria Casarrubuelos", "opening_hours": {"open_now": false}, "photos": [{"height": 3672, "html_attributions": ["<a href=\"https://maps.google.com/maps/contrib/117063810606835180790\">Clínica Veterinaria Casarrubuelos</a>"], "photo_reference": "AWn5SU65aczO9cYX2c4CNKSVzfYku56I8G99wfD3afTH13Al4n9JemrcsH7SPkoxDIYRZgDbpJ3Nswfnihfp7HaSjmhpsbXEuxo4N-UIViUdB3nwRcbk8K1_nPO1rWYCAs_PI6elK6XIIl2dxEmheXmpFHYYpQCLx6OSXT6xrsvh2BXLPWY40uVVoatMIulEwfxg8Vklckm6XkQerpYhKsk3FOzzPnkajdEfyLuwV9pZ2M5SAh-yKwZYiJoF3VIezCbgZJh8B8rN9y65RpIvEng2Pds5LPm_r_MhPJoyBo0RJPuX8MfpMpuIOu_PKqDTnM2eZnnmoejGKLU", "width": 4896}], "place_id": "ChIJy89muPvzQQ0R5z_VFEfxHcc", "plus_code": {"compound_code": "55C9+8G Casarrubuelos, Spain", "global_code": "8CGR55C9+8G"}, "rating": 4.7, "reference": "ChIJy89muPvzQQ0R5z_VFEfxHcc", "scope": "GOOGLE", "types": ["veterinary_care", "point_of_interest", "establishment"], "user_ratings_total": 133, "vicinity": "Calle Mayor, 10, Casarrubuelos"}, {"business_status": "OPERATIONAL", "geometry": {"location": {"lat": 40.169823, "lng": -3.832050599999999}, "viewport": {"northeast": {"lat": 40.17121373029149, "lng": -3.830720919708497}, "southwest": {"lat": 40.1685157697085, "lng": -3.833418880291502}}}, "icon": "https://maps.gstatic.com/mapfiles/place_api/icons/v1/png_71/shopping-71.png", "icon_background_color": "#4B96F3", "icon_mask_base_uri": "https://maps.gstatic.com/mapfiles/place_api/icons/v2/shoppingcart_pinlet", "international_phone_number": "+34 918 57 18 80", "name": "Supermercado COVIRAN", "opening_hours": {"open_now": false}, "photos": [{"height": 2448, "html_attributions": ["<a href=\"https://maps.google.com/maps/contrib/109688512838690327063\">ALBANO CURIEL</a>"], "photo_reference": "AWn5SU4QJQHw7E_GhnsxsglFN-70VT1r8qc7KxgDrNXf3OdU-DHndemRrLQeZxWLm9WL7SweArTXEawA31Mb-EyJ1a520Jai2nw-NSlUUgxUGS4fVT2HiS7d0QZY6z_7XUfXwB7tmv_H9jwsY081Oo9lMTk3HYjQlKIHjfyVDG5M1k3o8ovovqzNvRWrIbDWpipasOkPKidWJlDCfXtNdyyN5HeZXVHTSz7P2h6liFCqsS-SrjvzTTGyfFDgV4VXZcjoDJWlcOPtE7z3mihpxYhyUDQismgrDuqesK05svmLQNiamVylT05NJFLmkuB5VfL1y-G9V-6plqvMmXKrbancPnEGAWooGIahPX4naKYAww7LSwwoyQgJuKDdDqSOZE5VbSRnmZB0-MuXeIXDQGG9oablhB6lKGfVQve1grfIcBQx1NDoNcu61lWyIre3EBb1yU8_UNv4I0UIkKmcxd-Sa8r8XKEU2SgSd07VV3PmRbSXrB6ml72MkJFxD8rjP9mXumkzhtKeO4fZZYkQ6ag83WJ8ANQxEQdpbdS6mgYtdKQ8vF78X9sF8BGVkcIQtiV6Jshe92-EgQAAs9QZ6PaoVhkgwu5HX1Z3Gqfrf2ZNYeQDwdz2Iia37wggRVyolTLN58dujg", "width": 2448}], "place_id": "ChIJlwiVmvvzQQ0RXBRttThY9Oc", "plus_code": {"compound_code": "5599+W5 Casarrubuelos, Spain", "global_code": "8CGR5599+W5"}, "rating": 4.5, "reference": "ChIJlwiVmvvzQQ0RXBRttThY9Oc", "scope": "GOOGLE", "types": ["supermarket", "grocery_or_supermarket", "store", "point_of_interest", "food", "establishment"], "user_ratings_total": 152, "vicinity": "Calle de Miguel Hernández, 36, Casarrubuelos"}, {"business_status": "OPERATIONAL", "geometry": {"location": {"lat": 40.17002939999999, "lng": -3.831712100000001}, "viewport": {"northeast": {"lat": 40.17137168029149, "lng": -3.830296019708498}, "southwest": {"lat": 40.1686737197085, "lng": -3.832993980291503}}}, "icon": "https://maps.gstatic.com/mapfiles/place_api/icons/v1/png_71/generic_business-71.png", "icon_background_color": "#7B9EB0", "icon_mask_base_uri": "https://maps.gstatic.com/mapfiles/place_api/icons/v2/generic_pinlet", "international_phone_number": "+34 607 33 67 02", "name": "Encina Jardineria y Floristeria s.l.", "opening_hours": {"open_now": true}, "place_id": "ChIJ90aBmfvzQQ0RSG6kjmIVA_o", "plus_code": {"compound_code": "55C9+28 Casarrubuelos, Spain", "global_code": "8CGR55C9+28"}, "rating": 4.2, "reference": "ChIJ90aBmfvzQQ0RSG6kjmIVA_o", "scope": "GOOGLE", "types": ["point_of_interest", "establishment"], "user_ratings_total": 5, "vicinity": "Travesía de la Hermandad, 1, Casarrubuelos"}, {"business_status": "OPERATIONAL", "geometry": {"location": {"lat": 40.16934270000001, "lng": -3.8325756}, "viewport": {"northeast": {"lat": 40.1707414802915, "lng": -3.831243269708497}, "southwest": {"lat": 40.1680435197085, "lng": -3.833941230291502}}}, "icon": "https://maps.gstatic.com/mapfiles/place_api/icons/v1/png_71/generic_business-71.png", "icon_background_color": "#7B9EB0", "icon_mask_base_uri": "https://maps.gstatic.com/mapfiles/place_api/icons/v2/generic_pinlet", "international_phone_number": "+34 722 32 93 42", "name": "Padel Rubuelos Club by Sportmadness", "opening_hours": {"open_now": false}, "photos": [{"height": 768, "html_attributions": ["<a href=\"https://maps.google.com/maps/contrib/115994272253145307250\">Padel Rubuelos Club by Sportmadness</a>"], "photo_reference": "AWn5SU47kZwIV0YU0byA_XpMyZXisyvV7zAy51bMjWQ2Svp85pDqMRvL3b-2fwn_IyozbWnLChTGTX3av3XnyN5nsvPQQQ_lh2sZWgPljo5ny_AouXR2tLLUGg0fPk5-uhEGv09PG2Ir2nHaxjcIv591WOZH9nhegvSc3EU1ULtL2XzBsczkiY8GNWclcQ_MIva__N37B-xXRA60Dp4HVYDxj0MpjMQnvUaaBUSKchvz8AvMJHvC_4Fqa-TSPddnQ77Fd2JlwlGHfCqblHt_QCEX0ltxd1IOMlGKCDr5BQ71GA8rsbAEVxCZHkuB__O-KpJJBE7cVtxRuJ0", "width": 1024}], "place_id": "ChIJzwJcY_zzQQ0R2luTbvZUJkg", "plus_code": {"compound_code": "5598+PX Casarrubuelos, Spain", "global_code": "8CGR5598+PX"}, "rating": 4.4, "reference": "ChIJzwJcY_zzQQ0R2luTbvZUJkg", "scope": "GOOGLE", "types": ["bar", "restaurant", "point_of_interest", "food", "establishment"], "user_ratings_total": 256, "vicinity": "C/ Río Guadiana, Calle de Illescas, esquina, Casarrubuelos"}, {"geometry": {"location": {"lat": 40.1709362, "lng": -3.831818199999999}, "viewport": {"northeast": {"lat": 40.17396630695258, "lng": -3.813343834250011}, "southwest": {"lat": 40.16746194204613, "lng": -3.83514485172858}}}, "icon": "https://maps.gstatic.com/mapfiles/place_api/icons/v1/png_71/geocode-71.png", "icon_background_color": "#7B9EB0", "icon_mask_base_uri": "https://maps.gstatic.com/mapfiles/place_api/icons/v2/generic_pinlet", "name": "Casarrubuelos", "photos": [{"height": 1848, "html_attributions": ["<a href=\"https://maps.google.com/maps/contrib/108821306062054681061\">claro caballero</a>"], "photo_reference": "AWn5SU6IIK0BBogkFwbNDzqHF1RitbW_xJJCpuhNB_rE428aV8dWc317j9iPmTWTFP-C7moS5ZxtOsZ_P7C9hQgHDde713aZI941ZNY0e4da2z9EFptMj8YxK3G0xTc8_NBm3ZuEHeOH2zPc3TvHVPD4IOwaAXxiqsxvzMGHznBdJedvW3gLFnUzxMW7L0H2CGuCaWSBUBWOaJ7J10C25Jbb5qRaNvvzS0RVFuKhH219y-qaoq7NPpL0jFmqmYoGUG7LZfuQbHh7TdFG6-EmbN7Bhb3Ecfx7Dsa_LJeyBir-ymUIJojS0JY3eRWjFJWlUXanCYcYad9EtfcnETVFzHKYYpeWY-lumeYlQFa2P8wrlngD2hTavfkNq_E06lcL_8WB3VFYDa9aehepKD1r--CVBOflapfonr5xaIzaQC3lBR-dUqgGfnfDqQ2kUCU8ql6UFDeMpB9U8--tVDY0Uh9HGwnrpZRAOIqkvgex2pfevLsJ6d3iYij7clhGSnXaft94tBQ2gHhBw6roX7smzCQyUC1kgDPNngNX16LYtGEScMtWjRpDQgFaaucQS9cDku5KWNZMie6eN1JR8VwXzOGU5oCPt97BsY-bamiUGqczb5_U3Oxb-30Aq3UGHGqZnFXcbIbwWg", "width": 4000}], "place_id": "ChIJWSIEpfvzQQ0Rw0Q6hHPr6x8", "reference": "ChIJWSIEpfvzQQ0Rw0Q6hHPr6x8", "scope": "GOOGLE", "types": ["locality", "political"], "vicinity": "Casarrubuelos"}]