[{"business_status": "OPERATIONAL", "geometry": {"location": {"lat": 40.499889, "lng": -3.547917}, "viewport": {"northeast": {"lat": 40.5012378302915, "lng": -3.546597019708499}, "southwest": {"lat": 40.4985398697085, "lng": -3.549294980291502}}}, "icon": "https://maps.gstatic.com/mapfiles/place_api/icons/v1/png_71/gas_station-71.png", "icon_background_color": "#909CE1", "icon_mask_base_uri": "https://maps.gstatic.com/mapfiles/place_api/icons/v2/gas_pinlet", "international_phone_number": "+34 607 74 71 98", "name": "Cepsa service station", "opening_hours": {"open_now": false}, "place_id": "ChIJ65Z5ySkyQg0RyIhqcBLMEjA", "plus_code": {"compound_code": "FFX2+XR Paracuellos de Jarama, Spain", "global_code": "8CGRFFX2+XR"}, "rating": 3.8, "reference": "ChIJ65Z5ySkyQg0RyIhqcBLMEjA", "scope": "GOOGLE", "types": ["gas_station", "point_of_interest", "establishment"], "user_ratings_total": 274, "vicinity": "Calle Miguel de Cervantes, 2, Paracuellos de Jarama"}, {"business_status": "OPERATIONAL", "geometry": {"location": {"lat": 40.5029296, "lng": -3.5143436}, "viewport": {"northeast": {"lat": 40.5043049302915, "lng": -3.513141819708498}, "southwest": {"lat": 40.5016069697085, "lng": -3.515839780291502}}}, "icon": "https://maps.gstatic.com/mapfiles/place_api/icons/v1/png_71/gas_station-71.png", "icon_background_color": "#909CE1", "icon_mask_base_uri": "https://maps.gstatic.com/mapfiles/place_api/icons/v2/gas_pinlet", "international_phone_number": "+34 914 92 75 78", "name": "bp", "opening_hours": {"open_now": false}, "photos": [{"height": 1920, "html_attributions": ["<a href=\"https://maps.google.com/maps/contrib/112066236758101135855\">JoseDa</a>"], "photo_reference": "AWn5SU4stiTpfHbJ2VOYGCUdQW2D4T15_IGCotjNNwrQUuo41wyqObeiQV58SZpPYYSxhO0Q3wwgMmWDYdPOrknPI38pvwCoPjpGvBF1VF-488MX1H72wtgXtWIDLdq5Ficq1-IbhYeT_McQQi2828Z1qPAem0YtaF8Xemf7q97885gk0MQU0QOJQI_5tIgj2JawGNfcC_z3q0BgJZm8LIfvaOyIGhIS8xhr93NcD8TMbwd-_yiBSKVzKmNapKpzB1wuPa-6EVv4bSYdOtGncaYWgNLQPmV6FxR-TZi-z0T9LGwbEUcka2WuPgWqRBNPgsup54VPV_8vs3HmHv_V5DlK-6Hr5lpoFCXksmQisZb7fOPRsQUDuuvOFFKIND5FIqj6Ym9rdNBMLu9QIsj0sSf9-D3D_SUIaK--t7bemjVLJAuzAJfdN2A3IjEg4GVPvAGzBWMA1yoeSAufzvAd_CqyegdhEJL48zzl_Rdu8jw9JXZuXhrMujofMvBUL994ZRqNQu7KPM0V3hjWdM0zrV4ovn-eYz3Wcn53X5s5F3uvV33xEu3DVv_GKrUbjLWJVg6nSf8oClE6vgGTYB8f5kAEn3QKhwIe5ivftIa7Wjqh-Wblt0RH-wvQzVLDfqugrl2kgUH5YQ", "width": 2560}], "place_id": "ChIJ3xWw-uQzQg0RMhhayxneCW0", "plus_code": {"compound_code": "GF3P+57 Paracuellos de Jarama, Spain", "global_code": "8CGRGF3P+57"}, "rating": 3.6, "reference": "ChIJ3xWw-uQzQg0RMhhayxneCW0", "scope": "GOOGLE", "types": ["gas_station", "car_wash", "point_of_interest", "establishment"], "user_ratings_total": 419, "vicinity": "Paseo de las Camelias, 2, Paracuellos de Jarama"}, {"business_status": "OPERATIONAL", "geometry": {"location": {"lat": 40.5283708, "lng": -3.5455604}, "viewport": {"northeast": {"lat": 40.5297769302915, "lng": -3.544064169708498}, "southwest": {"lat": 40.5270789697085, "lng": -3.546762130291502}}}, "icon": "https://maps.gstatic.com/mapfiles/place_api/icons/v1/png_71/gas_station-71.png", "icon_background_color": "#909CE1", "icon_mask_base_uri": "https://maps.gstatic.com/mapfiles/place_api/icons/v2/gas_pinlet", "international_phone_number": "+34 916 58 41 89", "name": "Estación de Servicio Repsol", "opening_hours": {"open_now": false}, "photos": [{"height": 1504, "html_attributions": ["<a href=\"https://maps.google.com/maps/contrib/102594100949438571809\">Estación de Servicio Repsol</a>"], "photo_reference": "AWn5SU4zRZka059jgltPAa0lC0iyGGoInbbcNlN3kZ8xOC_nuBnHDnbFjr76vABdgRk7rrTQByrdX4pNi12_u_D2WTc6GzJXK4QBBNzkM6VVhN5Zpb3w6N8nRy95FUkov0PzAPHUFUDcX-plClWGFYlc4DLONE8MW_mI9-3E0ZRvRwSHcrokrIlsOS1fWPhqgjSGMvsRYJ88j7edyn2K1BerGIhsR89GPkkPFsCoGUxVLx8-v3y2UGX6XBXyHvrEztyaG5QQ_3WcQPeapa-61lmunyuv_mMQRujI7_UfObf0hEeNnKN7gaUTbXQFuJOoMOcB3Tiu6EenKIc", "width": 2790}], "place_id": "ChIJ0z3v3U0yQg0R8lkK88bK_Q0", "plus_code": {"compound_code": "GFH3+8Q Paracuellos de Jarama, Spain", "global_code": "8CGRGFH3+8Q"}, "rating": 3.8, "reference": "ChIJ0z3v3U0yQg0R8lkK88bK_Q0", "scope": "GOOGLE", "types": ["gas_station", "car_wash", "point_of_interest", "establishment"], "user_ratings_total": 180, "vicinity": "M-111, 8, 2 I, Paracuellos de Jarama"}, {"business_status": "OPERATIONAL", "geometry": {"location": {"lat": 40.47352590000001, "lng": -3.4810315}, "viewport": {"northeast": {"lat": 40.4748926802915, "lng": -3.479752819708498}, "southwest": {"lat": 40.4721947197085, "lng": -3.482450780291502}}}, "icon": "https://maps.gstatic.com/mapfiles/place_api/icons/v1/png_71/gas_station-71.png", "icon_background_color": "#909CE1", "icon_mask_base_uri": "https://maps.gstatic.com/mapfiles/place_api/icons/v2/gas_pinlet", "international_phone_number": "+34 916 35 26 45", "name": "Alcampo gas station Torrejon De Ardoz", "opening_hours": {"open_now": false}, "photos": [{"height": 558, "html_attributions": ["<a href=\"https://maps.google.com/maps/contrib/112066236758101135855\">JoseDa</a>"], "photo_reference": "AWn5SU4dzJxULQxMCgvRufPS9Z-1tOgPC46wY0obamEqnnz2JcYiMkIPpyDeY6KgxZZW5SjLBG3UYXu3D2eMzFMCuzd1PrTQ48Uza_UBB-IuO7I-nk3jYOwx8H0M8zfaVo35uKmDsPTDqAH6rp4h1RhcTkdnBcUfY4H41fEwltGvvf8pHywaYRdRR_vZertwnlvfsH4Ii9_l_oAil-t2L02BL2_o1090v1PPQyTKpks94iA4QaM1KqYkzIY5sF-3S5xBXB8pDjW7NCFXluRNK4QuE_MTZYYb5_nsQbv0b_BvXiB6ukUG_JUGoQFoI71wr25Ab45i2nOh0z78arHdlTbY-Hmge3b5fzlwBPwnmDj10OycIVR8RaEL5dijAGm6vt-xTLEYwj28dxrb9RN4L8JV4jg-hJcRlbmSkW4uIRp7hmz8V4vl1HALnGTEhK2I6SxU-4_Wzk22bayKNKhl0uZuHZbgdLuZeLCSe43TIsvCD_qVF-soJfJGhqR3m5DvG2UM0UHZLB_heipGhFZ63NP0dG_HbJNK6y3954aRdiUx3d5RojKG6VQG9D9p9i8UZLTMgiruQf9i9ghclg8Com41c9D3EnBBCu88ahswjRqxW618ogTEAmLLJt8biFevcIxYUdug4rKI", "width": 992}], "place_id": "ChIJCTydZMI2Qg0RyoKprdBotFs", "plus_code": {"compound_code": "FGF9+CH Torrejón de Ardoz, Spain", "global_code": "8CGRFGF9+CH"}, "rating": 3.9, "reference": "ChIJCTydZMI2Qg0RyoKprdBotFs", "scope": "GOOGLE", "types": ["gas_station", "point_of_interest", "establishment"], "user_ratings_total": 1355, "vicinity": "C.C Parque Corredor Crta Torrejon a, Calle Ajalvir, 12, 500, Torrejón de Ardoz"}, {"business_status": "OPERATIONAL", "geometry": {"location": {"lat": 40.4640812, "lng": -3.575578299999999}, "viewport": {"northeast": {"lat": 40.46552208029149, "lng": -3.574116469708498}, "southwest": {"lat": 40.46282411970849, "lng": -3.576814430291502}}}, "icon": "https://maps.gstatic.com/mapfiles/place_api/icons/v1/png_71/gas_station-71.png", "icon_background_color": "#909CE1", "icon_mask_base_uri": "https://maps.gstatic.com/mapfiles/place_api/icons/v2/gas_pinlet", "international_phone_number": "+34 913 05 62 73", "name": "Estación de Servicio Repsol", "opening_hours": {"open_now": false}, "photos": [{"height": 925, "html_attributions": ["<a href=\"https://maps.google.com/maps/contrib/112093376451993785417\">Estación de Servicio Repsol</a>"], "photo_reference": "AWn5SU5jONNVY6sS4Zrxlv4LSoehtoZvqnPREwd6qBjbAI_ofErgDVZeI5-RrHhTBf8fsVeBIwOx-oLnsFrYjNRLeBPR_pOlDVFjLbS7omsB_yqWll7o8m48CiX_exAymAx3YpRWEjAJ35OIR_ziX64JU71cunpPJmx8Y3IDH1kC9MEN1IlFTrGLx2hkPflI8ImlW0ZPBf5ZgVCgHE47PEFhHmbYLzKGuR1dz1ID6Hf3wrSahIPX8ANwIWlrB3FR8mB-OkYAj-Zz3V8AbXXdWEhMtat3Wounlh0_haQszWw2Djj6BsN_evgA3zbgC170Qo0j5E0BncQ1Zlo", "width": 1500}], "place_id": "ChIJjc2MsikxQg0RCd_xhkYAmz8", "plus_code": {"compound_code": "FC7F+JQ Madrid, Spain", "global_code": "8CGRFC7F+JQ"}, "rating": 4, "reference": "ChIJjc2MsikxQg0RCd_xhkYAmz8", "scope": "GOOGLE", "types": ["gas_station", "car_wash", "point_of_interest", "establishment"], "user_ratings_total": 178, "vicinity": "Avenida de la Hispanidad, 537, Madrid"}, {"business_status": "OPERATIONAL", "geometry": {"location": {"lat": 40.4493911, "lng": -3.5279454}, "viewport": {"northeast": {"lat": 40.45083898029149, "lng": -3.526711669708498}, "southwest": {"lat": 40.44814101970849, "lng": -3.529409630291502}}}, "icon": "https://maps.gstatic.com/mapfiles/place_api/icons/v1/png_71/gas_station-71.png", "icon_background_color": "#909CE1", "icon_mask_base_uri": "https://maps.gstatic.com/mapfiles/place_api/icons/v2/gas_pinlet", "international_phone_number": "+34 914 90 89 00", "name": "Gasolinera Carrefour San Fernando", "opening_hours": {"open_now": false}, "photos": [{"height": 2674, "html_attributions": ["<a href=\"https://maps.google.com/maps/contrib/117264016194649907763\">Serxio M.</a>"], "photo_reference": "AWn5SU4bQsJQCUgnD4pNhhFu99DNV-_7diRBKEgbshBYFdIz1VoCWDS5EgphKSseEiblIpLpr3wGy5gpBsuj4H3Tpg8EnCNRDNuNkydqVxlFdKZNkt83w5bvHPVSI309dRjhXZzeuKAKoJKO_qiijXUnIrtLMdhVSylPyIhUvJqy2I4Ceyd8VJkqTGxATIP46F2S6d9kOGBsJRzH19JGGr4JiKbZZBltDi7SvrOyRmEz7qjaPwhBqqc_BEtn1yCgnEPFjbRUPXEc5FjrI-Zz5nZEvM87MMuFPwPF9H6qp8jaYkaRkqTxg580tS3ZgOQ_iiw3Zxm-J46OLBYHvMjhdrQiSmVocfDP8q9mnW0pIz_l10GzwZTWRrwQwrL7Xr-sc23ncoOZpFOJ4DWPttfRa1g6w5v9SFVPx66zSpQ9zrwg7s0K4DtKkfpatNspimUdHxOQ4DRsJ4HcjS_XUytPQD5tyLCg01BqvjE40pLTXAHahb7JVafbkxwpUiCyT2jSCARzf5IvBNAGTgdK7ug79AcmTYdjKyNPqMjOqrIg4KnbsY-rpvDFFtyNz86jQTGSMWb5yVxifLZdJ_DVTjUo4WZidzXD4dll1ehK2NGhU8U5_BUeoOdpWA6yiFXrWzDhqOUROCtkwA", "width": 2634}], "place_id": "ChIJi_S3huUwQg0R88POAcN1MOo", "plus_code": {"compound_code": "CFXC+QR Madrid, Spain", "global_code": "8CGRCFXC+QR"}, "rating": 4.2, "reference": "ChIJi_S3huUwQg0R88POAcN1MOo", "scope": "GOOGLE", "types": ["gas_station", "point_of_interest", "establishment"], "user_ratings_total": 281, "vicinity": "Avenida Enrique Tierno Galván, Km 16, Madrid"}, {"business_status": "OPERATIONAL", "geometry": {"location": {"lat": 40.454761, "lng": -3.4924361}, "viewport": {"northeast": {"lat": 40.4562095802915, "lng": -3.490922669708498}, "southwest": {"lat": 40.4535116197085, "lng": -3.493620630291502}}}, "icon": "https://maps.gstatic.com/mapfiles/place_api/icons/v1/png_71/gas_station-71.png", "icon_background_color": "#909CE1", "icon_mask_base_uri": "https://maps.gstatic.com/mapfiles/place_api/icons/v2/gas_pinlet", "international_phone_number": "+34 916 75 27 71", "name": "Repsol", "opening_hours": {"open_now": true}, "photos": [{"height": 809, "html_attributions": ["<a href=\"https://maps.google.com/maps/contrib/113725996596462352827\">Estación de Servicio Repsol</a>"], "photo_reference": "AWn5SU5ttOziVx80yf2-P7rjt0NSXIvKLVler7ydf9y-wputZwnSADwJ6T6SfVjToBXc8jJO5fqfp8MjSUaZXzOU2qeHRN8st0pfZ2UNnKo6H-iLIsolyD2T8Xd2YhhTzgFGNxZo9e3LVkHI8Pqx2Tzk38IF-oItZDNIjqUHPeNKNk-DHT77OdeGjniXqxJ2MC78DZ_sZqMeQoUHMK4fbT1IXQln541hgs7_TOBn1l6zqCtypBkMF0zSj4T_AEVIxogVm2LgDOC_DmFj_w085e6RM8MptcMmbQVohSu_R4XYYFoXYa9PBYXLbu_9pktNDvZnEsthCgUU7mU", "width": 1500}], "place_id": "ChIJ21PrOuYwQg0R-yQApsILMik", "plus_code": {"compound_code": "FG35+W2 Madrid, Spain", "global_code": "8CGRFG35+W2"}, "rating": 3.9, "reference": "ChIJ21PrOuYwQg0R-yQApsILMik", "scope": "GOOGLE", "types": ["gas_station", "car_wash", "point_of_interest", "establishment"], "user_ratings_total": 408, "vicinity": "Avenida de Castilla, 43, Madrid"}, {"business_status": "OPERATIONAL", "geometry": {"location": {"lat": 40.4499118, "lng": -3.565414}, "viewport": {"northeast": {"lat": 40.45132948029149, "lng": -3.563816519708498}, "southwest": {"lat": 40.4486315197085, "lng": -3.566514480291502}}}, "icon": "https://maps.gstatic.com/mapfiles/place_api/icons/v1/png_71/gas_station-71.png", "icon_background_color": "#909CE1", "icon_mask_base_uri": "https://maps.gstatic.com/mapfiles/place_api/icons/v2/gas_pinlet", "international_phone_number": "+34 913 29 25 82", "name": "IS. TERZO S.L.", "opening_hours": {"open_now": false}, "photos": [{"height": 800, "html_attributions": ["<a href=\"https://maps.google.com/maps/contrib/117581242762973077225\">Repsol - Estación de servicio Terzo SL</a>"], "photo_reference": "AWn5SU4haDoHWhX23us6KVihLMqGXCSOMbojmpxZTdOr4guG7tecBUjn3FP2af5H4CGXQzhwwITAg0zqct-hgjcplFSQ8KBh8eMD15zVni_fI6Rw5PyDm1axq54wZ-ruaUyiMvNDXu9WrsHQFfeZrEIPbRv_JbLs0s2bqRp3Hdxlpv8oymkTAGbvBJAC46mCf_6BzFLsRWIzVRa2sVyD6bvxrUhWWiFG9AbtWTOe0agqzfNRXu70L6CXCX5jpP4vB6aIcaN6ArcSybZzH8OEkzXdPGjO6IhlXCOp6bnG1jMkiUnE1GCdQX-k4hnqgpyfREtVhVEqbjZt", "width": 2052}], "place_id": "ChIJs2H94tYvQg0RDOLg7rS52kg", "plus_code": {"compound_code": "CCXM+XR Madrid, Spain", "global_code": "8CGRCCXM+XR"}, "rating": 3.8, "reference": "ChIJs2H94tYvQg0RDOLg7rS52kg", "scope": "GOOGLE", "types": ["gas_station", "car_wash", "store", "point_of_interest", "establishment"], "user_ratings_total": 195, "vicinity": "Avenida de Aragón, 275, Madrid"}, {"business_status": "OPERATIONAL", "geometry": {"location": {"lat": 40.4567274, "lng": -3.4828375}, "viewport": {"northeast": {"lat": 40.45800588029149, "lng": -3.481615919708498}, "southwest": {"lat": 40.4553079197085, "lng": -3.484313880291502}}}, "icon": "https://maps.gstatic.com/mapfiles/place_api/icons/v1/png_71/gas_station-71.png", "icon_background_color": "#909CE1", "icon_mask_base_uri": "https://maps.gstatic.com/mapfiles/place_api/icons/v2/gas_pinlet", "international_phone_number": "+34 916 56 84 73", "name": "bp", "opening_hours": {"open_now": true}, "photos": [{"height": 1920, "html_attributions": ["<a href=\"https://maps.google.com/maps/contrib/112066236758101135855\">JoseDa</a>"], "photo_reference": "AWn5SU6mehCDD_6efF5cEdYjsQeqsK1Zj50wy1gRu3WjOne0XiVZtnNsLAgy-6zh5njt5NCwA5cJbTjDfkVI05tvAsYX0h1y4h5u7mjcf__NSBUut0VvHNY1sG7r-OLKUDzqDV91U2Xe3iYkJFWpMrRKa5eM5xzJfmBYOOlsaY9BeMz5edqvs0D32WEdQwusTRsYYb8201Otel7kb8NQZNB6B4OGpzEPo2o8VYul5U6aCk4Xx7P546iIGqWQ896_va8SvDnNz2NNaVrqSRNm5ai5CwXpgA_a461x8wcMfRB40RKBf0hZTOTn2umpLj3Jb2plF_PDGih8L5bcmi405U7YE2EZ9xSKIRFi-Q-xTQSAlcOF2jCFw_Zbfuc11Qux9pa3R4FM0pudkXkqTUvuDIJbaU7pfBz6mM1pwpwaxudNEN12zuiq7UGAHtjp9p1vQApXtnvg6_50uwD50agbTKPGcDF9FKThkPbwczyIOVbjNoIqh7EJaKYA9rKBQgv9pI-ZtWF9kl5aKkmGQHZHe1nJZ8a_CLwCAyTqIiKBu7aFarLY3hFeKYzMiciPFYDp-O9ZjNbabroEK5xFbgSdXEG_L3uWAVPU6XhXbDj4KExtwPOs1-Ir-4r9Yy2BFERNWSR5", "width": 2560}], "place_id": "ChIJq5Y-mSA3Qg0R9H9yK3ZYBjo", "plus_code": {"compound_code": "FG48+MV Torrejón de Ardoz, Spain", "global_code": "8CGRFG48+MV"}, "rating": 4.2, "reference": "ChIJq5Y-mSA3Qg0R9H9yK3ZYBjo", "scope": "GOOGLE", "types": ["gas_station", "cafe", "car_wash", "food", "point_of_interest", "establishment"], "user_ratings_total": 244, "vicinity": "Avenida de las Fronteras, S/N, Torrejón de Ardoz"}, {"business_status": "OPERATIONAL", "geometry": {"location": {"lat": 40.4710864, "lng": -3.580323}, "viewport": {"northeast": {"lat": 40.47247068029149, "lng": -3.578827419708498}, "southwest": {"lat": 40.4697727197085, "lng": -3.581525380291502}}}, "icon": "https://maps.gstatic.com/mapfiles/place_api/icons/v1/png_71/gas_station-71.png", "icon_background_color": "#909CE1", "icon_mask_base_uri": "https://maps.gstatic.com/mapfiles/place_api/icons/v2/gas_pinlet", "international_phone_number": "+34 680 32 71 97", "name": "Repsol gas station PILLAR", "opening_hours": {"open_now": true}, "photos": [{"height": 898, "html_attributions": ["<a href=\"https://maps.google.com/maps/contrib/103833799083153902892\">Estación de Servicio Repsol</a>"], "photo_reference": "AWn5SU74pFnUPNtzLRu2ICGZfqkCkn4If9MdYmcgnmloLNmJLSgc7Dl15kFNGB6xaBtgpNopM6vNfpXkJNPAivUgAzgoDZpOThwACWoD8aKc41CW-9wOTb75_X7zIJZPVPrTYokIVz5z_3siBzC2acQom8AJnxph45ggFzQ0x-1zQY7X2U3bPgASgQ7iCfTDENWCn2QDhrWsr8ASMbXlNY-nIhUHA9v-cXIhBrYXRW9dDLoFrmkI9yZBNWykTYSWUqAc-JaV9joFHzPCpmwM0_usH-s4ayZS5SbVxNKmLiJtPXRjS8Yh3lG568BzmNTpnY0g6_Jyx2-sSFM", "width": 1500}], "place_id": "ChIJCazo6tgxQg0RC2cglB8M_xc", "plus_code": {"compound_code": "FCC9+CV Madrid, Spain", "global_code": "8CGRFCC9+CV"}, "rating": 4, "reference": "ChIJCazo6tgxQg0RC2cglB8M_xc", "scope": "GOOGLE", "types": ["gas_station", "car_wash", "point_of_interest", "establishment"], "user_ratings_total": 448, "vicinity": "Avenida General, 22, Madrid"}, {"business_status": "OPERATIONAL", "geometry": {"location": {"lat": 40.49928129999999, "lng": -3.5471193}, "viewport": {"northeast": {"lat": 40.5005995802915, "lng": -3.545705619708498}, "southwest": {"lat": 40.4979016197085, "lng": -3.548403580291502}}}, "icon": "https://maps.gstatic.com/mapfiles/place_api/icons/v1/png_71/gas_station-71.png", "icon_background_color": "#909CE1", "icon_mask_base_uri": "https://maps.gstatic.com/mapfiles/place_api/icons/v2/gas_pinlet", "name": "CEPSR", "place_id": "ChIJbaHV3ykyQg0RSMT90RQAE-M", "plus_code": {"compound_code": "FFX3+P5 Paracuellos de Jarama, Spain", "global_code": "8CGRFFX3+P5"}, "reference": "ChIJbaHV3ykyQg0RSMT90RQAE-M", "scope": "GOOGLE", "types": ["gas_station", "point_of_interest", "establishment"], "vicinity": "Spain"}, {"business_status": "OPERATIONAL", "geometry": {"location": {"lat": 40.4998735, "lng": -3.5477819}, "viewport": {"northeast": {"lat": 40.5012219302915, "lng": -3.546535569708498}, "southwest": {"lat": 40.4985239697085, "lng": -3.549233530291501}}}, "icon": "https://maps.gstatic.com/mapfiles/place_api/icons/v1/png_71/gas_station-71.png", "icon_background_color": "#909CE1", "icon_mask_base_uri": "https://maps.gstatic.com/mapfiles/place_api/icons/v2/gas_pinlet", "international_phone_number": "+34 916 58 05 25", "name": "Benol 2, S.L.", "photos": [{"height": 2268, "html_attributions": ["<a href=\"https://maps.google.com/maps/contrib/113846967647305679893\">Turi Summer</a>"], "photo_reference": "AWn5SU6xR3aHCQ5OZEDhyM6A2kPh36w6DP5X8jCFbzYE_sGBK2ND8VJ6ccF5Eh1TG26gDC1u3Lt_o9-qdhTDJ9sACqa5sZ0qaoalOhRVmQ3lSWlrmCEgB12hfqvbuSx386WqLI9GANF6CYJz4c1lQ2_imU8XRM6PJh9cXKm_L92JTnWurfQPoBOGqzy86kbN0aEt50kji-jJjMHnOOQzdRE2FqFt0nyLKMUbJZ68oo6KfZPd-iiDo9l3EJF8Kc0kpYLt4msRpX2aBCYDK-m_62EGgo_3WshENsGLR5t9GAJ6jyqHHarUVhukUsWKy2vUu30Tv5qaesA1T8DLQg_XrN2m9U9XhbSyTgwdXSZlZJE4hGfwGMtpLJYNcGpdaVVPjoJFALNNZKdjTs20ToEaAz2q8SYqfQQCY_k_guooDy5NNHKk0Eu4H6kpaTE1txMm-JiFLUoUb0BnkHfXKlBPOFRLLuX7DQ9u0MAdwvXuoR4ziMPtXJuVEpxoUiwwNf8_ST3PHeaMI88_Owj0nAQE_CZLHevFO7y6p56n8J5Sahgd3g-LXew39LN3BOopS045xScjDinyyS1XaiiFqd6EQHKNyb9mgckR4YsMCpMwEgTJyHuO-i080ZAW3shDK4LPF9eIZffC3g", "width": 4032}], "place_id": "ChIJ_1b0xCkyQg0RNNOpm-bWKnA", "plus_code": {"compound_code": "FFX2+WV Paracuellos de Jarama, Spain", "global_code": "8CGRFFX2+WV"}, "rating": 3.6, "reference": "ChIJ_1b0xCkyQg0RNNOpm-bWKnA", "scope": "GOOGLE", "types": ["gas_station", "point_of_interest", "establishment"], "user_ratings_total": 30, "vicinity": "Calle Miguel de Cervantes, 2, Paracuellos de Jarama"}, {"business_status": "OPERATIONAL", "geometry": {"location": {"lat": 40.499889, "lng": -3.547917}, "viewport": {"northeast": {"lat": 40.5012378302915, "lng": -3.546597019708499}, "southwest": {"lat": 40.4985398697085, "lng": -3.549294980291502}}}, "icon": "https://maps.gstatic.com/mapfiles/place_api/icons/v1/png_71/gas_station-71.png", "icon_background_color": "#909CE1", "icon_mask_base_uri": "https://maps.gstatic.com/mapfiles/place_api/icons/v2/gas_pinlet", "name": "Moeve", "place_id": "ChIJpUNUzikyQg0RsdYkvsIKC68", "plus_code": {"compound_code": "FFX2+XR Paracuellos de Jarama, Spain", "global_code": "8CGRFFX2+XR"}, "reference": "ChIJpUNUzikyQg0RsdYkvsIKC68", "scope": "GOOGLE", "types": ["gas_station", "point_of_interest", "establishment"], "vicinity": "Calle Miguel de Cervantes, 6, Paracuellos de Jarama"}, {"business_status": "OPERATIONAL", "geometry": {"location": {"lat": 40.4998291, "lng": -3.5481165}, "viewport": {"northeast": {"lat": 40.5011784302915, "lng": -3.546702669708499}, "southwest": {"lat": 40.49848046970851, "lng": -3.549400630291502}}}, "icon": "https://maps.gstatic.com/mapfiles/place_api/icons/v1/png_71/gas_station-71.png", "icon_background_color": "#909CE1", "icon_mask_base_uri": "https://maps.gstatic.com/mapfiles/place_api/icons/v2/gas_pinlet", "international_phone_number": "+34 912 77 07 39", "name": "bp Prado Ribera", "opening_hours": {"open_now": false}, "photos": [{"height": 363, "html_attributions": ["<a href=\"https://maps.google.com/maps/contrib/106296530075994077334\">bp</a>"], "photo_reference": "AWn5SU7Ah2SUgca6DdEFi9OhVelAgnXYfv7dI8gRGAOmkhuOrW2ML1K8UEAmQtnCm0QDoFvOcW9hvBo0ZcHaXVaDNV2wT7mf1LEfxGw8yZkezdL54j3L-5cgDMaP3mVKe78bbQv9kuP1ADP82qI4Gr6SqcHDgGht9UXWs9uU_sUDNqY9Vbhfg77ZNRwxEECXlWzHSup2ZTwegOxgCmBIwMeUL8D-fEEyph-rPwhiqUroTOKinfA_J9RLJBd8tNvjCAkrO2cP9sx4R4_VG9y0aiW8rAclrY2aLzBg4Wkbz2bztOh0mxb7nsRjuS6tWorpnVrMjrgQXjaOEEI", "width": 645}], "place_id": "ChIJf_5wzCQzQg0RS9s39ZJkKs4", "plus_code": {"compound_code": "FFX2+WQ Paracuellos de Jarama, Spain", "global_code": "8CGRFFX2+WQ"}, "rating": 5, "reference": "ChIJf_5wzCQzQg0RS9s39ZJkKs4", "scope": "GOOGLE", "types": ["gas_station", "car_wash", "point_of_interest", "establishment"], "user_ratings_total": 1, "vicinity": "Calle Miguel de Cervantes, Paracuellos de Jarama"}, {"business_status": "OPERATIONAL", "geometry": {"location": {"lat": 40.52209999999999, "lng": -3.54542}, "viewport": {"northeast": {"lat": 40.52342608029149, "lng": -3.544078719708498}, "southwest": {"lat": 40.5207281197085, "lng": -3.546776680291502}}}, "icon": "https://maps.gstatic.com/mapfiles/place_api/icons/v1/png_71/gas_station-71.png", "icon_background_color": "#909CE1", "icon_mask_base_uri": "https://maps.gstatic.com/mapfiles/place_api/icons/v2/gas_pinlet", "international_phone_number": "+34 630 59 11 43", "name": "Galp", "opening_hours": {"open_now": true}, "photos": [{"height": 1080, "html_attributions": ["<a href=\"https://maps.google.com/maps/contrib/113952429352033866097\">Galp</a>"], "photo_reference": "AWn5SU7mPhRNX218HCajJpRyTLrbBOoIzTZXjNw2UhtbyfcYHe_14E4F7xL6F065dGkHxgUUqM6Kszd7RlFxZb8x6nq3-fU4rGbsKv-qxOc7-ycAt7X51H3y0bYWQl3uLO2xX5VjJtaJ6QbnYq1CJwilxbqHi7uQj8PD_HcWZHm_08vbP2zsL11jt4XPDf2mqXdGxexag5BoqEnCKN9DFl85Gpjvp-qD18h-lBHoLjEzhn4f_iY8OKj6SoS9wl3rIdnpbCXIrVJyvBhCqoDeok6YOi7LqNFzrdarB8MLhnxfKQhcgJfz4pBwWQ83Dmoi-_svcxFBxe4GNZo", "width": 1920}], "place_id": "ChIJw7nhmTczQg0R-ytvxwBoz1I", "plus_code": {"compound_code": "GFC3+RR Paracuellos de Jarama, Spain", "global_code": "8CGRGFC3+RR"}, "rating": 4.7, "reference": "ChIJw7nhmTczQg0R-ytvxwBoz1I", "scope": "GOOGLE", "types": ["gas_station", "cafe", "car_wash", "food", "point_of_interest", "establishment"], "user_ratings_total": 200, "vicinity": "Camino Viejo de Cobeña, 34, Paracuellos de Jarama"}, {"business_status": "OPERATIONAL", "geometry": {"location": {"lat": 40.5266095, "lng": -3.481591}, "viewport": {"northeast": {"lat": 40.5279621802915, "lng": -3.480352619708498}, "southwest": {"lat": 40.5252642197085, "lng": -3.483050580291502}}}, "icon": "https://maps.gstatic.com/mapfiles/place_api/icons/v1/png_71/gas_station-71.png", "icon_background_color": "#909CE1", "icon_mask_base_uri": "https://maps.gstatic.com/mapfiles/place_api/icons/v2/gas_pinlet", "international_phone_number": "+34 918 84 33 68", "name": "E S Trescantos", "place_id": "ChIJmW62GB80Qg0RzZ33xjQVzyg", "plus_code": {"compound_code": "GGG9+J9 Ajalvir, Spain", "global_code": "8CGRGGG9+J9"}, "rating": 3.4, "reference": "ChIJmW62GB80Qg0RzZ33xjQVzyg", "scope": "GOOGLE", "types": ["gas_station", "point_of_interest", "establishment"], "user_ratings_total": 7, "vicinity": "SN, Camino Torrejón, Ajalvir"}, {"business_status": "OPERATIONAL", "geometry": {"location": {"lat": 40.5268102, "lng": -3.4816025}, "viewport": {"northeast": {"lat": 40.52815698029151, "lng": -3.480227119708498}, "southwest": {"lat": 40.52545901970851, "lng": -3.482925080291502}}}, "icon": "https://maps.gstatic.com/mapfiles/place_api/icons/v1/png_71/gas_station-71.png", "icon_background_color": "#909CE1", "icon_mask_base_uri": "https://maps.gstatic.com/mapfiles/place_api/icons/v2/gas_pinlet", "international_phone_number": "+34 918 39 87 20", "name": "Estación de Servicio Repsol", "opening_hours": {"open_now": false}, "photos": [{"height": 608, "html_attributions": ["<a href=\"https://maps.google.com/maps/contrib/117087018614312596405\">Estación de Servicio Repsol</a>"], "photo_reference": "AWn5SU7iVvySDdgtvqFw2GX-5HmX_ENU9um3Qh1p7lWrBsbGGM6mP3o_IAWqvHUjyNRJ3BBqrJ-jx7geySuh0wFvyQzz4ppQGNoU6RhB5WYopH4z1ECOe-0FQhfaaGYvSumuJL_yZkw1yCeYuPqNhr3j9eN_DgxykQV3aXjuTplmQO7SBeCO2Q4ytb1sSpbeEBQuRowQWg6mGqsjB89eGBD1VqjWbBpLmtYSRvXR3CjLATOdRd8Td7gj0KkE6Syw_WQEGedz51SwwwmKsBnaQ5iZZVPKRZGYTT4VKzqRHd7vTW2QKk7S_HEuA7Bn8fyG7a78n6qpFVCG0Ng", "width": 1080}], "place_id": "ChIJZ0z_kWk0Qg0Rt633fvm3Sjk", "plus_code": {"compound_code": "GGG9+P9 Ajalvir, Spain", "global_code": "8CGRGGG9+P9"}, "rating": 3.9, "reference": "ChIJZ0z_kWk0Qg0Rt633fvm3Sjk", "scope": "GOOGLE", "types": ["gas_station", "car_wash", "point_of_interest", "establishment"], "user_ratings_total": 238, "vicinity": "CR M-132 A 0,2, Ajalvir"}, {"business_status": "OPERATIONAL", "geometry": {"location": {"lat": 40.5286955, "lng": -3.4816498}, "viewport": {"northeast": {"lat": 40.5300449802915, "lng": -3.480293119708498}, "southwest": {"lat": 40.5273470197085, "lng": -3.482991080291502}}}, "icon": "https://maps.gstatic.com/mapfiles/place_api/icons/v1/png_71/gas_station-71.png", "icon_background_color": "#909CE1", "icon_mask_base_uri": "https://maps.gstatic.com/mapfiles/place_api/icons/v2/gas_pinlet", "international_phone_number": "+34 910 60 07 96", "name": "Plenergy Ajalvir", "opening_hours": {"open_now": true}, "photos": [{"height": 899, "html_attributions": ["<a href=\"https://maps.google.com/maps/contrib/117481686199427092983\">Plenergy Ajalvir</a>"], "photo_reference": "AWn5SU52vUUrj38VTLlphVXpDmWSb3BVHDkXUU04AuLHMDslmPkDVjvC1i4Z3-B9IE-vEpHiy-rw3UFnadzYBFlx_fWfMz3N_PLI79rd5KzMesuVWjkzIlyjaX65GM6pX4pi7D0R9zl6JKWZFVxIM-Qgv7jTkcApD88pN6mZBgOipm74s6bzrDT7MA2PaO3LhsbzQ4S_l8wmTnKIQRJZ-Y7NBSsbMTPTlRCQcgXPYS0ugRrWxOu4XlL6RCD-J6Uk3KubgScjwj_QemIxe7p9YkTxm2UQ-JioTpk6tZUG32rN1afNpgNaH6EKzCkqdj-B7b3RN4pNYnXZqeY", "width": 1599}], "place_id": "ChIJo09SwrE1Qg0RDcQz_bLQgDU", "plus_code": {"compound_code": "GGH9+F8 Ajalvir, Spain", "global_code": "8CGRGGH9+F8"}, "rating": 4.5, "reference": "ChIJo09SwrE1Qg0RDcQz_bLQgDU", "scope": "GOOGLE", "types": ["gas_station", "point_of_interest", "establishment"], "user_ratings_total": 172, "vicinity": "Camino Torrejón, 4, Ajalvir"}, {"business_status": "OPERATIONAL", "geometry": {"location": {"lat": 40.5280318, "lng": -3.4808492}, "viewport": {"northeast": {"lat": 40.52937738029149, "lng": -3.479645569708498}, "southwest": {"lat": 40.5266794197085, "lng": -3.482343530291501}}}, "icon": "https://maps.gstatic.com/mapfiles/place_api/icons/v1/png_71/gas_station-71.png", "icon_background_color": "#909CE1", "icon_mask_base_uri": "https://maps.gstatic.com/mapfiles/place_api/icons/v2/gas_pinlet", "international_phone_number": "+34 918 40 32 72", "name": "Estación de Servicio Repsol", "opening_hours": {"open_now": false}, "place_id": "ChIJSzkWw2k0Qg0Rx-lXvnVxaXM", "plus_code": {"compound_code": "GGH9+6M Ajalvir, Spain", "global_code": "8CGRGGH9+6M"}, "reference": "ChIJSzkWw2k0Qg0Rx-lXvnVxaXM", "scope": "GOOGLE", "types": ["gas_station", "point_of_interest", "establishment"], "vicinity": "Calle Tres, 1, Ajalvir"}, {"business_status": "OPERATIONAL", "geometry": {"location": {"lat": 40.4665911, "lng": -3.5727191}, "viewport": {"northeast": {"lat": 40.46797068029149, "lng": -3.571388619708499}, "southwest": {"lat": 40.4652727197085, "lng": -3.574086580291502}}}, "icon": "https://maps.gstatic.com/mapfiles/place_api/icons/v1/png_71/gas_station-71.png", "icon_background_color": "#909CE1", "icon_mask_base_uri": "https://maps.gstatic.com/mapfiles/place_api/icons/v2/gas_pinlet", "international_phone_number": "+34 913 05 81 52", "name": "Repsol", "opening_hours": {"open_now": true}, "photos": [{"height": 925, "html_attributions": ["<a href=\"https://maps.google.com/maps/contrib/106742098144107316944\">Estación de Servicio Repsol</a>"], "photo_reference": "AWn5SU7g-8_ZLm5mS4iIHGgLkoy6n4gdNSb0wdiLtsXiXirZrIp4VzSNeJulQpOg4nMEjBtH0HEOgiUvhrd0MmxBhsQAgQoEJ5ovKgbAFWCO57qJSU-hVFTWYDv7Y56Q7uZ6xo-sitqx5Ow3Empyxb3ETa5ot02dLjl3rR7jddnpJYJdhuaJTULIXMBwI1TtjCAi7IL2tAABNumYEciXwXj_V5faccJNNoI7FGk6GyeUe0d3wza_2bBtV6L2iQfNPM1h81K1gwR4QsMKTGPtDv6YczZYJ2ZJlB0-wkd2_Zi88D1ATgjETlYiysWqyPstFRhj52N6jUr_XHc", "width": 1500}], "place_id": "ChIJyddJaNAxQg0RNGQpEE3W5Ho", "plus_code": {"compound_code": "FC8G+JW Madrid, Spain", "global_code": "8CGRFC8G+JW"}, "rating": 4, "reference": "ChIJyddJaNAxQg0RNGQpEE3W5Ho", "scope": "GOOGLE", "types": ["gas_station", "car_wash", "point_of_interest", "establishment"], "user_ratings_total": 396, "vicinity": "TERMINAL 2 DEL, Aeropuerto Barajas, Madrid"}]