[{"business_status": "OPERATIONAL", "geometry": {"location": {"lat": 40.36493959999999, "lng": -3.321798499999999}, "viewport": {"northeast": {"lat": 40.3665005302915, "lng": -3.320452269708497}, "southwest": {"lat": 40.3638025697085, "lng": -3.323150230291501}}}, "icon": "https://maps.gstatic.com/mapfiles/place_api/icons/v1/png_71/park-71.png", "icon_background_color": "#4DB546", "icon_mask_base_uri": "https://maps.gstatic.com/mapfiles/place_api/icons/v2/tree_pinlet", "name": "Parque", "photos": [{"height": 2268, "html_attributions": ["<a href=\"https://maps.google.com/maps/contrib/115592124922280418224\">Filofteia Ilie</a>"], "photo_reference": "AWn5SU5z_FvmUJWttHYvifk0sKirhC2HEUJqPO1UWizfQ2JyW6HaXeGavxBeHQVrktZ6tVekhtotvLnZyWBuIgw4UZlT8UbcqU6lPCCgD6NdnIexwSDHMV-5YSyC-OIYEQaMMVU5ZT4zaEBEwfhqM-dbjoYGSLwoGqHPQAOXRDya3BMWW8YkLyfWotc-aXx7de9PF8FMzE6VM_c9ZH02Tkn7s4hKbAblfaIC91blmwNzz_YZ1NJont0CvGx5r6EBq0pMMTDS85TPIdijJ87-AtaGJzfPrNFdK0YGCq7rECb-WCagAe6gP8Mx7RZTa4fm47UKHf-958fnzP2Nkcaglr95Sh7lfBDXT7QNbJoI_5-aK_2bApN7fS3lqkOTzrxp38jL2HC4U6cuMVYrUx8orL2_8tSdp9yZ7pU57XerNKUXyEV3wOC2XgRWcgs6e87DFGwN-QYUEEdGnywdoYgFElpNUss2p61DTn7uXyQ2h4HdTKky-pQiioc-Y1PZkm6bMOF-1NHJRDFmUS1B4LBXw5eR1JEY735eumvYdg2RWLCyuf9k5Ugz3aYnvEtjHb9l6T8r1hv_xXT5OkM7Cd4V0Hzw7okspl4ybYwaKFbC_jMi9LviuU_YFqZEV7w-hD8I4ssiLEwvBW64", "width": 4032}], "place_id": "ChIJgfdj3ZZFQg0RFLUcqj67vJc", "plus_code": {"compound_code": "9M7H+X7 Pozuelo del Rey, Spain", "global_code": "8CGR9M7H+X7"}, "rating": 3.8, "reference": "ChIJgfdj3ZZFQg0RFLUcqj67vJc", "scope": "GOOGLE", "types": ["park", "point_of_interest", "establishment"], "user_ratings_total": 8, "vicinity": "Calle de Esparteros, 19, Pozuelo del Rey"}, {"business_status": "OPERATIONAL", "geometry": {"location": {"lat": 40.3626269, "lng": -3.3223537}, "viewport": {"northeast": {"lat": 40.3639551302915, "lng": -3.321010419708498}, "southwest": {"lat": 40.36125716970851, "lng": -3.323708380291502}}}, "icon": "https://maps.gstatic.com/mapfiles/place_api/icons/v1/png_71/park-71.png", "icon_background_color": "#4DB546", "icon_mask_base_uri": "https://maps.gstatic.com/mapfiles/place_api/icons/v2/tree_pinlet", "name": "Sendero a Campo Real", "opening_hours": {"open_now": true}, "place_id": "ChIJJQpHGWtFQg0RoLB4wriYUj8", "plus_code": {"compound_code": "9M7H+33 Campo Real, Spain", "global_code": "8CGR9M7H+33"}, "rating": 1, "reference": "ChIJJQpHGWtFQg0RoLB4wriYUj8", "scope": "GOOGLE", "types": ["park", "point_of_interest", "establishment"], "user_ratings_total": 1, "vicinity": "Camino de Arganda, Campo Real"}, {"business_status": "OPERATIONAL", "geometry": {"location": {"lat": 40.36260679999999, "lng": -3.3222086}, "viewport": {"northeast": {"lat": 40.3639356302915, "lng": -3.320866619708498}, "southwest": {"lat": 40.3612376697085, "lng": -3.323564580291501}}}, "icon": "https://maps.gstatic.com/mapfiles/place_api/icons/v1/png_71/park-71.png", "icon_background_color": "#4DB546", "icon_mask_base_uri": "https://maps.gstatic.com/mapfiles/place_api/icons/v2/tree_pinlet", "name": "Camino Arganda", "opening_hours": {"open_now": true}, "place_id": "ChIJJcxixYdFQg0R5JEAzbpnyTk", "plus_code": {"compound_code": "9M7H+24 Campo Real, Spain", "global_code": "8CGR9M7H+24"}, "reference": "ChIJJcxixYdFQg0R5JEAzbpnyTk", "scope": "GOOGLE", "types": ["park", "point_of_interest", "establishment"], "vicinity": "Camino de Arganda, Campo Real"}, {"business_status": "OPERATIONAL", "geometry": {"location": {"lat": 40.3643559, "lng": -3.3178771}, "viewport": {"northeast": {"lat": 40.3656990302915, "lng": -3.316534669708498}, "southwest": {"lat": 40.3630010697085, "lng": -3.319232630291502}}}, "icon": "https://maps.gstatic.com/mapfiles/place_api/icons/v1/png_71/park-71.png", "icon_background_color": "#4DB546", "icon_mask_base_uri": "https://maps.gstatic.com/mapfiles/place_api/icons/v2/tree_pinlet", "name": "Senda el olivo", "opening_hours": {"open_now": true}, "photos": [{"height": 4624, "html_attributions": ["<a href=\"https://maps.google.com/maps/contrib/103322360241594595399\">Vicente Camarasa</a>"], "photo_reference": "AWn5SU4TqfXb5A59gufIWQifdRA0WN7fsXDPy_VZkl5T_eFEL4aNTjGBDMA95PhA18kwX_QEOKFjheMUxU9H8JShD1WSlzoLbb9f1D3t3GlPrDMZk_GK8KyMlmfj-5TXaq4r4GNLvVd2hOkxYI_HAeLecJqWmBRTtPAXU0sQXw64sbmiK4k0zYDFzczsyAjVBqX4yBvFsAIOkOcl785s4sG-1maWajQAxKxFHTngPOFQUs4lYqwn-R70SJA5hP7AZfoDg-4xM4djkOyhpWAVJ3-Yf43n9STSONhbLwXkFRT6pWD2eN4_sQTsTCaZFE36_Ct1Fcvf5YUe93jBf93K1-a_VtmDPg66pCZHfIAy1iR92UXefZ_3qHm3fC95sebG0GTllHKMwTH0LSesth2icI7bHhRj8U6aKoMCb6awcK2q_cDI4dGRMO_TDhi-xYdFSZcRBen6Tl0b30yXGpTwXcSvQ7k1XBVG4aws0WfleA_tN0AwjHmWZcInotOLoMJndmP2Q0GUdy7sEUw4mOHa8Wr9w5PZhaRjGY6EaYrgaB89wyKssnB6dQyQYRW3hh7eW3zJPPiecBOmMp89gKtf1TPXZVLaKTOQXA-TGojU7W15_izHS61-2Wg19DKhfFvLPZaBbmXkAQ", "width": 3472}], "place_id": "ChIJA7k6aHtFQg0RRyx5X7SoBKU", "plus_code": {"compound_code": "9M7J+PR Pozuelo del Rey, Spain", "global_code": "8CGR9M7J+PR"}, "rating": 4.5, "reference": "ChIJA7k6aHtFQg0RRyx5X7SoBKU", "scope": "GOOGLE", "types": ["park", "point_of_interest", "establishment"], "user_ratings_total": 2, "vicinity": "Pozuelo del Rey"}, {"business_status": "OPERATIONAL", "geometry": {"location": {"lat": 40.368143, "lng": -3.3279381}, "viewport": {"northeast": {"lat": 40.3695221302915, "lng": -3.326595219708498}, "southwest": {"lat": 40.3668241697085, "lng": -3.329293180291502}}}, "icon": "https://maps.gstatic.com/mapfiles/place_api/icons/v1/png_71/park-71.png", "icon_background_color": "#4DB546", "icon_mask_base_uri": "https://maps.gstatic.com/mapfiles/place_api/icons/v2/tree_pinlet", "name": "Camino la flor", "photos": [{"height": 1200, "html_attributions": ["<a href=\"https://maps.google.com/maps/contrib/100943531909463335551\">OSUNA</a>"], "photo_reference": "AWn5SU6IP8UiphyKAVIojCvZzphz64AX7FVJUR7d43Mhy2qVl5po6Y9EaE2KASuOI05f7IrG62A6IS8DtJqjlSV30M9Wfxvs5ry-uD49n56DcTHUib-wlQ_L-ChngIkV8kCgt-1fu-e4pLbjpFc8bmteRocMs9I1VITLnjdt4QCCF4OrS98RzJuhucooIYq-HoQJlJSuPnfeVxBD4OgLzWmrKphsYfqfamD8KcOdnAI2WAB-HyqpPFXju65k72rt9bH47NZgpr-Z5roNU8de-2J6oREmqT8k6j8NhNl2lhtE5nBTTQw4fek8fNJzev8P8C0VK4tsFRLGeryVjj3WbbvX1RRsgM2VGKAz77AH2lsqeWSol3c_eow-IwFIwIM7pOh5oL5GYrnttSTQStiqqi28fHxWrAtomjTw8k6ybPQ_H3XoJXJXrOlXMunmbng0ff2iLmPktZ8kguBcoB-zDtichRltUkxyB2DoAX6EDpxFjPzOiEnrC2fPI9UomD2kq5cWrW0tgk4fCx3UooRo-uu1FYMaKpJzGsdcTaOBgL7NEos23t4nxyXhm-MCb9K6W6hRU0W1tyd5wK-FjQPzNhtJWntNpuxVyQWpZdvRqxokqxe4FN6JOi-sAoeR5WigvDBu", "width": 1600}], "place_id": "ChIJw36DcDNFQg0R6boi9OeMm44", "plus_code": {"compound_code": "9M9C+7R Pozuelo del Rey, Spain", "global_code": "8CGR9M9C+7R"}, "rating": 5, "reference": "ChIJw36DcDNFQg0R6boi9OeMm44", "scope": "GOOGLE", "types": ["park", "point_of_interest", "establishment"], "user_ratings_total": 1, "vicinity": "Calle la Flor, Pozuelo del Rey"}, {"business_status": "OPERATIONAL", "geometry": {"location": {"lat": 40.3721503, "lng": -3.320619}, "viewport": {"northeast": {"lat": 40.37349963029151, "lng": -3.319276519708498}, "southwest": {"lat": 40.37080166970851, "lng": -3.321974480291502}}}, "icon": "https://maps.gstatic.com/mapfiles/place_api/icons/v1/png_71/park-71.png", "icon_background_color": "#4DB546", "icon_mask_base_uri": "https://maps.gstatic.com/mapfiles/place_api/icons/v2/tree_pinlet", "name": "Camino hacia Torres de la Alameda", "opening_hours": {"open_now": true}, "place_id": "ChIJe9lF681FQg0R3ERYXLK6ZzI", "reference": "ChIJe9lF681FQg0R3ERYXLK6ZzI", "scope": "GOOGLE", "types": ["park", "point_of_interest", "establishment"], "vicinity": "9MCH+VQ, Pozuelo del Rey"}, {"business_status": "OPERATIONAL", "geometry": {"location": {"lat": 40.361677, "lng": -3.313593999999999}, "viewport": {"northeast": {"lat": 40.3630220302915, "lng": -3.312263969708498}, "southwest": {"lat": 40.3603240697085, "lng": -3.314961930291501}}}, "icon": "https://maps.gstatic.com/mapfiles/place_api/icons/v1/png_71/park-71.png", "icon_background_color": "#4DB546", "icon_mask_base_uri": "https://maps.gstatic.com/mapfiles/place_api/icons/v2/tree_pinlet", "name": "Camino vía pecuaria", "opening_hours": {"open_now": true}, "place_id": "ChIJO21vunRFQg0RYHDtvahVdiY", "plus_code": {"compound_code": "9M6P+MH Pozuelo del Rey, Spain", "global_code": "8CGR9M6P+MH"}, "reference": "ChIJO21vunRFQg0RYHDtvahVdiY", "scope": "GOOGLE", "types": ["park", "point_of_interest", "establishment"], "vicinity": "Pozuelo del Rey, Unnamed Road, 28813"}, {"business_status": "OPERATIONAL", "geometry": {"location": {"lat": 40.3707317, "lng": -3.3127387}, "viewport": {"northeast": {"lat": 40.3720545802915, "lng": -3.311362619708499}, "southwest": {"lat": 40.3693566197085, "lng": -3.314060580291502}}}, "icon": "https://maps.gstatic.com/mapfiles/place_api/icons/v1/png_71/park-71.png", "icon_background_color": "#4DB546", "icon_mask_base_uri": "https://maps.gstatic.com/mapfiles/place_api/icons/v2/tree_pinlet", "name": "Senda el Roble", "place_id": "ChIJVfCWXXhFQg0R8MFWkMEQ5gc", "plus_code": {"compound_code": "9MCP+7W Pozuelo del Rey, Spain", "global_code": "8CGR9MCP+7W"}, "rating": 3, "reference": "ChIJVfCWXXhFQg0R8MFWkMEQ5gc", "scope": "GOOGLE", "types": ["park", "point_of_interest", "establishment"], "user_ratings_total": 1, "vicinity": "Calle de El Roble, 50, Pozuelo del Rey"}, {"business_status": "OPERATIONAL", "geometry": {"location": {"lat": 40.3845006, "lng": -3.3128473}, "viewport": {"northeast": {"lat": 40.38585808029151, "lng": -3.311494119708497}, "southwest": {"lat": 40.38316011970851, "lng": -3.314192080291501}}}, "icon": "https://maps.gstatic.com/mapfiles/place_api/icons/v1/png_71/park-71.png", "icon_background_color": "#4DB546", "icon_mask_base_uri": "https://maps.gstatic.com/mapfiles/place_api/icons/v2/tree_pinlet", "name": "Camino a Torres de la Alameda", "photos": [{"height": 3024, "html_attributions": ["<a href=\"https://maps.google.com/maps/contrib/110114915121018465272\">Txus Calurano</a>"], "photo_reference": "AWn5SU45Nx6IsW17by-fhUuwZNIWfp497J6XMLQXgW5jOxajPCbFmIjCPtlxP1wZLlQoDAKG2vskax-udbT65vwewebIKNmIjPK1Y6KBTfWK-2ScAuEqT6XLwjUqqWNEvO4_cJVtmOtDYh9N-0XgI6vtiK1NB-VrN_si34ezUOGPKsdbl1aHDgX45BI86aqVoMFLdIAmT-zYfYmJK_wqCd45pe9X4kekLUAUEz16NNEiH1Gj-tMKqGjWCsCjyRgFZ5b_PPFZy0uoZRnm01-PLk7XSpWuFKHTDcYTR_zd4r_i4voP7JwJy4FdwNujNoUVdaNujqoIegRMeWoEmfrCUzvjg2WsSjUnTW1ddRxgDBPdLFcrjYeXqzfONfHNE00AIsjCA--vj0IzgQD6J2KY-Nrueyf6hCKC3ZFjog05e5oJ_p80YPEv34oL-vDFWNiHP5mxd_isZRJQl7QGdIFVuLjbPppk4HhnC_JNbd2RzTWe8zWRxjUTUlyuz0QNhHz_Hw2DcSKlALJwu_xgHpmgk0IWwpnpEkTCXL6rPBSTneVrPb8C1DLFB92BGx8RVXzhq01X139OGK5ZnxzLjpNtqqWyh5NRTBu4gBo6Pn_AY6YwOP9OZOFhM4cDQq1CZ3htS5ys2VPBp2EIqZh7TxLA4pPwxNqkGUg", "width": 4032}], "place_id": "ChIJhb-c8GtFQg0Rx_8r9vrPo7Y", "rating": 5, "reference": "ChIJhb-c8GtFQg0Rx_8r9vrPo7Y", "scope": "GOOGLE", "types": ["park", "point_of_interest", "establishment"], "user_ratings_total": 1, "vicinity": "9MMP+RV, Pozuelo del Rey"}, {"business_status": "OPERATIONAL", "geometry": {"location": {"lat": 40.3661283, "lng": -3.353924999999999}, "viewport": {"northeast": {"lat": 40.3674518302915, "lng": -3.352570969708498}, "southwest": {"lat": 40.3647538697085, "lng": -3.355268930291502}}}, "icon": "https://maps.gstatic.com/mapfiles/place_api/icons/v1/png_71/park-71.png", "icon_background_color": "#4DB546", "icon_mask_base_uri": "https://maps.gstatic.com/mapfiles/place_api/icons/v2/tree_pinlet", "name": "Camino del Rey", "opening_hours": {"open_now": true}, "photos": [{"height": 1200, "html_attributions": ["<a href=\"https://maps.google.com/maps/contrib/100943531909463335551\">OSUNA</a>"], "photo_reference": "AWn5SU6Rh1ThvQXBUU8ZAxCo0RXwBHL1CgbzSUnboG0drtxPG7aqfMFMRgoUNi5K4Zzm1Uv48Pj7aAdEZiKG0TQqJNkO3LVrkU2MjCqpfYwhwqovLfbWqkx-UkH0thZKmznWA_BLy7q4FNB72cgQphNPPxptP_UPbs-yO3Es_W2lTwtAkCdfcY1FrF0ZPzSTAcnpOg-eADPkHS4SP5Le94xUmYp5xyFhG50h62KeqY22yQV-xZzbAJWY3xiAh1xhSxz3KJixaX1oMmXJ9XkRZvA0hmXOTlHuBr1dfjnV68wDMdHiHszz45YQ-eFNa1InfyT3suG1nuDpq_6r71LtL9yqRvpjRv8Vl_zwWAXtFhMIMlw4gXNDosCXZzTREeQzV4a5PNdhytGSVuAMytUUob0rXcq51NOlljpB4_fHDMId9b1oyXpHuth4fuuG4vuZDouOzkejTaJDFxrHH2jfj1iI1ozIPI9RrJUtHjYWTgkQQ5hyzjbpPENRBkStMboyY6ly26G73miZvTg4aGkhotcWZhwqDDuDsLhxqVZB-7r9Dksv66S5CQuQhP1lk-vIcrqMz2l7rZuNSdfzbvjZNhAsnmZmkdQX13C1gOvu29sUb2T-yIIjgbrcFDSHqQdsH1KB1yzPbw", "width": 1600}], "place_id": "ChIJr_H3bD1HQg0R-M_3ZTyn070", "plus_code": {"compound_code": "9J8W+FC Loeches, Spain", "global_code": "8CGR9J8W+FC"}, "rating": 5, "reference": "ChIJr_H3bD1HQg0R-M_3ZTyn070", "scope": "GOOGLE", "types": ["park", "point_of_interest", "establishment"], "user_ratings_total": 3, "vicinity": "Camino del Rey, Loeches"}, {"business_status": "OPERATIONAL", "geometry": {"location": {"lat": 40.3910736, "lng": -3.329871999999999}, "viewport": {"northeast": {"lat": 40.3924231802915, "lng": -3.328522819708498}, "southwest": {"lat": 40.3897252197085, "lng": -3.331220780291502}}}, "icon": "https://maps.gstatic.com/mapfiles/place_api/icons/v1/png_71/park-71.png", "icon_background_color": "#4DB546", "icon_mask_base_uri": "https://maps.gstatic.com/mapfiles/place_api/icons/v2/tree_pinlet", "name": "Camino a Torres de la Alameda", "opening_hours": {"open_now": true}, "photos": [{"height": 3024, "html_attributions": ["<a href=\"https://maps.google.com/maps/contrib/110114915121018465272\">Txus Calurano</a>"], "photo_reference": "AWn5SU6AiRcDjkz6yND9lD3YFBmapPt0BsD0w-eASKx0L5XafUl2K4MA331vcAb9tCJWM-0UpNrt-6DZWnAM7w1NUFjFbGg6NjO7IKz76wZDaJNe0sHcSHF4i3f7Xbs5kQ_e4o16UiAVeQicYO3GOpHKjzlivPRqxNyV_TvAb9pfwvypFM9b-nas3wlvJOXKndjhtvkl1qCXb7aWVyh9vh8JSmlWpszcqAjYMZPG93vqpIdnTiwtBzBHEVJkSVu0byfdpaK-_LnG71trkW-bHqzWFhhCadpxL0yIaiMd2dUUQmYq4qjoLcDAS56L0KoLKQTVk7qLK419tdz5CwAmoqIdFpfsPgB9SIeS_okzAX-czHy-FHMm-YKz0HbBOQO5YMOqM-JydocIp9j5BT3PY3CStEl6qqSrenBhyHGudiPJHtY8Ewb0jIeWooCKqHxA0SJoHQy4QYbs7tLTMeZzln3FZI7jtHXp_h6SwhSbxY6Y7PJ9MUxVXiYFjc7aVpT7TpcljYPl8h0ixjyAZ0BdiryUAMA0g31ggQL4j3YRA3TJkR12d-UwDXyvOQCJHjHXZRaE3I3v_9a8uTqVh4AIBw7NlzDeQys2vkNgZUOl6wMWmDFYxqYV8sLJmin-tkmJEGIyQEri42lLkfAgArbbLvUAbw", "width": 4032}], "place_id": "ChIJsa-NYghFQg0RRfgf1dWOFxc", "reference": "ChIJsa-NYghFQg0RRfgf1dWOFxc", "scope": "GOOGLE", "types": ["park", "point_of_interest", "establishment"], "vicinity": "9MRC+C3, Torres de la Alameda"}, {"business_status": "OPERATIONAL", "geometry": {"location": {"lat": 40.3698657, "lng": -3.3581143}, "viewport": {"northeast": {"lat": 40.3712186802915, "lng": -3.356758519708498}, "southwest": {"lat": 40.36852071970851, "lng": -3.359456480291501}}}, "icon": "https://maps.gstatic.com/mapfiles/place_api/icons/v1/png_71/park-71.png", "icon_background_color": "#4DB546", "icon_mask_base_uri": "https://maps.gstatic.com/mapfiles/place_api/icons/v2/tree_pinlet", "name": "Senda el barranco", "opening_hours": {"open_now": true}, "place_id": "ChIJj7X_dABHQg0RFYdVnO_YpNI", "plus_code": {"compound_code": "9J9R+WQ Torres de la Alameda, Spain", "global_code": "8CGR9J9R+WQ"}, "reference": "ChIJj7X_dABHQg0RFYdVnO_YpNI", "scope": "GOOGLE", "types": ["park", "point_of_interest", "establishment"], "vicinity": "Torres de la Alameda"}, {"business_status": "OPERATIONAL", "geometry": {"location": {"lat": 40.3602443, "lng": -3.3578736}, "viewport": {"northeast": {"lat": 40.3616194802915, "lng": -3.356501669708498}, "southwest": {"lat": 40.3589215197085, "lng": -3.359199630291501}}}, "icon": "https://maps.gstatic.com/mapfiles/place_api/icons/v1/png_71/park-71.png", "icon_background_color": "#4DB546", "icon_mask_base_uri": "https://maps.gstatic.com/mapfiles/place_api/icons/v2/tree_pinlet", "name": "Las Chorreras", "place_id": "ChIJ1YG-cypHQg0RAD481-bR3cs", "plus_code": {"compound_code": "9J6R+3V Campo Real, Spain", "global_code": "8CGR9J6R+3V"}, "rating": 5, "reference": "ChIJ1YG-cypHQg0RAD481-bR3cs", "scope": "GOOGLE", "types": ["park", "point_of_interest", "establishment"], "user_ratings_total": 1, "vicinity": "Campo Real"}, {"business_status": "OPERATIONAL", "geometry": {"location": {"lat": 40.390975, "lng": -3.3467022}, "viewport": {"northeast": {"lat": 40.39179745000001, "lng": -3.343955149999999}, "southwest": {"lat": 40.38850764999998, "lng": -3.354943350000001}}}, "icon": "https://maps.gstatic.com/mapfiles/place_api/icons/v1/png_71/park-71.png", "icon_background_color": "#4DB546", "icon_mask_base_uri": "https://maps.gstatic.com/mapfiles/place_api/icons/v2/tree_pinlet", "name": "Las Zorreras", "opening_hours": {"open_now": true}, "photos": [{"height": 4080, "html_attributions": ["<a href=\"https://maps.google.com/maps/contrib/109797180694316297817\">Luis Alberto Frechon</a>"], "photo_reference": "AWn5SU4OlvsipJoeo0y9LhdZMI_C2bDTsSGIZn-x65gOqjZLDKY492CRpP6XfFcMq1_fzB02q6rpyFtnBg4uL8O-A5y2at4EJW_-MtAFseGwn9mEhn0umAKZUJmc_UbozK_XjmTaG2ZQZaoLGhavKiF3uQrCT6kwQe-ESnAMlDl5OG0P0mvbuuTUdctQKWZidPXRE9QIRDd1HwX3b852e-boD-lsKl6eM0Lv8m1CaOnSHJ-OglpslrF6z1xmqF4-76GIogZBBqUzjhaRAo1TCcLnUOssb9ygp29m727-gyc93zC-a2wE0QhOKNn0lxDAH5XVKBHI8jlEntZiUdjZwtqPwbMXDdPuUUreZz6MbjCjrwIT6SH8_GrRkI-nFKnjeNqks6BEwQcSmRa-ibH25CJFjwMDBizOny_WfPWFK8hLruY2AD32y9-Kv3s5uvKZOf619-ZzHPbi41j2nnVaeuzjg_xuwSfUvVvwb28awwaHuFqwOxzCgu_isJQhpI5UvEFuNYNWQKC9mM7Yfkb7aWWHeDXAEQ5z8t6dCTjGWpgm131F-_Qi2k4K0GfnMQKUEq9V5rbADIs2jTx9Xvp4GcDXv6Ktyz1NKyz5mm801a6gDJav2S8Ck_z_GhE0v2PHEr9-GkC5NOc1", "width": 3060}], "place_id": "ChIJy0abyuVHQg0RkInXrZGp1zg", "rating": 5, "reference": "ChIJy0abyuVHQg0RkInXrZGp1zg", "scope": "GOOGLE", "types": ["park", "point_of_interest", "establishment"], "user_ratings_total": 2, "vicinity": "9MR3+98, Torres de la Alameda"}, {"business_status": "OPERATIONAL", "geometry": {"location": {"lat": 40.3948773, "lng": -3.355336499999999}, "viewport": {"northeast": {"lat": 40.39620318029149, "lng": -3.354017019708498}, "southwest": {"lat": 40.3935052197085, "lng": -3.356714980291502}}}, "icon": "https://maps.gstatic.com/mapfiles/place_api/icons/v1/png_71/park-71.png", "icon_background_color": "#4DB546", "icon_mask_base_uri": "https://maps.gstatic.com/mapfiles/place_api/icons/v2/tree_pinlet", "name": "Sendero el Pinar", "opening_hours": {"open_now": true}, "photos": [{"height": 3072, "html_attributions": ["<a href=\"https://maps.google.com/maps/contrib/105027762344944707763\">Miguel Angel Rivera</a>"], "photo_reference": "AWn5SU5zNJ9b6wAsxI6o5m7RftvvXjg4jimQk7yaWyNnVM8VGfeRrD8AoIkRlPzTBpNCCvYDyTrJCniu1pBP1b30o1-D27m88LsHaXspdAK6-dQcmGml3Nn3GNJNJUdcJ9wu4BpDVp-FD2rYLcTus4H9BvAv8EY5-Vm4M0MNvMhWyqFvtLORNoEXCoF6H8Ewy0fE70veRqQ-i5bbuThZBFeKS_SYHrPz9ln4gMFh_kZNbcXE-u-7H2ydhO15xiaHLw3xpjRNsxPk8u8MOcNkoY2cdq-PEn2yT8JKuHAj9uDwDrF2Bd_awWI-1-AxIm9G7F__ZlVIr8yVVthWraO-3fBUNVO78DXdtCWQ-YYFk5Jm1RgPLlH_697NYQFjbHY__UhSAQEnmxIZLJ5uT7ybDEBV9Bnwj3eHGUNY8zOaILtzba4FJPXxNOeOFUvNWkNHtkF7gb2o9O0YKwIatuT1MKhHQeOIkcdnyTcBwPTffnKHYEGILoPuEnaglB7EIgPwU-vj0Qpra-sg974gBZPs7l12_aStYEbcylX7Fg3OkK0YkyXmf1IgxLvhYtPjBtYGO7KhmghJsltFYOrJp4_pndIOFUja1HPLR1XSVpyE13r2TFjAMaqTQSOn0FgcSBH5VlaSi1Sg7nIC", "width": 4080}], "place_id": "ChIJl3_nC5pHQg0RCmpCSMIljK4", "rating": 4, "reference": "ChIJl3_nC5pHQg0RCmpCSMIljK4", "scope": "GOOGLE", "types": ["park", "point_of_interest", "establishment"], "user_ratings_total": 1, "vicinity": "9JVV+XV, Torres de la Alameda"}, {"business_status": "OPERATIONAL", "geometry": {"location": {"lat": 40.353535, "lng": -3.272384199999999}, "viewport": {"northeast": {"lat": 40.35499258029149, "lng": -3.270966719708498}, "southwest": {"lat": 40.35229461970849, "lng": -3.273664680291501}}}, "icon": "https://maps.gstatic.com/mapfiles/place_api/icons/v1/png_71/park-71.png", "icon_background_color": "#4DB546", "icon_mask_base_uri": "https://maps.gstatic.com/mapfiles/place_api/icons/v2/tree_pinlet", "name": "Encina Park", "opening_hours": {"open_now": true}, "place_id": "ChIJhRlX945FQg0RK3lWnlDjmec", "plus_code": {"compound_code": "9P3H+C2 Nuevo Baztán, Spain", "global_code": "8CGR9P3H+C2"}, "reference": "ChIJhRlX945FQg0RK3lWnlDjmec", "scope": "GOOGLE", "types": ["park", "point_of_interest", "establishment"], "vicinity": "Calle Posada de Castilla I, 136, Nuevo Baztán"}, {"business_status": "OPERATIONAL", "geometry": {"location": {"lat": 40.3542854, "lng": -3.2717059}, "viewport": {"northeast": {"lat": 40.3553508302915, "lng": -3.270535019708498}, "southwest": {"lat": 40.35265286970851, "lng": -3.273232980291502}}}, "icon": "https://maps.gstatic.com/mapfiles/place_api/icons/v1/png_71/park-71.png", "icon_background_color": "#4DB546", "icon_mask_base_uri": "https://maps.gstatic.com/mapfiles/place_api/icons/v2/tree_pinlet", "name": "La Plazuela Segunda Park", "opening_hours": {"open_now": true}, "photos": [{"height": 3280, "html_attributions": ["<a href=\"https://maps.google.com/maps/contrib/115226037839031139573\">Vianny López</a>"], "photo_reference": "AWn5SU4WIFzdy7uUB903oclnaF8YAdqMUMtpyhDN2VtyxXkahbrUmz8AJWiEitkv2-BBQ9T2scjC-TXXmDSEHmhEvSmhCD-tgS7145U_ffQEFoiXnpr-rmHQK-OHEljAtnAulUo4NS571JxEksG2Zxd0h86WMNaAMjuG-OMVfhyVIlhGoOYuMOUqDr5u4bpYwcdJq2yR7qMyYrkNIxqPRM5sB4GZfVb4ANcLgJhkjAc3r2mQHrlGb3hR-5zU44Ja0vgCOjakWp813meuQJp9HZMcKvhVS9EAla11KKAodMLxQDW40QEh309vLWmS0bqUB4za9Bqb-1kUtPcR9EDZ8uUj-jiMcx2ZJY0e13pcMEJiw03hae4nTL32Avd0P2bfTMq3tfSAlWuRTyMNCfwTvCkG-0qkLjHXPStqn_opTLpN7_ifLHIQgQ1shy97BJIk7jlibhzQJxsny3oNv1giG_pFyopTLDeBreFo6s0iIged3WEhGvD7iUIzAaV5xY83pPz9JwBYSgPmcM43WqT9jUgqWw5DWfomSQ6YlmP_4mQIr7q_OQ-hq6feJFWHmqmhJWP7Q-qSvPbe-do6C8MtTJLFDyoa6a4HeJnEHz1fPGsvoRjuzQQOXm_1oRhU3EfbjoOIeeiO7T4vVGBzX9HX3bV0baUUCoU", "width": 1848}], "place_id": "ChIJJXo2n5lFQg0R2lcM7_i07Bo", "plus_code": {"compound_code": "9P3H+P8 Nuevo Baztán, Spain", "global_code": "8CGR9P3H+P8"}, "reference": "ChIJJXo2n5lFQg0R2lcM7_i07Bo", "scope": "GOOGLE", "types": ["park", "point_of_interest", "establishment"], "vicinity": "Calle Posada de Castilla I, 37, Nuevo Baztán"}, {"business_status": "OPERATIONAL", "geometry": {"location": {"lat": 40.3553728, "lng": -3.2708523}, "viewport": {"northeast": {"lat": 40.3565817802915, "lng": -3.269787219708499}, "southwest": {"lat": 40.3538838197085, "lng": -3.272485180291502}}}, "icon": "https://maps.gstatic.com/mapfiles/place_api/icons/v1/png_71/park-71.png", "icon_background_color": "#4DB546", "icon_mask_base_uri": "https://maps.gstatic.com/mapfiles/place_api/icons/v2/tree_pinlet", "name": "la Plazuela Park", "opening_hours": {"open_now": true}, "place_id": "ChIJOyhQGTRFQg0RRpJxAkH9lBs", "plus_code": {"compound_code": "9P4H+4M Nuevo Baztán, Spain", "global_code": "8CGR9P4H+4M"}, "reference": "ChIJOyhQGTRFQg0RRpJxAkH9lBs", "scope": "GOOGLE", "types": ["park", "point_of_interest", "establishment"], "vicinity": "Calle Posada de Castilla I, 53, Nuevo Baztán"}, {"business_status": "OPERATIONAL", "geometry": {"location": {"lat": 40.35453709999999, "lng": -3.2703293}, "viewport": {"northeast": {"lat": 40.3559468802915, "lng": -3.268989719708498}, "southwest": {"lat": 40.35324891970851, "lng": -3.271687680291501}}}, "icon": "https://maps.gstatic.com/mapfiles/place_api/icons/v1/png_71/park-71.png", "icon_background_color": "#4DB546", "icon_mask_base_uri": "https://maps.gstatic.com/mapfiles/place_api/icons/v2/tree_pinlet", "name": "el Arroyo Park", "opening_hours": {"open_now": true}, "place_id": "ChIJKxPKfEVFQg0RhPr92C2InSg", "plus_code": {"compound_code": "9P3H+RV Nuevo Baztán, Spain", "global_code": "8CGR9P3H+RV"}, "reference": "ChIJKxPKfEVFQg0RhPr92C2InSg", "scope": "GOOGLE", "types": ["park", "point_of_interest", "establishment"], "vicinity": "Calle C13, 18, Nuevo Baztán"}, {"business_status": "OPERATIONAL", "geometry": {"location": {"lat": 40.3671882, "lng": -3.267632}, "viewport": {"northeast": {"lat": 40.3686996302915, "lng": -3.266176719708498}, "southwest": {"lat": 40.36600166970851, "lng": -3.268874680291502}}}, "icon": "https://maps.gstatic.com/mapfiles/place_api/icons/v1/png_71/park-71.png", "icon_background_color": "#4DB546", "icon_mask_base_uri": "https://maps.gstatic.com/mapfiles/place_api/icons/v2/tree_pinlet", "name": "Villas Park", "photos": [{"height": 4032, "html_attributions": ["<a href=\"https://maps.google.com/maps/contrib/101386635244748804017\">Inma Pert</a>"], "photo_reference": "AWn5SU5NSsAf3vpbyy2_RS2sLqFu48xwJkonoKfeYKGoZSvATlViIraQp4a_hdv4EUTVsfRNRB7WLsreJwwiuso1769s8Hd8vUcDc4d3ablibvx6cGgA-mFp4bmW5io1EDwXL6apAVOiJiTb_RNkosimnxVWnJWvBlOdmtgH37a04uxGuJXnaSIRkL1XZXrPMyLm3_2vBccLM5DYVuyZnw6gCWiFrhF-83_3h-oUwCZTcvzaHkoaq_mRMYNQcMefq_s8dwTawvH-8NmkJ4fvLjgOz9FhEn-w-x4hCtJXeeXaZH4GfVUDsSSyrddtvl4ZX6DhFR2rzYtPZX-lsrFnp2g1MekkZ_NsjE_yinkF4_JYMomozq0bh3m3h11GUZPHqUqCK0t9ZHvQ-_Iji7F_Ys5VjfSXCBL3JBvkkfJTEaWbrinZdYOxhoq57cIflUeEVOqUPp0VmNGCKu0rMhrtMDDWIOdOCkMtVadxcSojZdgmj9w5HHJpd9t_WznBygVOEz_1c3VVBVgCLrvc9RFwVyK0__MDYRlZwfAgU43TIWM6GEXW_0BR-GkakMGfXyvo-Sb8JMrWyL2C97zf8lCE5U1nNOfXCfc-LplaQCHOMbectlIxO8agP106DbhDa_ip5ymvS-Xe4Q", "width": 3024}], "place_id": "ChIJB_OeZ9xFQg0RXtnFVx2-yTQ", "plus_code": {"compound_code": "9P8J+VW Nuevo Baztán, Spain", "global_code": "8CGR9P8J+VW"}, "rating": 2.7, "reference": "ChIJB_OeZ9xFQg0RXtnFVx2-yTQ", "scope": "GOOGLE", "types": ["park", "point_of_interest", "establishment"], "user_ratings_total": 11, "vicinity": "Calle Villalba, 4, Nuevo Baztán"}]