[{"business_status": "OPERATIONAL", "geometry": {"location": {"lat": 40.5771518, "lng": -4.0044927}, "viewport": {"northeast": {"lat": 40.5785405302915, "lng": -4.003218669708498}, "southwest": {"lat": 40.57584256970851, "lng": -4.005916630291503}}}, "icon": "https://maps.gstatic.com/mapfiles/place_api/icons/v1/png_71/bank-71.png", "icon_background_color": "#909CE1", "icon_mask_base_uri": "https://maps.gstatic.com/mapfiles/place_api/icons/v2/bank-intl_pinlet", "international_phone_number": "+34 918 58 00 21", "name": "BBVA", "opening_hours": {"open_now": false}, "photos": [{"height": 720, "html_attributions": ["<a href=\"https://maps.google.com/maps/contrib/108330438163501704246\">BBVA</a>"], "photo_reference": "AWn5SU76ESUJ58b0Ufft93e1Xt5d-dXv_-V3c5RHa3ko0bf9--Tg_kMTNwLlWCr8PmAi-OrclJiMfVzkfSYnMKYjcRxtUtD9hAiJ9ZJpbwb8JAXqBUzPQxX9oZYyrg_44WcxWUyPfkUr0Pg5xDZ5X1jOdAT9DRpgYLbg8Ysocg9mM0qVLqMl0dSMJbGiq4_FQ-8dYqr3lF-qaIcn-VYCd908v5oxdleHsWgt5Jp2ZJjrg6LEOjU16VHjNq-sjSeOiwTGRSJDyNeKmNy9KMWsX7_KhnTztMtyfqb2fHxBOhzgzF4capOniNdb5bnjHZ-Sd4GkNRyJZSSw", "width": 1280}], "place_id": "ChIJK4Mque11QQ0Rp5PfH7JuRL4", "plus_code": {"compound_code": "HXGW+V6 Galapagar, Spain", "global_code": "8CGQHXGW+V6"}, "rating": 4.4, "reference": "ChIJK4Mque11QQ0Rp5PfH7JuRL4", "scope": "GOOGLE", "types": ["bank", "atm", "accounting", "finance", "point_of_interest", "establishment"], "user_ratings_total": 247, "vicinity": "Calle Concejo, 14, Galapagar"}, {"business_status": "OPERATIONAL", "geometry": {"location": {"lat": 40.5608339, "lng": -4.0179277}, "viewport": {"northeast": {"lat": 40.5621855802915, "lng": -4.016516869708497}, "southwest": {"lat": 40.5594876197085, "lng": -4.019214830291501}}}, "icon": "https://maps.gstatic.com/mapfiles/place_api/icons/v1/png_71/bank-71.png", "icon_background_color": "#909CE1", "icon_mask_base_uri": "https://maps.gstatic.com/mapfiles/place_api/icons/v2/bank-intl_pinlet", "international_phone_number": "+34 913 70 39 97", "name": "Banco Santander Agentes", "opening_hours": {"open_now": false}, "photos": [{"height": 720, "html_attributions": ["<a href=\"https://maps.google.com/maps/contrib/110612117755026710158\">Banco Santander Agentes</a>"], "photo_reference": "AWn5SU5B4e6U91e-2XF_RZa7UbV98STGzbw8MhPW4riCmlN4fCq7nioA4wS9EK0hjisO4RIKiNDwGPQywoyR0psc8M-tPTLyzIKheUmpPQcSk4bCkry2e_HwiKGHnsMnauxRMmzm2IXJcgU6_A80dZNUSOzgrh2h8KB23rkvkOok7cSQcvXKHcNaJ0Vp0b0rDkKRVL2PvXKlfxQqWa8FtltiNTklF_S67s4CVCkY1xrJxKeenFOia9iTL1d1uMkPfICIU3qPtCA5ocCWOX9GSgn2del68ccb6IxyBtPZ5B5nGHWGKfOrKjYQdrA6-Nx9obFDEPZflA3P-sg", "width": 1280}], "place_id": "ChIJn7rQsCieQQ0REZ7LpEzziPE", "plus_code": {"compound_code": "HX6J+8R Colmenarejo, Spain", "global_code": "8CGQHX6J+8R"}, "rating": 3.7, "reference": "ChIJn7rQsCieQQ0REZ7LpEzziPE", "scope": "GOOGLE", "types": ["bank", "atm", "finance", "point_of_interest", "establishment"], "user_ratings_total": 26, "vicinity": "Carretera de Valdemorillo, 24, Colmenarejo"}, {"business_status": "OPERATIONAL", "geometry": {"location": {"lat": 40.5773331, "lng": -4.004699599999999}, "viewport": {"northeast": {"lat": 40.5787235302915, "lng": -4.003277769708498}, "southwest": {"lat": 40.5760255697085, "lng": -4.005975730291502}}}, "icon": "https://maps.gstatic.com/mapfiles/place_api/icons/v1/png_71/bank-71.png", "icon_background_color": "#909CE1", "icon_mask_base_uri": "https://maps.gstatic.com/mapfiles/place_api/icons/v2/bank-intl_pinlet", "international_phone_number": "+34 918 58 69 44", "name": "Ibercaja Banco", "opening_hours": {"open_now": false}, "photos": [{"height": 900, "html_attributions": ["<a href=\"https://maps.google.com/maps/contrib/108272074620587139228\">Ibercaja Banco</a>"], "photo_reference": "AWn5SU49cmIccbgCGodX98KejEdCbam5yxamgs8WTr2u4QxAl73Sv4qOTNu1PWjZ6LrqzkRRdHf0Y_x9pAVNtco52orrVKuk4Y9oqJH-qejkcet8z9SfRNPw6Zo3pn5cbwUM6TMUHpHCXJetR3YF7mxn9-wvokqJNg5npxD64qhAzrRc-ek4QySFBHufofnDhZsvv8FqbsdHlL-noH3OaZvTr5QfhU_KBJcVX_MDi_fAjiEmKWSzTkSZR2UeV3nh3Nmv7BrQeD6yEkq---VV3gOrTNxpD-f0YyDtxaiCJMixl5bIOFyk7rAWyYYXhhdqwkWN1j-a67Fn20o", "width": 1600}], "place_id": "ChIJu27_nu11QQ0RMvlh7ESDFRI", "plus_code": {"compound_code": "HXGW+W4 Galapagar, Spain", "global_code": "8CGQHXGW+W4"}, "rating": 1.9, "reference": "ChIJu27_nu11QQ0RMvlh7ESDFRI", "scope": "GOOGLE", "types": ["bank", "atm", "accounting", "finance", "point_of_interest", "establishment"], "user_ratings_total": 10, "vicinity": "Calle del Caño, 16, Galapagar"}, {"business_status": "OPERATIONAL", "geometry": {"location": {"lat": 40.5770562, "lng": -4.003941999999999}, "viewport": {"northeast": {"lat": 40.5784853802915, "lng": -4.002620769708497}, "southwest": {"lat": 40.5757874197085, "lng": -4.005318730291502}}}, "icon": "https://maps.gstatic.com/mapfiles/place_api/icons/v1/png_71/atm-71.png", "icon_background_color": "#909CE1", "icon_mask_base_uri": "https://maps.gstatic.com/mapfiles/place_api/icons/v2/atm_pinlet", "international_phone_number": "+34 900 404 090", "name": "ATM CaixaBank - Cajero", "opening_hours": {"open_now": true}, "photos": [{"height": 681, "html_attributions": ["<a href=\"https://maps.google.com/maps/contrib/106812657241459475408\">ATM CaixaBank - Cajero</a>"], "photo_reference": "AWn5SU4tKgr3KFAK4TDeknvJ-Wtsq5ksbxi3FMX5YQIjq_hg-IiDZTqSIJ9N4V5G4ZIh3Chquc4QmVdYQDZFPWw3uQW4kPvY1rBcGxOIf3gAwQvpgYWpUzaCWBIU6rW6dSk5ZglXHgngdsPeiA4kCTUsOkkM1IpPX2eQLinWiBmYHzjCiY6l5M4Qvfvy9cL_g759R2O4zEisxRjVqTxUMgf9aNHFCiiHD-TKhFgMowYHNIZLdqRXb_UgAMgz7Wj3UG8a-I8KuLzHONNRm0xDo2F2DZOIpeD8BSeeDY5wqH3zgPRUccGSP7CCY0MZtIADYFtYqR_QK3619DI", "width": 1024}], "place_id": "ChIJ24E7mJB1QQ0RJv3i24o2bbo", "plus_code": {"compound_code": "HXGW+RC Galapagar, Spain", "global_code": "8CGQHXGW+RC"}, "reference": "ChIJ24E7mJB1QQ0RJv3i24o2bbo", "scope": "GOOGLE", "types": ["atm", "finance", "point_of_interest", "establishment"], "vicinity": "Calle Concejo, 1, Galapagar"}, {"business_status": "OPERATIONAL", "geometry": {"location": {"lat": 40.57648359999999, "lng": -4.0033967}, "viewport": {"northeast": {"lat": 40.5778193802915, "lng": -4.002061269708498}, "southwest": {"lat": 40.5751214197085, "lng": -4.004759230291502}}}, "icon": "https://maps.gstatic.com/mapfiles/place_api/icons/v1/png_71/bank-71.png", "icon_background_color": "#909CE1", "icon_mask_base_uri": "https://maps.gstatic.com/mapfiles/place_api/icons/v2/bank-intl_pinlet", "international_phone_number": "+34 918 58 17 11", "name": "Banco Santander - Smart Red", "opening_hours": {"open_now": false}, "photos": [{"height": 720, "html_attributions": ["<a href=\"https://maps.google.com/maps/contrib/109023926956078955465\">Banco Santander - Smart Red</a>"], "photo_reference": "AWn5SU6Kg_PvmwEaZooxxx_dpYuk12RmFtNivXHd3N2gCitXjF_PAljYdxjei16bZ7xD8p9k_5WH-n_vPyw2NtiUCIJ9oZ1HPu7nXQnxhobxPoy0ml9BsavqUaiprXU_pShfIahEPdmn6JFkw79nwU6LWtcQlVDaT32B2OEDCDS0e0pBs8MTI52Vh5K6MxPbeKDqfyPi_FqxxpHzLlHoytLbUJr9-4fyaPcihLCAX5-IpbkAXPsXH7TLbShVvSSrnhYSh69wI_-7IyjgBLY5AIaYZfhntSFNrHwrC6MCBO9Urh2zlJ-NBuhhsvsAQnteWfvQC02DOkXBGzk", "width": 1280}], "place_id": "ChIJf9CL4u11QQ0RlOzp1eMWeqQ", "plus_code": {"compound_code": "HXGW+HJ Galapagar, Spain", "global_code": "8CGQHXGW+HJ"}, "rating": 2.4, "reference": "ChIJf9CL4u11QQ0RlOzp1eMWeqQ", "scope": "GOOGLE", "types": ["bank", "atm", "finance", "point_of_interest", "establishment"], "user_ratings_total": 45, "vicinity": "Plaza De La Maja, S-N, Galapagar"}, {"business_status": "CLOSED_TEMPORARILY", "geometry": {"location": {"lat": 40.5756366, "lng": -4.003191999999999}, "viewport": {"northeast": {"lat": 40.5770521302915, "lng": -4.001849069708498}, "southwest": {"lat": 40.5743541697085, "lng": -4.004547030291502}}}, "icon": "https://maps.gstatic.com/mapfiles/place_api/icons/v1/png_71/generic_business-71.png", "icon_background_color": "#7B9EB0", "icon_mask_base_uri": "https://maps.gstatic.com/mapfiles/place_api/icons/v2/generic_pinlet", "name": "Eurocaja Rural", "permanently_closed": true, "place_id": "ChIJO1HFpC91QQ0RBTNYZ5qHoS0", "plus_code": {"compound_code": "HXGW+7P Galapagar, Spain", "global_code": "8CGQHXGW+7P"}, "rating": 3.5, "reference": "ChIJO1HFpC91QQ0RBTNYZ5qHoS0", "scope": "GOOGLE", "types": ["bank", "atm", "finance", "point_of_interest", "establishment"], "user_ratings_total": 8, "vicinity": "Calle Soberanía, 15, Galapagar"}, {"business_status": "OPERATIONAL", "geometry": {"location": {"lat": 40.58349119999999, "lng": -3.996847899999999}, "viewport": {"northeast": {"lat": 40.58481003029149, "lng": -3.995463019708497}, "southwest": {"lat": 40.58211206970849, "lng": -3.998160980291502}}}, "icon": "https://maps.gstatic.com/mapfiles/place_api/icons/v1/png_71/atm-71.png", "icon_background_color": "#909CE1", "icon_mask_base_uri": "https://maps.gstatic.com/mapfiles/place_api/icons/v2/atm_pinlet", "international_phone_number": "+34 902 32 30 00", "name": "Cajero Banco Sabadell", "opening_hours": {"open_now": true}, "photos": [{"height": 900, "html_attributions": ["<a href=\"https://maps.google.com/maps/contrib/105251926115065758648\">Cajero Banco Sabadell</a>"], "photo_reference": "AWn5SU5eEGK_dJ6lRSvaJaaFyeiRZZwFx9nha8vWpQRyaCunMoDxpiWxIBcILQC6-lFAgPWyte59qTGC9TZsFOPLWYfQ2oW7jfhn3d1b3zIOBjG9k5Gf3alpq3uKQF6Iq3QatTwoHLGl4o5d-LeMrLDuHXn468pHWEOxWJyd684DkDNJzybrx6YYpEnFvMoM6TwfPfGDUXVhenOVUDpCjuEl-1mzyxbwJ_yJekpUQboYxpiR3YIb0VyTFolQiwRyjwwb0VxPH9Tce9kNkH-RM_Ts56W5V7jU04EO3FIz21EUzbwUI6EJmUovbLYr-dyRSfDQhYiVn0BkZ-0", "width": 1600}], "place_id": "ChIJ3_jWUq51QQ0R0qesUaYU26Q", "plus_code": {"compound_code": "H2M3+97 Galapagar, Spain", "global_code": "8CGRH2M3+97"}, "rating": 3.6, "reference": "ChIJ3_jWUq51QQ0R0qesUaYU26Q", "scope": "GOOGLE", "types": ["atm", "finance", "point_of_interest", "establishment"], "user_ratings_total": 5, "vicinity": "Avenida de las Víctimas del Terrorismo, S/N, Galapagar"}, {"business_status": "OPERATIONAL", "geometry": {"location": {"lat": 40.5588085, "lng": -4.0168031}, "viewport": {"northeast": {"lat": 40.5601660302915, "lng": -4.015498619708498}, "southwest": {"lat": 40.5574680697085, "lng": -4.018196580291503}}}, "icon": "https://maps.gstatic.com/mapfiles/place_api/icons/v1/png_71/atm-71.png", "icon_background_color": "#909CE1", "icon_mask_base_uri": "https://maps.gstatic.com/mapfiles/place_api/icons/v2/atm_pinlet", "international_phone_number": "+34 900 404 090", "name": "ATM CaixaBank - Cajero", "opening_hours": {"open_now": true}, "photos": [{"height": 681, "html_attributions": ["<a href=\"https://maps.google.com/maps/contrib/115938715081311367833\">ATM CaixaBank - Cajero</a>"], "photo_reference": "AWn5SU6FqKGrpw3g3K8ZHSPHgBV6Ns76dD5GMBR2tJ9-FurelmNX6vd_ym1e6Mqm-NNEDAePInj0Arl9GnhzgLAgIYai4RBNQJcBlsfEo9H5JC80LiLZ5h-KXwlt4A3gJ87Fso6XLUVdLKZQliGlFIIL6U2Dx5_pXHAzM7dEX323B836uwoWDxTRtIQtHaKlPaa_mwyNXKKQahu6Fkbwe-NeAYmgFtsa-vN3CitWCHMocGgNpX1qbzxuORhy_b6bsKOiQhXGsgp6SA-jskBE4ku_4utCz5R_FDVPKVPuPVFN-FymGirB00rdfGNuyxP98QmaOgAXbEkoaiQ", "width": 1024}], "place_id": "ChIJWaTr_N-fQQ0RzpjUEKo2QZM", "plus_code": {"compound_code": "HX5M+G7 Colmenarejo, Spain", "global_code": "8CGQHX5M+G7"}, "reference": "ChIJWaTr_N-fQQ0RzpjUEKo2QZM", "scope": "GOOGLE", "types": ["atm", "finance", "point_of_interest", "establishment"], "vicinity": "C/v, C. Porvenir, Travesía Praofuentes, Colmenarejo"}]