[{"business_status": "OPERATIONAL", "geometry": {"location": {"lat": 40.2007115, "lng": -3.800748899999999}, "viewport": {"northeast": {"lat": 40.2021091302915, "lng": -3.799385469708497}, "southwest": {"lat": 40.1994111697085, "lng": -3.802083430291502}}}, "icon": "https://maps.gstatic.com/mapfiles/place_api/icons/v1/png_71/shopping-71.png", "icon_background_color": "#4B96F3", "icon_mask_base_uri": "https://maps.gstatic.com/mapfiles/place_api/icons/v2/shoppingcart_pinlet", "international_phone_number": "+34 912 17 04 53", "name": "Supermercados Dia", "opening_hours": {"open_now": false}, "photos": [{"height": 657, "html_attributions": ["<a href=\"https://maps.google.com/maps/contrib/107172404367619539866\">Supermercados Dia</a>"], "photo_reference": "AWn5SU6R1vYno4ggpZgEep5RFRQhMh7gOu87s1Ic2y9Oi8QAjNV5PeedrbkpMFMkAF7Hxk6LwZiK2X0chnf4GWxXwxnaAa5vYiUIwrWUOAXZpFubUKnRYKUBeC8089GJ-SV6jPhvqyiqBLX8NMM0OTC0zsQVLZOlZ6iET4_pAybDdzFTghpkvojrNbpjDGs9HAQaHbhovPkP5V9mbdhZ3wV8StCYCRCUBcUaJqNogl1gk5H2Flrtykz26P8QAysf37vteXE0IhIzKPlmk_Q4HLkiZ1gwQ68TfRlJZ6YI4GGzHHrK2mwzAUJLpAEm2X9KnfjqODyW3MlnMu0", "width": 509}], "place_id": "ChIJJ1i9n170QQ0R8Ep_NyVyQAQ", "plus_code": {"compound_code": "652X+7P Torrejón de la Calzada, Spain", "global_code": "8CGR652X+7P"}, "rating": 4, "reference": "ChIJJ1i9n170QQ0R8Ep_NyVyQAQ", "scope": "GOOGLE", "types": ["supermarket", "convenience_store", "grocery_or_supermarket", "bakery", "store", "point_of_interest", "food", "establishment"], "user_ratings_total": 272, "vicinity": "Calle Griñón, 3, Torrejón de la Calzada"}, {"business_status": "OPERATIONAL", "geometry": {"location": {"lat": 40.1535926, "lng": -3.8283921}, "viewport": {"northeast": {"lat": 40.15501678029149, "lng": -3.826983919708498}, "southwest": {"lat": 40.1523188197085, "lng": -3.829681880291503}}}, "icon": "https://maps.gstatic.com/mapfiles/place_api/icons/v1/png_71/shopping-71.png", "icon_background_color": "#4B96F3", "icon_mask_base_uri": "https://maps.gstatic.com/mapfiles/place_api/icons/v2/convenience_pinlet", "name": "Bazar Alimentación", "opening_hours": {"open_now": false}, "photos": [{"height": 748, "html_attributions": ["<a href=\"https://maps.google.com/maps/contrib/117643386465571006039\">bq Cai</a>"], "photo_reference": "AWn5SU683eN3BHYyPDsIDnLTWg63_jkNdW01Y8JmoR1fEd9O0moAhXHzfdk1pj-ykWqnToYuAZWY8Zt_ALNFkXSR3XRtdYcedHKqhcvqVvAeSd_Cxy8ogoysBXLyF_VKw8R5-Geb1M0eJiaJ3Jux8Q_q2Y1nVNABV2HzK5qjTmGsjmnGfprKQ47vWnzS_qjkT-GobKXcfAhv3uJ2HD8Aw50iDTm_9Q7XZhaj4nFV5LkpwbiI_J_T0X-1S4De9VxNUw5Bb81XxL0FDM0iEJDFi-kQk_0hWGIKgBeAy5xII5bIuCF0F3lL3bZk-CZrs7iW5mwYt2s7xa2m1undmg2LIUVeL0NWvM5Dhpb75PxA-x_VRRlM5xGrkVP5AWXjp1xqsZSN2KAM13l6_wPUCCwMCxA9wZar2l3WyAAdAkzkJ0oa0U9Ze6D_8uGM9hHpmMlMCaI2UpNRCzGy0O-DMbCl0QJPQ0ixsZDLurvnVG2e2j3-U53cutJLjfhuZfSmYVC_PW-sk8tVSLpEpmxW71QQb1FuNJnRaHewKUuB3pbR9raFP8LjBRNlWGpQexMzC6GRwZaH8l73kAUWK9bpDWFC2thDF0nXGJVNibu7GjwW1Lx82dn-QOsyYiHonXkdphWCFX2CIPrsjw", "width": 1068}], "place_id": "ChIJo6nHi03xQQ0RsHhoIagHVqI", "plus_code": {"compound_code": "553C+CJ Illescas, Spain", "global_code": "8CGR553C+CJ"}, "rating": 5, "reference": "ChIJo6nHi03xQQ0RsHhoIagHVqI", "scope": "GOOGLE", "types": ["convenience_store", "store", "point_of_interest", "food", "establishment"], "user_ratings_total": 1, "vicinity": "Avenida Santa Clara, Illescas"}, {"business_status": "OPERATIONAL", "geometry": {"location": {"lat": 40.1504538, "lng": -3.8350737}, "viewport": {"northeast": {"lat": 40.1517591302915, "lng": -3.833768619708498}, "southwest": {"lat": 40.1490611697085, "lng": -3.836466580291503}}}, "icon": "https://maps.gstatic.com/mapfiles/place_api/icons/v1/png_71/shopping-71.png", "icon_background_color": "#4B96F3", "icon_mask_base_uri": "https://maps.gstatic.com/mapfiles/place_api/icons/v2/convenience_pinlet", "name": "Tienda de Alimentación", "opening_hours": {"open_now": false}, "place_id": "ChIJkcrQh0XxQQ0RdQshgg7GgZQ", "plus_code": {"compound_code": "5527+5X Illescas, Spain", "global_code": "8CGR5527+5X"}, "rating": 4.1, "reference": "ChIJkcrQh0XxQQ0RdQshgg7GgZQ", "scope": "GOOGLE", "types": ["convenience_store", "store", "point_of_interest", "food", "establishment"], "user_ratings_total": 7, "vicinity": "Calle Ernesto Sábato, Illescas"}, {"business_status": "CLOSED_TEMPORARILY", "geometry": {"location": {"lat": 40.1449276, "lng": -3.8201752}, "viewport": {"northeast": {"lat": 40.1461699802915, "lng": -3.818447819708498}, "southwest": {"lat": 40.1434720197085, "lng": -3.821145780291503}}}, "icon": "https://maps.gstatic.com/mapfiles/place_api/icons/v1/png_71/shopping-71.png", "icon_background_color": "#4B96F3", "icon_mask_base_uri": "https://maps.gstatic.com/mapfiles/place_api/icons/v2/convenience_pinlet", "name": "Bebidas El Señorío", "permanently_closed": true, "place_id": "ChIJ0dlbFi33QQ0RUpa0AVTqxsA", "plus_code": {"compound_code": "45VH+XW Illescas, Spain", "global_code": "8CGR45VH+XW"}, "reference": "ChIJ0dlbFi33QQ0RUpa0AVTqxsA", "scope": "GOOGLE", "types": ["convenience_store", "store", "point_of_interest", "food", "establishment"], "vicinity": "Poligono Industrial Carcavas II, 2001P, Illescas"}, {"business_status": "OPERATIONAL", "geometry": {"location": {"lat": 40.2009568, "lng": -3.8563364}, "viewport": {"northeast": {"lat": 40.2027091302915, "lng": -3.855166319708498}, "southwest": {"lat": 40.2000111697085, "lng": -3.857864280291503}}}, "icon": "https://maps.gstatic.com/mapfiles/place_api/icons/v1/png_71/shopping-71.png", "icon_background_color": "#4B96F3", "icon_mask_base_uri": "https://maps.gstatic.com/mapfiles/place_api/icons/v2/shopping_pinlet", "international_phone_number": "+34 636 37 28 10", "name": "MaskMundo", "place_id": "ChIJ6bZY6t7zQQ0RpXORYdqIQsk", "plus_code": {"compound_code": "642V+9F Griñón, Spain", "global_code": "8CGR642V+9F"}, "reference": "ChIJ6bZY6t7zQQ0RpXORYdqIQsk", "scope": "GOOGLE", "types": ["pharmacy", "convenience_store", "store", "health", "point_of_interest", "food", "establishment"], "vicinity": "Calle Orión, 22, Griñón"}, {"business_status": "OPERATIONAL", "geometry": {"location": {"lat": 40.1602113, "lng": -3.878902999999999}, "viewport": {"northeast": {"lat": 40.1615076802915, "lng": -3.877464019708498}, "southwest": {"lat": 40.1588097197085, "lng": -3.880161980291502}}}, "icon": "https://maps.gstatic.com/mapfiles/place_api/icons/v1/png_71/shopping-71.png", "icon_background_color": "#4B96F3", "icon_mask_base_uri": "https://maps.gstatic.com/mapfiles/place_api/icons/v2/convenience_pinlet", "international_phone_number": "+34 925 75 88 67", "name": "Tienda Proxim", "opening_hours": {"open_now": false}, "photos": [{"height": 1015, "html_attributions": ["<a href=\"https://maps.google.com/maps/contrib/118252679439787639345\">Natalia Sanchez tapiador</a>"], "photo_reference": "AWn5SU7h___9t2C4xvQ1owD1Ijah0WwFkoX4xPFlfcIky8lsEXZQi9BA8357wdp-DySKL0SX2omYPTEy_zc9LkbdVzQobI2v_yQkcU5KFKgmHyC-UaHmTvMiddwWK7KVpPGE9a2ATgFkxoFJJTWgFDbOriCQ06b90wgnORZEx-evlNFg9WU4Cje0SyA_stLPjhb_afrMvRuqFz31lJmJ0v_KscrwzQSti-YDe5Vw1TH53IuMGblvXqvVGhs39wFENBvgBZIZgtRR3X-NCXtIjSBi1quLvUtWMvfGbBt6l0wRcnrtzFcKUYDnuu69Ly5LUvj8o0sxozgrPyajpxIUxzrvJ3azJDF4EQOo887YuxVho2hwmUQDH-CamLTV_SY-UvjtyibP-SprpHY9KlSf8zOsRwQmv22rpuRJIw-xXnX4PtVQjLLTLp_vBltClVd-VWBnE8aaBF79pjWJ-kMdFIin-w3mWMSjgVUCD2HVhrvXZxQ_AYkxZkW8clStLTwojBm-waZc9E1El2PFuA_Ra-mtf6kLgmyA3At4_mvsaHIU9UPX1e8fdHa3BULizCsi962huWZUmr6DuMJE8FIuFJJuvgg-uFcp33aiX5CetVA0h4LCb_CJgsq17IRiXN_M4Q_3", "width": 831}], "place_id": "ChIJDVYzeNjxQQ0RhHVaQ2vC5iU", "plus_code": {"compound_code": "546C+3C Ugena, Spain", "global_code": "8CGR546C+3C"}, "rating": 4.2, "reference": "ChIJDVYzeNjxQQ0RhHVaQ2vC5iU", "scope": "GOOGLE", "types": ["convenience_store", "store", "point_of_interest", "food", "establishment"], "user_ratings_total": 10, "vicinity": "Avenida Miguel de Cervantes, 6, Ugena"}, {"business_status": "OPERATIONAL", "geometry": {"location": {"lat": 40.2010265, "lng": -3.8009996}, "viewport": {"northeast": {"lat": 40.2023019802915, "lng": -3.799674419708498}, "southwest": {"lat": 40.1996040197085, "lng": -3.802372380291502}}}, "icon": "https://maps.gstatic.com/mapfiles/place_api/icons/v1/png_71/shopping-71.png", "icon_background_color": "#4B96F3", "icon_mask_base_uri": "https://maps.gstatic.com/mapfiles/place_api/icons/v2/convenience_pinlet", "name": "Alimentación y Bazar", "place_id": "ChIJswHGRAD1QQ0R5RYjfOT42dg", "plus_code": {"compound_code": "652X+CJ Torrejón de la Calzada, Spain", "global_code": "8CGR652X+CJ"}, "reference": "ChIJswHGRAD1QQ0R5RYjfOT42dg", "scope": "GOOGLE", "types": ["convenience_store", "store", "point_of_interest", "food", "establishment"], "vicinity": "Calle Griñón, 4, Torrejón de la Calzada"}, {"business_status": "OPERATIONAL", "geometry": {"location": {"lat": 40.200418, "lng": -3.7994366}, "viewport": {"northeast": {"lat": 40.2017916302915, "lng": -3.798076369708498}, "southwest": {"lat": 40.1990936697085, "lng": -3.800774330291502}}}, "icon": "https://maps.gstatic.com/mapfiles/place_api/icons/v1/png_71/shopping-71.png", "icon_background_color": "#4B96F3", "icon_mask_base_uri": "https://maps.gstatic.com/mapfiles/place_api/icons/v2/convenience_pinlet", "name": "Alimentación y Bazar", "place_id": "ChIJIZnhNwD1QQ0Rju-oKCmvwIk", "plus_code": {"compound_code": "6622+56 Torrejón de la Calzada, Spain", "global_code": "8CGR6622+56"}, "reference": "ChIJIZnhNwD1QQ0Rju-oKCmvwIk", "scope": "GOOGLE", "types": ["convenience_store", "store", "point_of_interest", "food", "establishment"], "vicinity": "Calle de 12 de Octubre, 6, Torrejón de la Calzada"}, {"business_status": "OPERATIONAL", "geometry": {"location": {"lat": 40.20227070000001, "lng": -3.7999427}, "viewport": {"northeast": {"lat": 40.20363363029151, "lng": -3.798586369708497}, "southwest": {"lat": 40.20093566970851, "lng": -3.801284330291502}}}, "icon": "https://maps.gstatic.com/mapfiles/place_api/icons/v1/png_71/shopping-71.png", "icon_background_color": "#4B96F3", "icon_mask_base_uri": "https://maps.gstatic.com/mapfiles/place_api/icons/v2/convenience_pinlet", "name": "SUPER HAO", "place_id": "ChIJD6WPrsL1QQ0RBCBQnS3ZUwI", "plus_code": {"compound_code": "6622+W2 Torrejón de la Calzada, Spain", "global_code": "8CGR6622+W2"}, "rating": 5, "reference": "ChIJD6WPrsL1QQ0RBCBQnS3ZUwI", "scope": "GOOGLE", "types": ["convenience_store", "store", "point_of_interest", "food", "establishment"], "user_ratings_total": 2, "vicinity": "Torrejón de la Calzada"}, {"business_status": "OPERATIONAL", "geometry": {"location": {"lat": 40.1875736, "lng": -3.7779464}, "viewport": {"northeast": {"lat": 40.1889348802915, "lng": -3.776516269708498}, "southwest": {"lat": 40.1862369197085, "lng": -3.779214230291502}}}, "icon": "https://maps.gstatic.com/mapfiles/place_api/icons/v1/png_71/shopping-71.png", "icon_background_color": "#4B96F3", "icon_mask_base_uri": "https://maps.gstatic.com/mapfiles/place_api/icons/v2/shoppingcart_pinlet", "international_phone_number": "+34 912 17 04 53", "name": "Supermercados Dia", "opening_hours": {"open_now": false}, "photos": [{"height": 1959, "html_attributions": ["<a href=\"https://maps.google.com/maps/contrib/114324248765859448058\">Supermercados Dia</a>"], "photo_reference": "AWn5SU7t5RNZk7lOIonS69c5XHZ15hyK9wkEnmNrUL1kke53vqxoN05yBMrJIFw5Vtd5bs5GrGxzbqjEZ68UFahOksCkav0GqeP8mmMzooaClPhGCPv70oOQSI_tX2bB4fulRTTj4cMlia_JsKwsFjqN8-DFGiWeUrX8GUHqFac8N3jBKhvj7Ol5aqVL23FsepaJthSs5sfp-4ACes4l8hEuI50AsZ-L2g2nFN_x70ksP-l7nS_oDLqH3zTFgU6vLweAaMBOn9TlLZWGbfXpTMshDgb4Ai_FlXwvNkltjvD74GyFMTLFqFHgQJuKOH5ePCepytaWpK5Q69w", "width": 1523}], "place_id": "ChIJQ8iDFxL1QQ0RH9VjVNj_3KU", "plus_code": {"compound_code": "56QC+2R Torrejón de Velasco, Spain", "global_code": "8CGR56QC+2R"}, "rating": 3.8, "reference": "ChIJQ8iDFxL1QQ0RH9VjVNj_3KU", "scope": "GOOGLE", "types": ["supermarket", "convenience_store", "grocery_or_supermarket", "bakery", "store", "point_of_interest", "food", "establishment"], "user_ratings_total": 35, "vicinity": "Calle Alcalde Luis Torrejón, 9, Torrejón de Velasco"}, {"business_status": "OPERATIONAL", "geometry": {"location": {"lat": 40.1243298, "lng": -3.845851799999999}, "viewport": {"northeast": {"lat": 40.1256766802915, "lng": -3.844412619708496}, "southwest": {"lat": 40.1229787197085, "lng": -3.847110580291501}}}, "icon": "https://maps.gstatic.com/mapfiles/place_api/icons/v1/png_71/shopping-71.png", "icon_background_color": "#4B96F3", "icon_mask_base_uri": "https://maps.gstatic.com/mapfiles/place_api/icons/v2/convenience_pinlet", "name": "Panaderia Pasteleria Marlía y Lua", "place_id": "ChIJQ_AxkB_xQQ0RMbmhwP1voyU", "plus_code": {"compound_code": "45F3+PM Illescas, Spain", "global_code": "8CGR45F3+PM"}, "rating": 2, "reference": "ChIJQ_AxkB_xQQ0RMbmhwP1voyU", "scope": "GOOGLE", "types": ["convenience_store", "store", "point_of_interest", "food", "establishment"], "user_ratings_total": 1, "vicinity": "Avenida Castilla - La Mancha, 57, Illescas"}, {"business_status": "OPERATIONAL", "geometry": {"location": {"lat": 40.1228178, "lng": -3.845842400000001}, "viewport": {"northeast": {"lat": 40.1242501802915, "lng": -3.844521069708499}, "southwest": {"lat": 40.1215522197085, "lng": -3.847219030291503}}}, "icon": "https://maps.gstatic.com/mapfiles/place_api/icons/v1/png_71/shopping-71.png", "icon_background_color": "#4B96F3", "icon_mask_base_uri": "https://maps.gstatic.com/mapfiles/place_api/icons/v2/convenience_pinlet", "name": "Frutería Azahara", "photos": [{"height": 4032, "html_attributions": ["<a href=\"https://maps.google.com/maps/contrib/112174467296481058686\">Murad Sayegh</a>"], "photo_reference": "AWn5SU5zMlUWQtvMh6hd9oWL8M7FxW3JJNLhJJnpkjUqcmJsUOJ58CyXDNISltJNxjyGNNSaki-uHVq11OPDds-gmViGMR6FBsFZ-9Cy8fUbTrG2Lo5VUfMGy48RiTMWVOravMi1GFHjxffUHlrM6EEKKJMlElxRzZrLAHluP_9Z4QcLKKSJ2XvkwqWqpZl4eNS8m8RCeG3trFrltOvGK_oLwMFxGyt1bERuqcEHksFMenc2DZLUAAVZQNGxbgU2F6n2w6RRPdI5h7ed1MAYs1fWfUHG1QmAuzdqPqzP0pXwGS9y0iApnVprZSrH1W6op6NSTe_YhvbrpA8jNB-TBLvTGA2q0wq55yZsQ3WwvjfFVOFHcGKTMV8NO-dXbSnJ-8oeQJRkdp1U2uoasmeNzOht5NazPMe3i_hfNESrxdX_4FDAL1L5_9pa5z4PySpWyaBpU-bG-PMcDrMDB4829SToy1Eax7FuObazdEigkDIrIyd_nWpIr9l6_dlIsOSVMXqo9Lk22hluXh-xxdVn2MGLcAEdZZBFsXU_M0I-HCZIqH4s_jheS3BHrfOLAae5rAEJgaBMnliKmhvqCOPe5sLjb5mjgR4Vnt3p98nZl5cHeaV4sOycVNL8AcJKQrVSv0LaIpQc7A", "width": 3024}], "place_id": "ChIJiyLg_xrxQQ0RnMH21ehwmAk", "plus_code": {"compound_code": "45F3+4M Illescas, Spain", "global_code": "8CGR45F3+4M"}, "rating": 3.3, "reference": "ChIJiyLg_xrxQQ0RnMH21ehwmAk", "scope": "GOOGLE", "types": ["convenience_store", "store", "point_of_interest", "food", "establishment"], "user_ratings_total": 17, "vicinity": "Calle Alameda, 1, Illescas"}, {"business_status": "OPERATIONAL", "geometry": {"location": {"lat": 40.17061760000001, "lng": -3.8994543}, "viewport": {"northeast": {"lat": 40.1719410802915, "lng": -3.898098969708498}, "southwest": {"lat": 40.1692431197085, "lng": -3.900796930291503}}}, "icon": "https://maps.gstatic.com/mapfiles/place_api/icons/v1/png_71/shopping-71.png", "icon_background_color": "#4B96F3", "icon_mask_base_uri": "https://maps.gstatic.com/mapfiles/place_api/icons/v2/convenience_pinlet", "name": "SOLUNA ALIMENTACION", "opening_hours": {"open_now": true}, "place_id": "ChIJB9colgXyQQ0RnSNzXSJcXMU", "plus_code": {"compound_code": "54C2+66 Carranque, Spain", "global_code": "8CGR54C2+66"}, "rating": 5, "reference": "ChIJB9colgXyQQ0RnSNzXSJcXMU", "scope": "GOOGLE", "types": ["convenience_store", "store", "point_of_interest", "food", "establishment"], "user_ratings_total": 3, "vicinity": "Plaza Eras, 22, Carranque"}, {"business_status": "OPERATIONAL", "geometry": {"location": {"lat": 40.1708983, "lng": -3.8999327}, "viewport": {"northeast": {"lat": 40.1722228802915, "lng": -3.898617119708498}, "southwest": {"lat": 40.1695249197085, "lng": -3.901315080291502}}}, "icon": "https://maps.gstatic.com/mapfiles/place_api/icons/v1/png_71/shopping-71.png", "icon_background_color": "#4B96F3", "icon_mask_base_uri": "https://maps.gstatic.com/mapfiles/place_api/icons/v2/convenience_pinlet", "name": "bazar", "place_id": "ChIJyaosv7nzQQ0RbhPyNVYOSUo", "plus_code": {"compound_code": "54C2+92 Carranque, Spain", "global_code": "8CGR54C2+92"}, "rating": 2.6, "reference": "ChIJyaosv7nzQQ0RbhPyNVYOSUo", "scope": "GOOGLE", "types": ["convenience_store", "store", "point_of_interest", "food", "establishment"], "user_ratings_total": 5, "vicinity": "邮政编码:, Calle Norte, Toledo"}, {"business_status": "OPERATIONAL", "geometry": {"location": {"lat": 40.12114740000001, "lng": -3.850389300000001}, "viewport": {"northeast": {"lat": 40.12253018029151, "lng": -3.849109169708498}, "southwest": {"lat": 40.11983221970851, "lng": -3.851807130291502}}}, "icon": "https://maps.gstatic.com/mapfiles/place_api/icons/v1/png_71/shopping-71.png", "icon_background_color": "#4B96F3", "icon_mask_base_uri": "https://maps.gstatic.com/mapfiles/place_api/icons/v2/convenience_pinlet", "international_phone_number": "+34 925 11 05 44", "name": "Alimentación Numancia", "opening_hours": {"open_now": false}, "photos": [{"height": 3024, "html_attributions": ["<a href=\"https://maps.google.com/maps/contrib/103735334997912907992\">Alimentación Numancia</a>"], "photo_reference": "AWn5SU7EJN4EyFj7bCvMG1-lbrWemHs216TslRY_dfV_9t-5Kb-tiGXfbEP7UclIv7OmnC1fSnmeZH3ZYw_bIVvc8wwO8-p_Bci_ze4ki7y-B6VbCnbPQBOlHWtn3r3H7iHzN2lD1a2mK1MUM1-JV1C5mguMr4Y7oDgXaXuFIwha3GEpzfT7eV4aFo_Z5lpgRJp8yzpg6EdoXVS-qkqd1jvynYsng-vRemqa09YX_hjRfe7rOeOL-rUPHp4uwQorgpYo5j8cS7wNpnqIH-ZvQgoDGYHHkj9WEl1U2Z7G2MuKf-LKAGO7FTjUJS3kv1X6EZcqyj336tQB84Y", "width": 4032}], "place_id": "ChIJfyERH-LwQQ0RDv-4n9OK2nc", "plus_code": {"compound_code": "44CX+FR Illescas, Spain", "global_code": "8CGR44CX+FR"}, "rating": 3.8, "reference": "ChIJfyERH-LwQQ0RDv-4n9OK2nc", "scope": "GOOGLE", "types": ["convenience_store", "supermarket", "grocery_or_supermarket", "store", "point_of_interest", "food", "establishment"], "user_ratings_total": 10, "vicinity": "Calle Numancia, 1, Illescas"}, {"business_status": "OPERATIONAL", "geometry": {"location": {"lat": 40.2274308, "lng": -3.8492555}, "viewport": {"northeast": {"lat": 40.22878293029149, "lng": -3.847895969708498}, "southwest": {"lat": 40.2260849697085, "lng": -3.850593930291502}}}, "icon": "https://maps.gstatic.com/mapfiles/place_api/icons/v1/png_71/shopping-71.png", "icon_background_color": "#4B96F3", "icon_mask_base_uri": "https://maps.gstatic.com/mapfiles/place_api/icons/v2/convenience_pinlet", "international_phone_number": "+34 661 29 68 56", "name": "Los tomates de Mario", "opening_hours": {"open_now": false}, "photos": [{"height": 492, "html_attributions": ["<a href=\"https://maps.google.com/maps/contrib/108703706776930608723\">Los tomates de Mario</a>"], "photo_reference": "AWn5SU7KTjwrZHcHz1oqxfnS4JNZkQ2A8BqfHCWSJR__6VhMECuMakrDAPCet8n758uY45QJQLVtmSxnPF_ZzfBWi1CGhPp7yzyM0tPXVJVQ8rr-ZchT5D6Qv-jNJ6Vl6ioHIseIcX7dn50kVqDTvHB7WHcIbSmkbbYjeuMbAqZpVblrgzFtsZmZCe3xeD_IdCBkfbTeXKeOp6FjRddUZYKkqTI0iPu4JxYH6YWXqsqodibIEEi8TUgs4bBQJMDn3Zzz23JAKelZ4HY0upoFQGy8IHpoc_PSYxMw5U23GzBZ7H-4oourLVJhak-6wRMiu35Br930b01r2Hw", "width": 373}], "place_id": "ChIJVYaRm7LzQQ0Rtf-pwj-C0AU", "plus_code": {"compound_code": "65G2+X7 Griñón, Spain", "global_code": "8CGR65G2+X7"}, "rating": 4.2, "reference": "ChIJVYaRm7LzQQ0Rtf-pwj-C0AU", "scope": "GOOGLE", "types": ["convenience_store", "store", "point_of_interest", "food", "establishment"], "user_ratings_total": 5, "vicinity": "Mario Navarro González, Camino a Móstoles, km. 0,9, Griñón"}]