[{"business_status": "OPERATIONAL", "geometry": {"location": {"lat": 40.3411534, "lng": -3.3716971}, "viewport": {"northeast": {"lat": 40.3423913302915, "lng": -3.370304519708498}, "southwest": {"lat": 40.3396933697085, "lng": -3.373002480291502}}}, "icon": "https://maps.gstatic.com/mapfiles/place_api/icons/v1/png_71/generic_business-71.png", "icon_background_color": "#7B9EB0", "icon_mask_base_uri": "https://maps.gstatic.com/mapfiles/place_api/icons/v2/generic_pinlet", "international_phone_number": "+34 918 74 12 21", "name": "Polideportivo Municipal De Campo Real", "opening_hours": {"open_now": false}, "photos": [{"height": 2016, "html_attributions": ["<a href=\"https://maps.google.com/maps/contrib/112288215903616805177\">Adrián Chana</a>"], "photo_reference": "AWn5SU6WDc9L27NonKbslB9ksRixAJcltAC9rNEd4mu5eyj3Vx7ooqw9n75VJB2sHbvnX45NbloviDNk956NV_krNFC-4JXN7y5xGXWhF_gU39pXiDJ5SgcTR5bZuG9OB4SXcDJxfmU2iatBCmkIDg14oMhccuC2SFTARdOZdaix9_RnCUTx55wM3xwn_Av5cHMsrqjVhaePmAjXypC6t0V6Kmrhko12pW6dT2_AnUzVhvbI4VLnEd0GQMwy2m8wgTP_tSuxdYoO2mtael2HcipSxF6IEtvRP_4PNKThWR22q589q-b725e_zbnv-1JQmQ7r2K-53BdR01b604xILX8Hqg_7c5pz_dWsLbVijY9blrwOKNWnOBwm5fv2z7AHeLWi8xOAEUaCvBIcLac06UqeAHedJyTInuEitoOtOmuSqjmB1hY0IRB5gj7KgfKBnhciYq3MkjsfrmihiAEG6JdY5_NF6xv7GE8U1TQ5naj3ncA4Y9Rc-_a641iEQEX_-rLw-T5arq0JNPX7wpjPwffdpK7Q6NwTm7mmigst5AGGHBbLqsvoac_HFX5kgdSgVkg1Kz2-JfhugWWIMDHBLy_fmlmNkwPVXvQauHv8i5q2A8l4G8aPuOnNykpHFA_uqzt8HyDckQ", "width": 1512}], "place_id": "ChIJs54N1ixBQg0R9TmAWBAkb4I", "plus_code": {"compound_code": "8JRH+F8 Campo Real, Spain", "global_code": "8CGR8JRH+F8"}, "rating": 3.9, "reference": "ChIJs54N1ixBQg0R9TmAWBAkb4I", "scope": "GOOGLE", "types": ["gym", "health", "point_of_interest", "establishment"], "user_ratings_total": 170, "vicinity": "Paseo de Pozuelo, 35, Campo Real"}, {"business_status": "OPERATIONAL", "geometry": {"location": {"lat": 40.3670126, "lng": -3.3162166}, "viewport": {"northeast": {"lat": 40.3683724302915, "lng": -3.314863869708498}, "southwest": {"lat": 40.3656744697085, "lng": -3.317561830291502}}}, "icon": "https://maps.gstatic.com/mapfiles/place_api/icons/v1/png_71/school-71.png", "icon_background_color": "#7B9EB0", "icon_mask_base_uri": "https://maps.gstatic.com/mapfiles/place_api/icons/v2/school_pinlet", "international_phone_number": "+34 644 83 45 71", "name": "Perla Mayorga Boxing Club", "opening_hours": {"open_now": false}, "photos": [{"height": 2782, "html_attributions": ["<a href=\"https://maps.google.com/maps/contrib/103180920292180862416\">Perla Mayorga Boxing Club</a>"], "photo_reference": "AWn5SU6Hha3D7AOGUhd4VV2TtWcREdZjOUJq9NraX_cG2lz3mpJhshxK3WWPksM0SXCyvJL4JDcZrYM5KcTkLposoagNDbdkYFClo3vFipPyfDFr9GxhdziDOlfg4nBHuAJYkM7C2U4SXZllLmVvuwdFhbtCFYKtWx4cBS6hTKuEKYO6GS7ZJBLhxOucCeoUMpcmEQdm6zmXZaoqOqavdojoqj_GCMjEGjhNL42TGW43glVtC4HBGsD8BxzaPhtkMAc40hm6UPWfuVz5M1zle5h38ODDxrsN3IYVYGNFU0elHD3zuXMqyVAaLl4x9ExKFzwgbVcr5YeTzuA", "width": 4278}], "place_id": "ChIJL4xkzKtHQg0RCZvCAlBVf1g", "plus_code": {"compound_code": "9M8M+RG Pozuelo del Rey, Spain", "global_code": "8CGR9M8M+RG"}, "rating": 4.6, "reference": "ChIJL4xkzKtHQg0RCZvCAlBVf1g", "scope": "GOOGLE", "types": ["gym", "health", "point_of_interest", "establishment"], "user_ratings_total": 10, "vicinity": "Calle Acacia, Pozuelo del Rey"}, {"business_status": "OPERATIONAL", "geometry": {"location": {"lat": 40.3551028, "lng": -3.2662503}, "viewport": {"northeast": {"lat": 40.3564283302915, "lng": -3.264914169708498}, "southwest": {"lat": 40.3537303697085, "lng": -3.267612130291502}}}, "icon": "https://maps.gstatic.com/mapfiles/place_api/icons/v1/png_71/school-71.png", "icon_background_color": "#7B9EB0", "icon_mask_base_uri": "https://maps.gstatic.com/mapfiles/place_api/icons/v2/school_pinlet", "international_phone_number": "+34 696 82 42 89", "name": "SON PILATES Eurovillas", "opening_hours": {"open_now": false}, "photos": [{"height": 1262, "html_attributions": ["<a href=\"https://maps.google.com/maps/contrib/104580452318057884851\">SON PILATES Eurovillas</a>"], "photo_reference": "AWn5SU5-UrqerBjmEfu9XFc-jj0l80V72VZq3-lNG6b7prAPaNMm3nPbWs3-tfamw0NnQQ-AVtn4SuMdZjEDB5h652Lk8xzi2JNr69FbLe_Lqf7kGL46PA1myRzszcZvh8ZtxD8CoQeKhdGASJjlZRjpSwtseB7_2eByBf_gjy3VoI0gAObvBnxrAuL1WACiT5eA51kfxOcxI5T5Lg_gzz02edxKSrIlOSUtL_wgIQJSTXjnEFdtjr5tNjcNPwnt-h38tZ2b16VywNaocUgxu9PNUMaIItArg4_Mm3DrLqEcob4BCluQM5H0R11Yt36Lje6muxjRTQso4mg", "width": 1200}], "place_id": "ChIJ8ai-GYhFQg0RdlCNc9kgLHM", "plus_code": {"compound_code": "9P4M+2F Nuevo Baztán, Spain", "global_code": "8CGR9P4M+2F"}, "reference": "ChIJ8ai-GYhFQg0RdlCNc9kgLHM", "scope": "GOOGLE", "types": ["gym", "health", "point_of_interest", "establishment"], "vicinity": "Nuevo Baztán"}, {"business_status": "OPERATIONAL", "geometry": {"location": {"lat": 40.35461979999999, "lng": -3.2655724}, "viewport": {"northeast": {"lat": 40.35600798029149, "lng": -3.264198019708498}, "southwest": {"lat": 40.35331001970849, "lng": -3.266895980291502}}}, "icon": "https://maps.gstatic.com/mapfiles/place_api/icons/v1/png_71/generic_business-71.png", "icon_background_color": "#7B9EB0", "icon_mask_base_uri": "https://maps.gstatic.com/mapfiles/place_api/icons/v2/generic_pinlet", "name": "Gimnasio", "place_id": "ChIJq_AUPOZFQg0RSN52WF1Zrps", "plus_code": {"compound_code": "9P3M+RQ Nuevo Baztán, Spain", "global_code": "8CGR9P3M+RQ"}, "reference": "ChIJq_AUPOZFQg0RSN52WF1Zrps", "scope": "GOOGLE", "types": ["gym", "health", "point_of_interest", "establishment"], "vicinity": "Avenida Luxemburgo, 29, Nuevo Baztán"}, {"business_status": "OPERATIONAL", "geometry": {"location": {"lat": 40.3411372, "lng": -3.3712483}, "viewport": {"northeast": {"lat": 40.3424583802915, "lng": -3.369900319708498}, "southwest": {"lat": 40.3397604197085, "lng": -3.372598280291502}}}, "icon": "https://maps.gstatic.com/mapfiles/place_api/icons/v1/png_71/generic_business-71.png", "icon_background_color": "#7B9EB0", "icon_mask_base_uri": "https://maps.gstatic.com/mapfiles/place_api/icons/v2/generic_pinlet", "name": "Gimnasio Municipal", "photos": [{"height": 2510, "html_attributions": ["<a href=\"https://maps.google.com/maps/contrib/105075641691449974524\">Milagros Ochoa Lopez</a>"], "photo_reference": "AWn5SU4GQoo2IZuxHGMLqZV_F5RWOnKTDmOxmVtLco1Db4975b67zyAEU8O__PWRAerXWZt5_a3vE65X3SJZbkW8TORYkeKPIKbTYpCC2u8F1r5OTg9BvG9rmezI0prtLvZDuukRNvGIKwLuok7PMxFeo7tWRteTJ2xzWx99e5slg4pwhlqNFZapWCsCqANga-Q1myg-xg0mh8SuS4v9kYdStmYfgY8AricQ5_S5-TQv2ntNvhrTW5MP6qJYxm8EGvuXfLo-0ecUsLE2dfsslqmWurPoTGfzxZrzeSJiMZ-DMm1OTwA3htMBe6lmO4JXQKz2Jn_vMQq0rix6AYsNn7Ool5LR1qtlx3lNMtT04APBQSsjf-4lLvn5W5wXOtOJLf217k7vZU506y2Iheaon6fiB-S86En43uaGWH_UIhMQdJCwNFrRKkohBeMYvisCTx2nHFfPIJhrWeCteyCRorzo8pz2mFT9S-UNJR8y61hL_ffcruZk4_BGHCwVywk5Z6CFu_gnmbyrX4Anz_U2T-hFRwBC_JnkrQPrG6rPxqN2sdUjYpGf-dWjwW8X3iN-WtD_YCaEclj69AKxCpx2vO7j9GRKPwGr5UJKXHjJIhnjmU_T2CDsPOHsSDuWG0wBrGJLZw5jSVpf", "width": 3968}], "place_id": "ChIJXyGDtPZBQg0Rl7ZkkQcY2Wo", "plus_code": {"compound_code": "8JRH+FG Campo Real, Spain", "global_code": "8CGR8JRH+FG"}, "rating": 3.5, "reference": "ChIJXyGDtPZBQg0Rl7ZkkQcY2Wo", "scope": "GOOGLE", "types": ["gym", "health", "point_of_interest", "establishment"], "user_ratings_total": 4, "vicinity": "Campo Real"}, {"business_status": "OPERATIONAL", "geometry": {"location": {"lat": 40.34113110000001, "lng": -3.3716532}, "viewport": {"northeast": {"lat": 40.3423795302915, "lng": -3.370294669708498}, "southwest": {"lat": 40.33968156970851, "lng": -3.372992630291502}}}, "icon": "https://maps.gstatic.com/mapfiles/place_api/icons/v1/png_71/school-71.png", "icon_background_color": "#7B9EB0", "icon_mask_base_uri": "https://maps.gstatic.com/mapfiles/place_api/icons/v2/school_pinlet", "international_phone_number": "+34 641 36 17 48", "name": "Boxing Team Junior", "opening_hours": {"open_now": false}, "photos": [{"height": 4096, "html_attributions": ["<a href=\"https://maps.google.com/maps/contrib/114080445446560116803\">Boxing Team Junior</a>"], "photo_reference": "AWn5SU6xNp5Ntyk9_0dq7ZMNaxCfQvD96yifa0Hojn_dexs06srfImDH1yapB-xgkgcRZvDgwvZJrUWxMihOkd4uDvNqIGkTds8Zl3M7Qk3QyQfbZLyjQbQ1B6gSWit9a0PWCzYjNsEYihiE0zDFhwq9L02-W-BIXrEyx1Cja2R2eOykuEqwugebMz7Kqg2_O9X-ogaXUG-JSwgqa3eBDE8rcGZnejFqdeg_LyejSYpMSePH9TSMGJk6z1b9e_UgHVsNSKTT8gxhgP9oCD8aIP4Mcyte0djOU2UzYPt_12FgrTTI2KplOg2V_UQXJQlz2wPblhJKrx6tGaw", "width": 2304}], "place_id": "ChIJrwKc1hhBQg0RRmjElOhPwtk", "plus_code": {"compound_code": "8JRH+F8 Campo Real, Spain", "global_code": "8CGR8JRH+F8"}, "rating": 5, "reference": "ChIJrwKc1hhBQg0RRmjElOhPwtk", "scope": "GOOGLE", "types": ["gym", "health", "point_of_interest", "establishment"], "user_ratings_total": 22, "vicinity": "Paseo de Pozuelo, Campo Real"}, {"business_status": "OPERATIONAL", "geometry": {"location": {"lat": 40.4027626, "lng": -3.3640681}, "viewport": {"northeast": {"lat": 40.4040676302915, "lng": -3.362703619708498}, "southwest": {"lat": 40.4013696697085, "lng": -3.365401580291502}}}, "icon": "https://maps.gstatic.com/mapfiles/place_api/icons/v1/png_71/generic_business-71.png", "icon_background_color": "#7B9EB0", "icon_mask_base_uri": "https://maps.gstatic.com/mapfiles/place_api/icons/v2/generic_pinlet", "international_phone_number": "+34 691 91 39 07", "name": "Infinity Gym S.L.", "opening_hours": {"open_now": false}, "photos": [{"height": 2321, "html_attributions": ["<a href=\"https://maps.google.com/maps/contrib/102965639355781860737\">Infinity Gym S.L.</a>"], "photo_reference": "AWn5SU5QOuz126_0Qquv4av2A7w7gKT2iN_aVJV3exkKT8Lpg5LlXXap4LNbYTPC7tQCftpuR4mfUMew2OFDBUXTcpW3iowVqpOyxFfthmraQZNZ6NPe1ZJXse8JiLfSI1FKPZw0ft72yJJa_JLV2_KsEmBPe_RynwnBe2wQEnI2DUzZPhNiDQKmKbZjL64Qikl_bsNC9uSeo3Ki0L_hWbhG_y2damZ-J24_qBugY4xsF2Aw1a0EcdQOc1v830kVOoaaUd7IsJPhw8fA_h33FWgY91wgE9dHYLLXx_gSVdRsnzYK2j_pEYLdzDmc2RHAeEkn2BT5tnr2sSk", "width": 3264}], "place_id": "ChIJx3214VBHQg0Rj678haSKU5g", "plus_code": {"compound_code": "CJ3P+49 Torres de la Alameda, Spain", "global_code": "8CGRCJ3P+49"}, "rating": 4.8, "reference": "ChIJx3214VBHQg0Rj678haSKU5g", "scope": "GOOGLE", "types": ["gym", "health", "point_of_interest", "establishment"], "user_ratings_total": 48, "vicinity": "Plaza de toros.locales parte de atrás, Calle Rafael Alberti, 0, Torres de la Alameda"}, {"business_status": "OPERATIONAL", "geometry": {"location": {"lat": 40.4036126, "lng": -3.3632259}, "viewport": {"northeast": {"lat": 40.4049680302915, "lng": -3.361878519708498}, "southwest": {"lat": 40.4022700697085, "lng": -3.364576480291502}}}, "icon": "https://maps.gstatic.com/mapfiles/place_api/icons/v1/png_71/generic_business-71.png", "icon_background_color": "#7B9EB0", "icon_mask_base_uri": "https://maps.gstatic.com/mapfiles/place_api/icons/v2/generic_pinlet", "name": "MTB Torres", "photos": [{"height": 1200, "html_attributions": ["<a href=\"https://maps.google.com/maps/contrib/100085098415690015526\">Adri Cas (Adri)</a>"], "photo_reference": "AWn5SU5BZxINW6Vb60q2OwZ4QHXqu7PMf_MsnV1aQVb3_qQtmsLe-i1ceOBFKhv95_tShzoRMoWlIB7VhBFnQzgdgtNOClxqbVmgFQ39yg0B0VfQrIedhNcBACrjruryYrKcO6Y_06IMUf0VwOsiij9vRqRqFcwK38Es94LnMKDla3Y56Z8tUCEDmvmJVzCEUTR-Q7I1zwgz2gg5TSnIthkIAyDgjfe8EHv3pT8DP04WQupjvybSjA_LGyUFT2RDNo6g_o4lVXuylm2g3K_52CZ1Vg1gFeIwsBZXqcacadLYogrhMKcFqSu8kvzclb2y5M9nvCEI105MDcnnUwT2tQSCCQUpZyJCOGUaxiAegcJ97YSO9_3S87VLhd42ToTbVX5SSQ4rqIM1EFr7df0Jf0M4V4-O5eQi_U04BlQizjPN2sjwrmw4kJHnQmKyDD0ujt6V4qyjD5BxBWtJ7-HGBGkxJzfxuyMEsiMzV7D6Tn_xxO45i-WJvYp4koimhhmx4Jiozkq9gzQkiefeI4ssdhn72HkzKQWKDHwGXIjEZkU-aMZG9qnBpR4IbAamB1X66CP5aveLzK22LZwWAOkX-5WvoCoFasB_dpFnlyfYFLIJnfEyhWbaZIqkwW3C57OyUfmvF1WQ4g", "width": 1600}], "place_id": "ChIJo0rb9bVHQg0R574Xk0Q-OJQ", "plus_code": {"compound_code": "CJ3P+CP Torres de la Alameda, Spain", "global_code": "8CGRCJ3P+CP"}, "rating": 5, "reference": "ChIJo0rb9bVHQg0R574Xk0Q-OJQ", "scope": "GOOGLE", "types": ["gym", "health", "point_of_interest", "establishment"], "user_ratings_total": 5, "vicinity": "Calle Antonio Machado, Torres de la Alameda"}, {"business_status": "OPERATIONAL", "geometry": {"location": {"lat": 40.3546704, "lng": -3.2499796}, "viewport": {"northeast": {"lat": 40.35602093029149, "lng": -3.248623569708498}, "southwest": {"lat": 40.35332296970849, "lng": -3.251321530291502}}}, "icon": "https://maps.gstatic.com/mapfiles/place_api/icons/v1/png_71/school-71.png", "icon_background_color": "#7B9EB0", "icon_mask_base_uri": "https://maps.gstatic.com/mapfiles/place_api/icons/v2/school_pinlet", "name": "1!", "photos": [{"height": 4284, "html_attributions": ["<a href=\"https://maps.google.com/maps/contrib/116072041684117128577\">Lalo Gallego</a>"], "photo_reference": "AWn5SU7wRJLGCYN1WXs8I01wm0c8fsGAdOi5NuUIwoMPq11-UA8IDA11esemvLQfb7aYZQmeeKalrBMng_jr6MECTi-cV1b6yG4I-BajkVM8nnM3YqKIYFgUhyjSYkqGYHk_LT_CgJHyvhl_vAgdeLn41_LWgLeV_W47Yk1CFGweFBiQQ_3sHbZmNV8YUYPIdiLn_NB30Pc6mGb3heYvNalakzOGyd80k_kptcNaAUe3kV90aPXBdjQ8nlIG4Gi3XzlZ5C4Bh0Cp88O2QciA5UyfEJyh-yJGo3zFRErzJER068uLOhtYwYHwBYjXkFwF49PyXr2L8LuXJ3E4FIYU9THqFhmZhQm2Vl2lIXC7HXZAt6YYg5uadYl_qvPgJWkP54xitCO06Np8sHCUD4uW9Ud1m3-LwOX4YxHKIU0fldmWpcVQF0giVC6OsA-im33XgYWMKYhTUdsCi79Hf1LLBLV6Xbh04XZ3RWMnwVEiOFXNeuRpchSALp9hJEvJ-IIpg8ApMWib3EW_s9Kj2shQtmtgh8HPNk9kvvH7ba6acgVvXzz3V3EywBZNCTsQHBXr72mvR9Jr5a_uRHDJT0V4k0-WvOOIA9B7xdN5yey9VelkF6RLM1NVVyQzXBeH4KmbXeCX949Sbm8ewKOMbRSVWauSzXbfb-U", "width": 5712}], "place_id": "ChIJs3yc6pBFQg0RWFFc5TDUy68", "plus_code": {"compound_code": "9Q32+V2 Nuevo Baztán, Spain", "global_code": "8CGR9Q32+V2"}, "reference": "ChIJs3yc6pBFQg0RWFFc5TDUy68", "scope": "GOOGLE", "types": ["gym", "health", "point_of_interest", "establishment"], "vicinity": "Calle 5, Nuevo Baztán"}]