[{"business_status": "OPERATIONAL", "geometry": {"location": {"lat": 40.156424, "lng": -3.6187641}, "viewport": {"northeast": {"lat": 40.1573197302915, "lng": -3.617831869708497}, "southwest": {"lat": 40.15462176970851, "lng": -3.620529830291502}}}, "icon": "https://maps.gstatic.com/mapfiles/place_api/icons/v1/png_71/hospital-71.png", "icon_background_color": "#F88181", "icon_mask_base_uri": "https://maps.gstatic.com/mapfiles/place_api/icons/v2/hospital-H_pinlet", "international_phone_number": "+34 918 93 01 50", "name": "Complejo Asistencial Benito Menni", "opening_hours": {"open_now": false}, "photos": [{"height": 1695, "html_attributions": ["<a href=\"https://maps.google.com/maps/contrib/101099853662667138786\">Miguel Lucio-V.M.</a>"], "photo_reference": "AWn5SU6r6gQMzt-N-Qoesd_q2OssUoDVbixbL4PiWXENzZQ5apr0GSBHoDgaRH2a79gmAkiDkhqo0syAHAp5-B1ZaMZv2UB2u3W2Q9xsV7VtggpWd8CNasVdg0hOZv9lvopzXBsDMeZSJmBrxiydI1__Qg7PtVRN53b6cAk6QZH-e52TCjiV1bI-iSNsrE3HZkh0qXbBMcAGjgMDaVs1rRG19Aq1lv5jkBcvWde7UL1nHxYKcdzmn0TA-uDQajU0QNzKrxZO5l1qbwy5eWIziYPlIVTMjQU9r391Yn4_VsvhBgrG_ficK5CkkFp_CW47TY4J6pUjz98aUCmyZNrKbjEidezc2QaTIiuBWJxuOQW9ixS7znnMxiWZzV9yBd7fxHs9Ws_UGYqN18-ZrqTi2pFdiu13DGBAW7qlow7kZwMyLrneHkFEuT7QJD4iN91o3TmBuwsc4JNUyYjIX3yTnw0ABxIz-yfHxEf-_QYeVNulXFSbHthjIHByKZkwmY59tsSkbSUivx0z_55u_WO0_1WF6VsF1wxrp5MJWvja2JRnatY16Mpy-0psG9vkoETRAdlKsqtEInkE6ztYNNt5pBM0k0idxadCmsNKqjMU9c2unLCyx-Ra06AgTJHkHglhr3TRK9pJMg", "width": 2473}], "place_id": "ChIJdyRtejMaQg0RjGxz5khHuTQ", "plus_code": {"compound_code": "594J+HF Ciempozuelos, Spain", "global_code": "8CGR594J+HF"}, "rating": 3.7, "reference": "ChIJdyRtejMaQg0RjGxz5khHuTQ", "scope": "GOOGLE", "types": ["hospital", "health", "point_of_interest", "establishment"], "user_ratings_total": 94, "vicinity": "Calle Jardines, 1, Ciempozuelos"}, {"business_status": "OPERATIONAL", "geometry": {"location": {"lat": 40.1604235, "lng": -3.614331}, "viewport": {"northeast": {"lat": 40.16166708029149, "lng": -3.613014669708498}, "southwest": {"lat": 40.1589691197085, "lng": -3.615712630291502}}}, "icon": "https://maps.gstatic.com/mapfiles/place_api/icons/v1/png_71/hospital-71.png", "icon_background_color": "#F88181", "icon_mask_base_uri": "https://maps.gstatic.com/mapfiles/place_api/icons/v2/hospital-H_pinlet", "name": "EDIFICIO GESTOR CSJD", "opening_hours": {"open_now": false}, "place_id": "ChIJN73TFwAbQg0Rceo8xn_0RzM", "plus_code": {"compound_code": "596P+57 Ciempozuelos, Spain", "global_code": "8CGR596P+57"}, "reference": "ChIJN73TFwAbQg0Rceo8xn_0RzM", "scope": "GOOGLE", "types": ["hospital", "health", "point_of_interest", "establishment"], "vicinity": "Avenida San Juan de Dios, 1, Ciempozuelos"}, {"business_status": "OPERATIONAL", "geometry": {"location": {"lat": 40.1617162, "lng": -3.6145538}, "viewport": {"northeast": {"lat": 40.1631195802915, "lng": -3.613211369708498}, "southwest": {"lat": 40.1604216197085, "lng": -3.615909330291503}}}, "icon": "https://maps.gstatic.com/mapfiles/place_api/icons/v1/png_71/hospital-71.png", "icon_background_color": "#F88181", "icon_mask_base_uri": "https://maps.gstatic.com/mapfiles/place_api/icons/v2/hospital-H_pinlet", "international_phone_number": "+34 918 93 00 01", "name": "Centro San Juan de Dios", "opening_hours": {"open_now": true}, "photos": [{"height": 3627, "html_attributions": ["<a href=\"https://maps.google.com/maps/contrib/110481092088146977780\">Centro San Juan de Dios</a>"], "photo_reference": "AWn5SU4o8FK_EQPRT5tK73B8IhPOpJykd8lxd_odQ3tAZ7Ch8YnVD0-XhOJo2Iey7OnC0U5E51fDZvq1LYGBCqVqyEADzoFDuoW0THgER-zlrX1psveoyCxxZB56kkPCvEIg5MY6MwJ0NbC2FCSl9B5dJ84Dk1yom04QGfcGlAi5JTnZ3Q6MgDK0oH4qYd__kcW9oCWgjyeDdkHoATwY_PgLGLkKRIQkeqoTqyoRw6uptUhd8dr8-WUTDfrguBo6tJezU5d7UnhtAIl0z0sBo8j1M_D0H5L4o7YpP6eOElWtrjTgAiVVbKWvkzhtRtYCRH0piRQJN6Y8JBA", "width": 5432}], "place_id": "ChIJsaf3xwQbQg0RPK7PaUkUw7w", "plus_code": {"compound_code": "596P+M5 Ciempozuelos, Spain", "global_code": "8CGR596P+M5"}, "rating": 3.7, "reference": "ChIJsaf3xwQbQg0RPK7PaUkUw7w", "scope": "GOOGLE", "types": ["hospital", "health", "point_of_interest", "establishment"], "user_ratings_total": 10, "vicinity": "Avenida San Juan de Dios, 1, Ciempozuelos"}, {"business_status": "OPERATIONAL", "geometry": {"location": {"lat": 40.1617162, "lng": -3.6145538}, "viewport": {"northeast": {"lat": 40.1631195802915, "lng": -3.613211369708498}, "southwest": {"lat": 40.1604216197085, "lng": -3.615909330291503}}}, "icon": "https://maps.gstatic.com/mapfiles/place_api/icons/v1/png_71/hospital-71.png", "icon_background_color": "#F88181", "icon_mask_base_uri": "https://maps.gstatic.com/mapfiles/place_api/icons/v2/hospital-H_pinlet", "name": "UNIDAD 3 CSJD", "opening_hours": {"open_now": true}, "place_id": "ChIJj-jJSgAbQg0RJfk4CfSyanA", "plus_code": {"compound_code": "596P+M5 Ciempozuelos, Spain", "global_code": "8CGR596P+M5"}, "reference": "ChIJj-jJSgAbQg0RJfk4CfSyanA", "scope": "GOOGLE", "types": ["hospital", "health", "point_of_interest", "establishment"], "vicinity": "Avenida San Juan de Dios, 1, Ciempozuelos"}]