[{"business_status": "OPERATIONAL", "geometry": {"location": {"lat": 40.188127, "lng": -3.764986500000001}, "viewport": {"northeast": {"lat": 40.1894653302915, "lng": -3.763598719708499}, "southwest": {"lat": 40.1867673697085, "lng": -3.766296680291503}}}, "icon": "https://maps.gstatic.com/mapfiles/place_api/icons/v1/png_71/gas_station-71.png", "icon_background_color": "#909CE1", "icon_mask_base_uri": "https://maps.gstatic.com/mapfiles/place_api/icons/v2/gas_pinlet", "international_phone_number": "+34 918 16 11 94", "name": "Seys Medioambiente S L", "place_id": "ChIJgyDNwL_1QQ0RDSwYfApDkFE", "rating": 5, "reference": "ChIJgyDNwL_1QQ0RDSwYfApDkFE", "scope": "GOOGLE", "types": ["gas_station", "point_of_interest", "establishment"], "user_ratings_total": 1, "vicinity": "Calle los Robles, 7, Torrejón de Velasco"}, {"business_status": "OPERATIONAL", "geometry": {"location": {"lat": 40.18819999999999, "lng": -3.76431}, "viewport": {"northeast": {"lat": 40.18957213029151, "lng": -3.762957369708498}, "southwest": {"lat": 40.18687416970851, "lng": -3.765655330291502}}}, "icon": "https://maps.gstatic.com/mapfiles/place_api/icons/v1/png_71/gas_station-71.png", "icon_background_color": "#909CE1", "icon_mask_base_uri": "https://maps.gstatic.com/mapfiles/place_api/icons/v2/gas_pinlet", "international_phone_number": "+34 615 92 59 48", "name": "Galp", "opening_hours": {"open_now": false}, "photos": [{"height": 1080, "html_attributions": ["<a href=\"https://maps.google.com/maps/contrib/106747928620898513489\">Galp</a>"], "photo_reference": "AWn5SU7aLdxr95dYVM9nPK0u5xWH1eJt4X_xYe72ScIrMbUaW8jtjVG0y4wSk2MBmsUyOC8SpqZf7GH017MgPqx6BcCkutnWDsMGoc1BX0-HSqkor1Uj4IFxEul2hBHCVFxPyUU01xdsXuECE86JK1rLrDzMVHKwlL4aUEPmS6Ty8vUjQcUdL04eEAbMzCajw0SiHLOhB6wFMZEBPHdPAJrPyGWPHICNPboNFhXgi9TMS-6twa6KjuR2qQt5pkC5b-4fsQt4_o4UtK0523CMFNJGFJVn6Ge8RdLS_pafg3ivm7MbxBsObvJ9r509njCdbMdxxE0yGMpijw8", "width": 1920}], "place_id": "ChIJSY2V3L_1QQ0RbpsbX_F33Ss", "plus_code": {"compound_code": "56QP+77 Torrejón de Velasco, Spain", "global_code": "8CGR56QP+77"}, "rating": 4, "reference": "ChIJSY2V3L_1QQ0RbpsbX_F33Ss", "scope": "GOOGLE", "types": ["gas_station", "car_wash", "cafe", "point_of_interest", "food", "establishment"], "user_ratings_total": 123, "vicinity": "M-404, Pk 28, 000, Torrejón de Velasco"}, {"business_status": "OPERATIONAL", "geometry": {"location": {"lat": 40.2309042, "lng": -3.7760965}, "viewport": {"northeast": {"lat": 40.23226038029149, "lng": -3.774761419708498}, "southwest": {"lat": 40.2295624197085, "lng": -3.777459380291503}}}, "icon": "https://maps.gstatic.com/mapfiles/place_api/icons/v1/png_71/gas_station-71.png", "icon_background_color": "#909CE1", "icon_mask_base_uri": "https://maps.gstatic.com/mapfiles/place_api/icons/v2/gas_pinlet", "international_phone_number": "+34 916 99 13 71", "name": "Repsol", "opening_hours": {"open_now": false}, "photos": [{"height": 925, "html_attributions": ["<a href=\"https://maps.google.com/maps/contrib/115310277843930800797\">Estación de Servicio Repsol</a>"], "photo_reference": "AWn5SU5RAze6Yhyo1WKMdjWnll_h9TonHVy5jWjXbQMAKnOrlAJr2otgyg0OzQuXlrSVztEe9bOpaJBeffMxmi607kPiFK3Wt4veg32ckYQTkUUUGtahKemeM8SNj4QqtbFnPTyhDFDtE11YNR96wvU7iCpb5CFNkhHDDy7EpONfJl5cRzknMGEE6rZEHun57Z751XdazUo3SR2Z-JTmYIkkAHRJ6GRe1u96-uDpPj7swj9s2DpV3xQeRDQWSbVNUR-t4-h9vT_h7U8bi5ZjUhTVPdeHVCmW8wquhEaJkfvlMpJJYVo9RaQzbUMSKvjFf5DGu5trG1o4G3w", "width": 1500}], "place_id": "ChIJtXtFcyP1QQ0RRlBo4cInGnQ", "plus_code": {"compound_code": "66JF+9H Parla, Spain", "global_code": "8CGR66JF+9H"}, "rating": 4, "reference": "ChIJtXtFcyP1QQ0RRlBo4cInGnQ", "scope": "GOOGLE", "types": ["gas_station", "car_wash", "point_of_interest", "establishment"], "user_ratings_total": 358, "vicinity": "Calle Toledo, 32, Parla"}, {"business_status": "OPERATIONAL", "geometry": {"location": {"lat": 40.2288994, "lng": -3.842864000000001}, "viewport": {"northeast": {"lat": 40.2302344302915, "lng": -3.841522169708498}, "southwest": {"lat": 40.2275364697085, "lng": -3.844220130291502}}}, "icon": "https://maps.gstatic.com/mapfiles/place_api/icons/v1/png_71/gas_station-71.png", "icon_background_color": "#909CE1", "icon_mask_base_uri": "https://maps.gstatic.com/mapfiles/place_api/icons/v2/gas_pinlet", "international_phone_number": "+34 900 730 760", "name": "Ballenoil Griñón", "opening_hours": {"open_now": true}, "photos": [{"height": 2360, "html_attributions": ["<a href=\"https://maps.google.com/maps/contrib/111239572191405325117\">Ballenoil Griñón</a>"], "photo_reference": "AWn5SU4zlXxWIWQ8rCRA_5SLzOmd3sa8qBiOR5VMilfgGFI0mbUHAdc_Qj6RoXkXgY8THGjT2sSLo3TULnsKUZFa4ixLwXA2qXqxRsEYBn6jiAouN891wkRF4fk8-hf-Gy9J3ZYjtUJxjBBPtowGPV6wlhmv5KRNLNcrJ0F3_kkOIAdHwQMxILdOyztKnushfrjV8JgYuFttVL_2JbpE6_-RZTMw7BCWxQJZbuD4BdrLHbWEGiCTWvjudjfiUyHdm0y59nQIogJ4Y0v00lMFb-MDGRM1CsV7bIxH5QaVwSYm1WC46rDmJK16zLbhTk3lzbkECOrk1rDQIHU", "width": 3784}], "place_id": "ChIJnXsm2kDzQQ0RcX2rvezp5s0", "plus_code": {"compound_code": "65H4+HV Griñón, Spain", "global_code": "8CGR65H4+HV"}, "rating": 3.8, "reference": "ChIJnXsm2kDzQQ0RcX2rvezp5s0", "scope": "GOOGLE", "types": ["gas_station", "point_of_interest", "establishment"], "user_ratings_total": 236, "vicinity": "Avenida Humanes, 176, Griñón"}, {"business_status": "OPERATIONAL", "geometry": {"location": {"lat": 40.23722, "lng": -3.839485}, "viewport": {"northeast": {"lat": 40.2385567302915, "lng": -3.838107169708497}, "southwest": {"lat": 40.2358587697085, "lng": -3.840805130291502}}}, "icon": "https://maps.gstatic.com/mapfiles/place_api/icons/v1/png_71/gas_station-71.png", "icon_background_color": "#909CE1", "icon_mask_base_uri": "https://maps.gstatic.com/mapfiles/place_api/icons/v2/gas_pinlet", "international_phone_number": "+34 918 84 24 88", "name": "Estación de servicio Cepsa", "opening_hours": {"open_now": false}, "photos": [{"height": 1192, "html_attributions": ["<a href=\"https://maps.google.com/maps/contrib/110771738300643662676\">Estación de servicio Cepsa</a>"], "photo_reference": "AWn5SU7l8LyUP7LrLOD_C9-qWG8BIVELeKCLSv0Il1ooyWu8fPzoeofKPSMpB756E6u4nVjbo7MeePEYhq8eV0Robpf1cSCf7_O-51JEi7HqmLcPJgDD82G1BL2s3DqzLli-L5LqwxiT3u0HbNTxaoj4meZfJInDLz-_8vutQzyu4BvPpM5SP4jTsoEtiEA_CJ-2GzaOVMBOG8lc3FTZ1r-khI_F5Ngs3Ry9VyNjPR8iVqg7mq9iJaatIC4FGqEAR8bpabDRakOy1xlclbUXwWpBpu0rXXurkxMGLE1g4GiCWuelDZGyP6kkxPdc2W71MGioWm_3PB5oHfc", "width": 2118}], "place_id": "ChIJnzORL0_zQQ0RUb4utZInbU8", "plus_code": {"compound_code": "65P6+V6 Humanes de Madrid, Spain", "global_code": "8CGR65P6+V6"}, "rating": 3.5, "reference": "ChIJnzORL0_zQQ0RUb4utZInbU8", "scope": "GOOGLE", "types": ["gas_station", "point_of_interest", "establishment"], "user_ratings_total": 15, "vicinity": "M-405, PK: 5, 6, Humanes de Madrid"}, {"business_status": "OPERATIONAL", "geometry": {"location": {"lat": 40.206512, "lng": -3.861781999999999}, "viewport": {"northeast": {"lat": 40.2077155302915, "lng": -3.860378919708497}, "southwest": {"lat": 40.2050175697085, "lng": -3.863076880291501}}}, "icon": "https://maps.gstatic.com/mapfiles/place_api/icons/v1/png_71/gas_station-71.png", "icon_background_color": "#909CE1", "icon_mask_base_uri": "https://maps.gstatic.com/mapfiles/place_api/icons/v2/gas_pinlet", "international_phone_number": "+34 918 14 13 29", "name": "MOEVE GRIÑÓN", "opening_hours": {"open_now": false}, "photos": [{"height": 1152, "html_attributions": ["<a href=\"https://maps.google.com/maps/contrib/102545918050813425786\">MOEVE GRIÑÓN</a>"], "photo_reference": "AWn5SU55eYcLlmDuhpg3NKwlaiWrzlbxCGW2eI9UgZyCn6JTMhcRYIbsEBv7_cJaGMZXzbZWbGUWKv2wvjaVSX508Aj_2BHJwLBKt5qjY3f8sOG0lEKvSWKzrVEP14lSfRhVDuCp0F00UM914w7ACuUdjwZWcZGMVZOaxH2UNA2eQmYRH4Gm5BSnnUlDmqvuIX2m654IDnN_7sMRe8JREZQAqycaShUSaSAAD6PDP884hJ_Qfk7sIOup7cPBw-8zANsmNiJOi9jSVj2LTfOGOQEGfKATysZp-EWUos4fMZ0EmuAHdgN3v0f3OB8VT2h0IjKDki4K_e6WcKQ", "width": 2048}], "place_id": "ChIJdV90HwHzQQ0RbOJpvUzbDYM", "plus_code": {"compound_code": "644Q+J7 Griñón, Spain", "global_code": "8CGR644Q+J7"}, "rating": 3.6, "reference": "ChIJdV90HwHzQQ0RbOJpvUzbDYM", "scope": "GOOGLE", "types": ["gas_station", "point_of_interest", "establishment"], "user_ratings_total": 160, "vicinity": "Carretera de Navalcarnero a Chinchón Km 18.800, Griñón"}, {"business_status": "OPERATIONAL", "geometry": {"location": {"lat": 40.24032, "lng": -3.753548}, "viewport": {"northeast": {"lat": 40.24186228029149, "lng": -3.752652819708498}, "southwest": {"lat": 40.2391643197085, "lng": -3.755350780291502}}}, "icon": "https://maps.gstatic.com/mapfiles/place_api/icons/v1/png_71/gas_station-71.png", "icon_background_color": "#909CE1", "icon_mask_base_uri": "https://maps.gstatic.com/mapfiles/place_api/icons/v2/gas_pinlet", "international_phone_number": "+34 900 402 020", "name": "Serparla", "opening_hours": {"open_now": true}, "photos": [{"height": 3035, "html_attributions": ["<a href=\"https://maps.google.com/maps/contrib/109314065795211065870\">Alia Att</a>"], "photo_reference": "AWn5SU59ua0GEiZkKOKRTtRBFPvBE3CQNwD9-MRBIKdMxcIF0sSbEz2X6MCkv8G-GWt8_2thxsGPHeFBohw2iq9Q347RXqlEqRIPtLuwvHpENwCwmQCtrmSqkOYA6W2zz9dO80AFzQ4YzQW5-gpuZ9Oi8n2_zZ7fGqQkMsr1aLFf6y9rNKz6GzvjhuJnACedEew2haeqzRS4rJG19uTcurT0cIxiNfRRIi9hEAj7BLTVxbRw8010zxmlI6Ks0RVpi9heIf-SQH00nmWR6BmU4W_Km75_L0egbwwDRdPWyOGvloimEYyyeA6PocAJvKO8JGarEiKErscn0md9ee8-fqP5et2xpdz5Rh433ieMU41hANi1pdhIcKCUJzx3YiEbvhoNYlVi3Q66UtYYz3urrZI06CTvc5yCtetVdAqaMkG4wmEp9ykBRLY3YgTc666_ZIfdjGDKhjJm0wFDRd2BMuRbcHt2y0KVUlL_PZ4mQFqafGQU_AqvLSxWmMZjh6ej-3-gMiZBFgxMvoyjyh2X3siz8Db5-dOeBNmON4smDO4cVgInuU5YAXve6HILfKsZTB2FY9sUzIGwvB97LhflJhXUlqGvjkV_0sVsHtv5RyPuit3uJ5I3i6FsIM_QBiJ-XA", "width": 4608}], "place_id": "ChIJw9qgsU_1QQ0RXxRJooUzZFA", "plus_code": {"compound_code": "66RW+4H Parla, Spain", "global_code": "8CGR66RW+4H"}, "rating": 3.8, "reference": "ChIJw9qgsU_1QQ0RXxRJooUzZFA", "scope": "GOOGLE", "types": ["gas_station", "point_of_interest", "establishment"], "user_ratings_total": 119, "vicinity": "Calle Pinto Centro Comercial el Ferial, M-408, Parla"}, {"business_status": "OPERATIONAL", "geometry": {"location": {"lat": 40.2567179, "lng": -3.8238354}, "viewport": {"northeast": {"lat": 40.2580376802915, "lng": -3.822502119708497}, "southwest": {"lat": 40.2553397197085, "lng": -3.825200080291502}}}, "icon": "https://maps.gstatic.com/mapfiles/place_api/icons/v1/png_71/gas_station-71.png", "icon_background_color": "#909CE1", "icon_mask_base_uri": "https://maps.gstatic.com/mapfiles/place_api/icons/v2/gas_pinlet", "international_phone_number": "+34 914 98 29 88", "name": "Estación de Servicio Repsol", "opening_hours": {"open_now": false}, "photos": [{"height": 925, "html_attributions": ["<a href=\"https://maps.google.com/maps/contrib/114364786421647723678\">Estación de Servicio Repsol</a>"], "photo_reference": "AWn5SU7gVhZ14o9OpvwMAb4BcOGc89e1QMyYoAXLe5PzWUjTtMTVvEppubZ2Bv7-66ijTbeWsHkuEe2cUAFdYCbxh2evochFdHwKjdWemySwPlhfV3rsF1YAgconvlmqJBqxZZBAcTD_10SO7TAm5olq3m55_dVI6l_ziGt6RSmo_Vc6i-NlcJzaP8QGaqoNhB1p4Bh25D7IPN1kvYeuorM6R3hn8yCxZM7ITPzUcGU64H6-Rr7tTv6OS4laP44M_QZ1a81KgCp4zWIJoY3kfh95b5B-rcyrPpI_-V0fWlEf2OnFM6ocxN-MCp0f2Jh0XlKQUO20Bbz-32s", "width": 1500}], "place_id": "ChIJta6Qp66MQQ0RErkoUjFNmT4", "plus_code": {"compound_code": "754G+MF Humanes de Madrid, Spain", "global_code": "8CGR754G+MF"}, "rating": 3.7, "reference": "ChIJta6Qp66MQQ0RErkoUjFNmT4", "scope": "GOOGLE", "types": ["gas_station", "car_wash", "point_of_interest", "establishment"], "user_ratings_total": 289, "vicinity": "Calle Madrid, 68, Humanes de Madrid"}, {"business_status": "OPERATIONAL", "geometry": {"location": {"lat": 40.18247600000001, "lng": -3.725469}, "viewport": {"northeast": {"lat": 40.18378418029149, "lng": -3.723879219708498}, "southwest": {"lat": 40.1810862197085, "lng": -3.726577180291502}}}, "icon": "https://maps.gstatic.com/mapfiles/place_api/icons/v1/png_71/gas_station-71.png", "icon_background_color": "#909CE1", "icon_mask_base_uri": "https://maps.gstatic.com/mapfiles/place_api/icons/v2/gas_pinlet", "international_phone_number": "+34 918 16 17 00", "name": "Cepsa", "opening_hours": {"open_now": false}, "photos": [{"height": 1192, "html_attributions": ["<a href=\"https://maps.google.com/maps/contrib/106159531639499187135\">Estación de servicio Moeve, antes Cepsa</a>"], "photo_reference": "AWn5SU7TFIr1q5-tZg44Bjh67CB95GeyKwXq_lSTIQRMMP_xcaaq_sh8QvvLzneyF3Y4JsGITs7oVCdpBFR18WvPwPj9Bd8oCkW6d5eFL_Lompp8NeR3eSGgoEGyDsm1Zxncm2x6LJFEk9U9vHv98AW7XQR-MM3nGsCru8ldOgOrmnANlhqnFuRnlRL0aR7_0Pd8cI6FuiDoDtmppv--CjNWXjqJ-J8-vkBzidmlO6Yr_JvIVEXcljsdbPoN3l6aVppSFORTAxFIT_KeeKaj-AfEiqwm-J1s0VKhsDF6VRPbNDP-034ltQvNDRkhFqkPaa4KjCiOhHcKsPc", "width": 2118}], "place_id": "ChIJMdvoEJYeQg0R_SMNb-L6hUo", "plus_code": {"compound_code": "57JF+XR Torrejón de Velasco, Spain", "global_code": "8CGR57JF+XR"}, "rating": 4, "reference": "ChIJMdvoEJYeQg0R_SMNb-L6hUo", "scope": "GOOGLE", "types": ["gas_station", "point_of_interest", "establishment"], "user_ratings_total": 203, "vicinity": "M-404, PK: 31, 5, Torrejón de Velasco"}, {"business_status": "OPERATIONAL", "geometry": {"location": {"lat": 40.203069, "lng": -3.798567}, "viewport": {"northeast": {"lat": 40.2044445802915, "lng": -3.797275719708498}, "southwest": {"lat": 40.2017466197085, "lng": -3.799973680291503}}}, "icon": "https://maps.gstatic.com/mapfiles/place_api/icons/v1/png_71/gas_station-71.png", "icon_background_color": "#909CE1", "icon_mask_base_uri": "https://maps.gstatic.com/mapfiles/place_api/icons/v2/gas_pinlet", "international_phone_number": "+34 918 16 08 41", "name": "Estación de servicio Cepsa - Torrejón de la Calzada", "opening_hours": {"open_now": false}, "photos": [{"height": 1006, "html_attributions": ["<a href=\"https://maps.google.com/maps/contrib/117203537364523998039\">Estación de servicio Moeve, antes Cepsa</a>"], "photo_reference": "AWn5SU6PZ_ajPR_fGWkXhl15ROAim76l0RsaPfm9HaVL0hBSJwm1jhGbQcEyOfoo-FKRFu6BXz3pGMJJurJVTjtA92ekqUo2bPMbBV1WaNADWBVDwohgyrYJCaefCPqFzfHFjRY3bSU1NQCvRBbawljC_r4w4lv2zP-boYiuqhOEovEuE8NKRU6eG47STvIKdPeX1nxi1Q9NL88U4bjBsbgRqIFGs18BWj-b0zwCRUTYbUwyOdqy_jzySv2uxVO097z9ypdCBjPOrZVEh_TbjDz0LlV8EdG0B9gGf9cIcngSl20GcQC9nJlkd4CeactUgrk2s6JuETclLHo", "width": 1788}], "place_id": "ChIJWTinJln0QQ0RKJ1y-grda6k", "plus_code": {"compound_code": "6632+6H Torrejón de la Calzada, Spain", "global_code": "8CGR6632+6H"}, "rating": 4.1, "reference": "ChIJWTinJln0QQ0RKJ1y-grda6k", "scope": "GOOGLE", "types": ["gas_station", "point_of_interest", "establishment"], "user_ratings_total": 25, "vicinity": "REAL, 1-2, Torrejón de la Calzada"}, {"business_status": "OPERATIONAL", "geometry": {"location": {"lat": 40.20345999999999, "lng": -3.798938}, "viewport": {"northeast": {"lat": 40.20475183029149, "lng": -3.797473219708498}, "southwest": {"lat": 40.20205386970849, "lng": -3.800171180291503}}}, "icon": "https://maps.gstatic.com/mapfiles/place_api/icons/v1/png_71/gas_station-71.png", "icon_background_color": "#909CE1", "icon_mask_base_uri": "https://maps.gstatic.com/mapfiles/place_api/icons/v2/gas_pinlet", "international_phone_number": "+34 616 50 22 45", "name": "Estación de servicio Cepsa - Calle Real", "opening_hours": {"open_now": false}, "photos": [{"height": 1006, "html_attributions": ["<a href=\"https://maps.google.com/maps/contrib/100862641086771189330\">Estación de servicio Moeve, antes Cepsa</a>"], "photo_reference": "AWn5SU4g_CwPfUm3gUkUkMYrFimHuGupNGZ3F_MZAVzQa3KlQ3DmDqU2QuNNFWicMLRBpcIUVPEhWzNPBXJlaPsG4Us8NJXhE6JAX3c-OmElaekjUEDWcAi1wWQ-k1kLxg3V8s0HUkwvt2cUX003p1CQAcxZVtS5Oo5xVPuHITZaB0AFqtAJzm28WzrS_eB02-jmHmNnNGT6mNWrI10pAet3DY82gEpAxInXCYos2eV8igNRW8Hdo5H5MV7BXPh8Pvv5kJg-1OxZbXfPJLJut2ajSkKGGdRvy3K4F8EpIqLWel7OfT5WhWl7Kb7Ux2F54aTBjP1gKm3hrIs", "width": 1788}], "place_id": "ChIJvzgFtMb1QQ0RqbU8SAtmb4c", "plus_code": {"compound_code": "6632+9C Torrejón de la Calzada, Spain", "global_code": "8CGR6632+9C"}, "rating": 3.8, "reference": "ChIJvzgFtMb1QQ0RqbU8SAtmb4c", "scope": "GOOGLE", "types": ["gas_station", "point_of_interest", "establishment"], "user_ratings_total": 216, "vicinity": "Calle Real, 1, Torrejón de la Calzada"}, {"business_status": "OPERATIONAL", "geometry": {"location": {"lat": 40.2294141, "lng": -3.7822714}, "viewport": {"northeast": {"lat": 40.2308107302915, "lng": -3.780857119708497}, "southwest": {"lat": 40.2281127697085, "lng": -3.783555080291502}}}, "icon": "https://maps.gstatic.com/mapfiles/place_api/icons/v1/png_71/gas_station-71.png", "icon_background_color": "#909CE1", "icon_mask_base_uri": "https://maps.gstatic.com/mapfiles/place_api/icons/v2/gas_pinlet", "international_phone_number": "+34 953 90 00 09", "name": "Petroprix", "opening_hours": {"open_now": true}, "photos": [{"height": 1200, "html_attributions": ["<a href=\"https://maps.google.com/maps/contrib/106635423411429334628\">Petroprix</a>"], "photo_reference": "AWn5SU6bLA6GShAEKFJYReIWTqZZsto8lw-_9f6O7tzNxXAUBRpuB6ZslVi6j-igO6axseRj-5roECf8q3PVjy19yaCwZVSGzWWuZ9fl_cNzXDoIx4FQBmh-D3Z9v1C2IDkzzER03HNNdn5m8sMgsTWSQXM4qethM18zZgDb5orfZmF-hhFOqsd9CJ8BZkyUYDHm2JCkstVXk4LuDVd-wm04sNHUEIaRsUNk-mzZiG5HN2vskU-hlIFV3PClcAASpKiq1AV0BRmy1BbOtYSHlButfUvljGlDSfY7mEBuxRgxFf4NJjE39_8mKGdQYwVN_Qvrtl6Plizfg20", "width": 1600}], "place_id": "ChIJoRbj9yD1QQ0R8Ux2CDxHjSQ", "plus_code": {"compound_code": "66H9+Q3 Parla, Spain", "global_code": "8CGR66H9+Q3"}, "rating": 4.1, "reference": "ChIJoRbj9yD1QQ0R8Ux2CDxHjSQ", "scope": "GOOGLE", "types": ["gas_station", "point_of_interest", "establishment"], "user_ratings_total": 186, "vicinity": "Sector Ermita Industrial, Avenida de Ronda, S/N, Parla"}, {"business_status": "OPERATIONAL", "geometry": {"location": {"lat": 40.22814289999999, "lng": -3.778599299999999}, "viewport": {"northeast": {"lat": 40.22948583029149, "lng": -3.777254969708498}, "southwest": {"lat": 40.2267878697085, "lng": -3.779952930291503}}}, "icon": "https://maps.gstatic.com/mapfiles/place_api/icons/v1/png_71/gas_station-71.png", "icon_background_color": "#909CE1", "icon_mask_base_uri": "https://maps.gstatic.com/mapfiles/place_api/icons/v2/gas_pinlet", "international_phone_number": "+34 900 730 760", "name": "Ballenoil Parla", "opening_hours": {"open_now": true}, "photos": [{"height": 577, "html_attributions": ["<a href=\"https://maps.google.com/maps/contrib/100592280634977189958\">Ballenoil Parla</a>"], "photo_reference": "AWn5SU7PmymLyv9rc7liZb6DjlxxEhtEGybRSrMvM7lmvLY_CohzgOExufbB-92BrSqjZ7z0jPRIN5JpvzbaR_tDR_OJ5LFOhY1PdBkTOxEanTJLHNvzejnxn1sZZQjotobTpuSH-naP0qJXJSyjZ-dsnJH-mIghUPBs1SiUffMCvZDYMWs9i0hI0uEsd7z-9VIJ32UYc-RgWYZpz7qKH2z7sn1_R-UyA2tPNOnaSWVzJj1WYb6VG6IkXnDH5Xpj64HBR7taNMyhjsfLQvok93n8Yr-WC9tFGa1PlmmVYCDyx_gJUZ_CkRYC2ozonTpENP2LfmPJ0j6SmsQ", "width": 1024}], "place_id": "ChIJfVZ8HCL1QQ0RrGN7shClv0Q", "plus_code": {"compound_code": "66HC+7H Parla, Spain", "global_code": "8CGR66HC+7H"}, "rating": 4, "reference": "ChIJfVZ8HCL1QQ0RrGN7shClv0Q", "scope": "GOOGLE", "types": ["gas_station", "car_wash", "point_of_interest", "establishment"], "user_ratings_total": 530, "vicinity": "c/v, Calle Toledo, Avenida de Ronda, s/n, Parla"}, {"business_status": "OPERATIONAL", "geometry": {"location": {"lat": 40.2286438, "lng": -3.777978900000001}, "viewport": {"northeast": {"lat": 40.2299670302915, "lng": -3.776650019708498}, "southwest": {"lat": 40.22726906970851, "lng": -3.779347980291502}}}, "icon": "https://maps.gstatic.com/mapfiles/place_api/icons/v1/png_71/gas_station-71.png", "icon_background_color": "#909CE1", "icon_mask_base_uri": "https://maps.gstatic.com/mapfiles/place_api/icons/v2/gas_pinlet", "international_phone_number": "+34 910 60 07 96", "name": "Plenergy Parla I", "opening_hours": {"open_now": true}, "photos": [{"height": 2667, "html_attributions": ["<a href=\"https://maps.google.com/maps/contrib/102681893121578453730\">Plenergy Parla I</a>"], "photo_reference": "AWn5SU5Js_-PgdfJFqcDHzMfsVH5ULg_idBTKF-yFxevWyuDqkWMf7pFAa88YmKpCIKC2rgRTixL-dmqDOHo4P5XcLlyAQG2b8AzsIwyW8VAYdbuEkHMFcvKV7ucIwxNlaT4xZQzqorsgIEmOAAT-f4iZel_AXDbkYVpf7UVsqduCcpIULrMtJzwRN1QWvUbQ_6q3qyyxrO1VvcXJh7kq86EKZ4-as5_pNhogg2phUCOl3PzFoVvONmDcpufG5cD2QjkE6aPxdYNPSppfFe6AfBmyNiQ0Fa41msUzRVcOdy-Zc9UfBBmNouY1rBrcTiEjqtJTrkafno68Qk", "width": 4000}], "place_id": "ChIJqc3OXan1QQ0RFFpQrBdnSy0", "plus_code": {"compound_code": "66HC+FR Parla, Spain", "global_code": "8CGR66HC+FR"}, "rating": 4.2, "reference": "ChIJqc3OXan1QQ0RFFpQrBdnSy0", "scope": "GOOGLE", "types": ["gas_station", "point_of_interest", "establishment"], "user_ratings_total": 152, "vicinity": "Calle Toledo, 40, Parla"}, {"business_status": "CLOSED_TEMPORARILY", "geometry": {"location": {"lat": 40.21592700000001, "lng": -3.757194699999999}, "viewport": {"northeast": {"lat": 40.2173987802915, "lng": -3.755749919708498}, "southwest": {"lat": 40.2147008197085, "lng": -3.758447880291502}}}, "icon": "https://maps.gstatic.com/mapfiles/place_api/icons/v1/png_71/gas_station-71.png", "icon_background_color": "#909CE1", "icon_mask_base_uri": "https://maps.gstatic.com/mapfiles/place_api/icons/v2/gas_pinlet", "name": "Estación de Servicio Repsol", "permanently_closed": true, "place_id": "ChIJQ3Kk5FX1QQ0RJaW2xGlZwcI", "plus_code": {"compound_code": "668V+94 Parla, Spain", "global_code": "8CGR668V+94"}, "rating": 1, "reference": "ChIJQ3Kk5FX1QQ0RJaW2xGlZwcI", "scope": "GOOGLE", "types": ["gas_station", "car_wash", "point_of_interest", "establishment"], "user_ratings_total": 1, "vicinity": "SALIDA PARLA ESTE"}, {"business_status": "OPERATIONAL", "geometry": {"location": {"lat": 40.1710145, "lng": -3.822165}, "viewport": {"northeast": {"lat": 40.1721941802915, "lng": -3.820853369708498}, "southwest": {"lat": 40.1694962197085, "lng": -3.823551330291502}}}, "icon": "https://maps.gstatic.com/mapfiles/place_api/icons/v1/png_71/gas_station-71.png", "icon_background_color": "#909CE1", "icon_mask_base_uri": "https://maps.gstatic.com/mapfiles/place_api/icons/v2/gas_pinlet", "international_phone_number": "+34 914 55 04 81", "name": "Estación de Servicio Repsol", "opening_hours": {"open_now": false}, "photos": [{"height": 809, "html_attributions": ["<a href=\"https://maps.google.com/maps/contrib/104665942522031250367\">Estación de Servicio Repsol</a>"], "photo_reference": "AWn5SU5RELmWOI0NwH5ls5inXcXXEhA71r0RpP29WO8rISILE5yTqi_PkhL7Xa2G_qucM92tX-pFY1GGZNM-gcsuEYfQteC9s_aP4UQXYYOiIKSQp7jzPV06fXl6CbCJd66Sb_q8V5mnNQJf29hUOSllmanr1phtbxSPFe7PbaaPpsoipq4WcQPYfdJtBkoTjK3Iv_5ZlWXPF3oARLb_ZggFkK9SyyJLfKnppmX5gBCcKH-Ts6e-BQ1fXBUY8i5ZNMSKbDxR7_IKRLWTyLrLkU-0Z-vMqGtEDyeUlpq1CHg4nXvnZ68A4uKm5yxbfHggdMPUfj_HHde83QM", "width": 1500}], "place_id": "ChIJW0_k4Qb0QQ0RwMEYgYTdMtk", "plus_code": {"compound_code": "55CH+C4 Casarrubuelos, Spain", "global_code": "8CGR55CH+C4"}, "rating": 3.3, "reference": "ChIJW0_k4Qb0QQ0RwMEYgYTdMtk", "scope": "GOOGLE", "types": ["gas_station", "car_wash", "point_of_interest", "establishment"], "user_ratings_total": 20, "vicinity": "Calle de la Inmaculada, 43, Casarrubuelos"}, {"business_status": "OPERATIONAL", "geometry": {"location": {"lat": 40.1709408, "lng": -3.8222006}, "viewport": {"northeast": {"lat": 40.1721588802915, "lng": -3.820882619708498}, "southwest": {"lat": 40.1694609197085, "lng": -3.823580580291502}}}, "icon": "https://maps.gstatic.com/mapfiles/place_api/icons/v1/png_71/gas_station-71.png", "icon_background_color": "#909CE1", "icon_mask_base_uri": "https://maps.gstatic.com/mapfiles/place_api/icons/v2/gas_pinlet", "international_phone_number": "+34 918 16 70 63", "name": "EnergySalas", "opening_hours": {"open_now": false}, "place_id": "ChIJiyYg4gb0QQ0RmSrk-3E_DGM", "plus_code": {"compound_code": "55CH+94 Casarrubuelos, Spain", "global_code": "8CGR55CH+94"}, "rating": 4.3, "reference": "ChIJiyYg4gb0QQ0RmSrk-3E_DGM", "scope": "GOOGLE", "types": ["gas_station", "point_of_interest", "establishment"], "user_ratings_total": 4, "vicinity": "Calle de la Inmaculada, 43, Bajo, Casarrubuelos"}, {"business_status": "OPERATIONAL", "geometry": {"location": {"lat": 40.2448755, "lng": -3.7845208}, "viewport": {"northeast": {"lat": 40.24617733029149, "lng": -3.783289919708497}, "southwest": {"lat": 40.2434793697085, "lng": -3.785987880291502}}}, "icon": "https://maps.gstatic.com/mapfiles/place_api/icons/v1/png_71/gas_station-71.png", "icon_background_color": "#909CE1", "icon_mask_base_uri": "https://maps.gstatic.com/mapfiles/place_api/icons/v2/gas_pinlet", "international_phone_number": "+34 953 90 00 09", "name": "Petroprix", "opening_hours": {"open_now": true}, "place_id": "ChIJ7cBo0J_1QQ0RPgpn-meZB_s", "plus_code": {"compound_code": "66V8+X5 Parla, Spain", "global_code": "8CGR66V8+X5"}, "rating": 2.7, "reference": "ChIJ7cBo0J_1QQ0RPgpn-meZB_s", "scope": "GOOGLE", "types": ["gas_station", "point_of_interest", "establishment"], "user_ratings_total": 6, "vicinity": "Bulevar John Deere, s/n Polígono UE-1 M2 Sector 5, Suelo 2, Parla"}, {"business_status": "OPERATIONAL", "geometry": {"location": {"lat": 40.2435733, "lng": -3.777938999999999}, "viewport": {"northeast": {"lat": 40.2447754302915, "lng": -3.776635369708497}, "southwest": {"lat": 40.24207746970851, "lng": -3.779333330291502}}}, "icon": "https://maps.gstatic.com/mapfiles/place_api/icons/v1/png_71/gas_station-71.png", "icon_background_color": "#909CE1", "icon_mask_base_uri": "https://maps.gstatic.com/mapfiles/place_api/icons/v2/gas_pinlet", "international_phone_number": "+34 689 37 80 48", "name": "Shell Parla", "opening_hours": {"open_now": true}, "photos": [{"height": 900, "html_attributions": ["<a href=\"https://maps.google.com/maps/contrib/104937636673524778840\">Shell Parla</a>"], "photo_reference": "AWn5SU6aLh2XtX2UIUF6oZyebUtimSV1JPGTRiPF1wdPkHdoId8qqf62Mi4W8ICgl7Er0CtxWpwEUPsdxbB1RWvUOwgHoEYsm5s1kWhDXhCZ0zIEb5T4gqzrA9Bt28F4eJW6q52Tg6PQI2VD8AxF15bDZpSRQiRRfAnkG2c41qQGxu8shuqP42doe5Z_Pn3rt81EuWMCn5PCEBZQiNo1sSd2UK9XK15yCbHwEq-jvjQIGqjnhDtfyCOV1rXb_pm_Bih_pyxfhycj1HOCuxxG6IyV6iCgR1nP5-PmXJIQJSG_LJ7MlUTQdLGJyTcC7fKx3FJRydMmV5dXOLU", "width": 1600}], "place_id": "ChIJf8rdOCz1QQ0RGEcieHzXOpo", "plus_code": {"compound_code": "66VC+CR Parla, Spain", "global_code": "8CGR66VC+CR"}, "rating": 3.7, "reference": "ChIJf8rdOCz1QQ0RGEcieHzXOpo", "scope": "GOOGLE", "types": ["gas_station", "point_of_interest", "establishment"], "user_ratings_total": 445, "vicinity": "Avenida de Las Lagunas, 1, Parla"}, {"business_status": "OPERATIONAL", "geometry": {"location": {"lat": 40.2335395, "lng": -3.8406149}, "viewport": {"northeast": {"lat": 40.23489058029151, "lng": -3.839287619708497}, "southwest": {"lat": 40.23219261970851, "lng": -3.841985580291501}}}, "icon": "https://maps.gstatic.com/mapfiles/place_api/icons/v1/png_71/gas_station-71.png", "icon_background_color": "#909CE1", "icon_mask_base_uri": "https://maps.gstatic.com/mapfiles/place_api/icons/v2/gas_pinlet", "name": "CEPSA HUMANES", "place_id": "ChIJgwpcFwDzQQ0R_r1zEqrwDek", "plus_code": {"compound_code": "65M5+CQ Humanes de Madrid, Spain", "global_code": "8CGR65M5+CQ"}, "rating": 2.3, "reference": "ChIJgwpcFwDzQQ0R_r1zEqrwDek", "scope": "GOOGLE", "types": ["gas_station", "point_of_interest", "establishment"], "user_ratings_total": 3, "vicinity": "Calle de Griñon, 38, Humanes de Madrid"}]