[{"business_status": "OPERATIONAL", "geometry": {"location": {"lat": 40.8581339, "lng": -3.710262}, "viewport": {"northeast": {"lat": 40.8594834302915, "lng": -3.708913219708498}, "southwest": {"lat": 40.8567854697085, "lng": -3.711611180291503}}}, "icon": "https://maps.gstatic.com/mapfiles/place_api/icons/v1/png_71/parking-71.png", "icon_background_color": "#7B9EB0", "icon_mask_base_uri": "https://maps.gstatic.com/mapfiles/place_api/icons/v2/parking_pinlet", "name": "Aparcamiento Público", "place_id": "ChIJf9LFjRTfQw0RD1I3tPCwXVQ", "plus_code": {"compound_code": "V75Q+7V Bustarviejo, Spain", "global_code": "8CGRV75Q+7V"}, "reference": "ChIJf9LFjRTfQw0RD1I3tPCwXVQ", "scope": "GOOGLE", "types": ["parking", "point_of_interest", "establishment"], "vicinity": "Calle Real, 17, Bustarviejo"}, {"business_status": "OPERATIONAL", "geometry": {"location": {"lat": 40.8584425, "lng": -3.710686}, "viewport": {"northeast": {"lat": 40.8597247302915, "lng": -3.709249219708497}, "southwest": {"lat": 40.8570267697085, "lng": -3.711947180291502}}}, "icon": "https://maps.gstatic.com/mapfiles/place_api/icons/v1/png_71/parking-71.png", "icon_background_color": "#7B9EB0", "icon_mask_base_uri": "https://maps.gstatic.com/mapfiles/place_api/icons/v2/parking_pinlet", "name": "Aparcamiento sin Asfaltar", "photos": [{"height": 2160, "html_attributions": ["<a href=\"https://maps.google.com/maps/contrib/101100860583643275450\">DT</a>"], "photo_reference": "AWn5SU4kfPJ4S1RIJh9Z8wNcsVLsdukKe4BgWKbwvhdAhOANhVFwhMU9GY8HSccx_2uFRHi5gV1FE3kNT3E6gw_yf-G7M609_-QpjKAuj0TPOocKDEJdH4CZQUTam4dFtaUwnfLFN9UowF6Jj-7rTsXOk7MZUg8Cgk8og8DrPDb8P47aHFMds1eFwTmwHflGOT8vI8Rb8EBK971B_l2pKD6cDqtZBWklhsvcMrcskjIgKQ6dVwRLv0nLx-xgQv9VBuLnOSxfLy7Z5X-2-kMZSCaaUi2SkGPhG6jh-THA9uRKZt2DfFTjylUcPARBg2RTqdJnwZ4HjZt9w2iXOxdfwGpeVJ3ktUSThR70y70JEM0NhmjjTkd-4KtzembmZJmrbG4mTx3SSfyQWcHw6ljPTRNbAemrCJ43O57-kVGwDUPc6W-zpU5rT24S5ArJcM_1HubEJ1XrOyF18y7zhcgWbWa9hNpBf0bJNP6loS5ekfQG5FzcX08Qlxp7US0KlRYnAAQM-1vMjj_ojVkFXVlnCxqvxX-fMhtT0NgtbciOnqQUHnUkOfe1ID7w0fFg4HXH5PFOrCCmxfozQY0lFtR5bPt-AKI9z7m13x5xZrM7j8yb9nh39y8aRfeOo046UpdCgOf5eGBuPQ", "width": 2160}], "place_id": "ChIJ3ankRxPfQw0RIRsFBiorfYQ", "plus_code": {"compound_code": "V75Q+9P Bustarviejo, Spain", "global_code": "8CGRV75Q+9P"}, "rating": 5, "reference": "ChIJ3ankRxPfQw0RIRsFBiorfYQ", "scope": "GOOGLE", "types": ["parking", "point_of_interest", "establishment"], "user_ratings_total": 1, "vicinity": "Calle de la Lechuga, 18, Bustarviejo"}, {"business_status": "OPERATIONAL", "geometry": {"location": {"lat": 40.8584549, "lng": -3.708602899999999}, "viewport": {"northeast": {"lat": 40.8598496302915, "lng": -3.707297719708497}, "southwest": {"lat": 40.8571516697085, "lng": -3.709995680291501}}}, "icon": "https://maps.gstatic.com/mapfiles/place_api/icons/v1/png_71/parking-71.png", "icon_background_color": "#7B9EB0", "icon_mask_base_uri": "https://maps.gstatic.com/mapfiles/place_api/icons/v2/parking_pinlet", "name": "Aparcamiento Público", "opening_hours": {"open_now": true}, "photos": [{"height": 891, "html_attributions": ["<a href=\"https://maps.google.com/maps/contrib/101100860583643275450\">DT</a>"], "photo_reference": "AWn5SU4SMzCbVRRRbtCWPgVsLBNXqrwtpGKPjHY8b73qjiLeaodgSBee24XFQKniFkU3lzz18ac6ku_Hlv4Fgag7J_bzMqtiv8pxSY6sUv7Yo-Aduma6HrrBMITWTctf1vYvGvv1AMNt-3TuDiOx2ZGra9gQQ7eYtpP4zCm6YUwh8V4_dHgdNNEOs4PPPuw_25AOGjVDl3_RPMDkL0onWAKhgIteghlt1EJ8RecqvyHhP2NMDJkLVMBFm331kfmjhHVo7GnswdE_rBHP6dnkoQo3oChBxJffKbTauHUrff-FVddd79ib-19NeJre6CR4kIXAPaKuFjIzCFTdxe_dDyjhyfbLQAAjWmKyzaUXOJBZihBm_rpYvKHaFKhqtw3nI3mSzSa4a1h76bsCrwcIlPKsE5dWcCy45azzNvf9D5HWCHssyd04eKfrUJuK0hmMHUAcOqhYECOMUynCrYzsC1oiiFifeZkondMkGDSnRcU7K5hRVvmzWA6uyhJUa_S8TSGLQ37RnFCX47mv_RNOdz4sX7VJ_z_HPwIcr8Tdz1Anf1vBlpTq_3_NmSzaC0A-sk_03kRyhntgAc4OPgX3R3IpzMBo3wOWbpJMT6cT8BVK6xagTiIzTt5-3u-HrmkO-Gbw5bQ-TU0F", "width": 720}], "place_id": "ChIJuQ1YizHfQw0RfQDaj_fEPEQ", "plus_code": {"compound_code": "V75R+9H Bustarviejo, Spain", "global_code": "8CGRV75R+9H"}, "rating": 4.5, "reference": "ChIJuQ1YizHfQw0RfQDaj_fEPEQ", "scope": "GOOGLE", "types": ["parking", "point_of_interest", "establishment"], "user_ratings_total": 4, "vicinity": "Calle Real, 26, Bustarviejo"}, {"business_status": "OPERATIONAL", "geometry": {"location": {"lat": 40.85748239999999, "lng": -3.7127766}, "viewport": {"northeast": {"lat": 40.8589665802915, "lng": -3.711559719708498}, "southwest": {"lat": 40.8562686197085, "lng": -3.714257680291503}}}, "icon": "https://maps.gstatic.com/mapfiles/place_api/icons/v1/png_71/parking-71.png", "icon_background_color": "#7B9EB0", "icon_mask_base_uri": "https://maps.gstatic.com/mapfiles/place_api/icons/v2/parking_pinlet", "name": "Aparcamiento municipal gratuito", "place_id": "ChIJ0ZtgfQDfQw0R1_FNVxT936k", "plus_code": {"compound_code": "V74P+XV Bustarviejo, Spain", "global_code": "8CGRV74P+XV"}, "reference": "ChIJ0ZtgfQDfQw0R1_FNVxT936k", "scope": "GOOGLE", "types": ["parking", "point_of_interest", "establishment"], "vicinity": "Bustarviejo"}, {"business_status": "OPERATIONAL", "geometry": {"location": {"lat": 40.85547890000001, "lng": -3.7244027}, "viewport": {"northeast": {"lat": 40.85690323029151, "lng": -3.723108219708498}, "southwest": {"lat": 40.85420526970851, "lng": -3.725806180291502}}}, "icon": "https://maps.gstatic.com/mapfiles/place_api/icons/v1/png_71/parking-71.png", "icon_background_color": "#7B9EB0", "icon_mask_base_uri": "https://maps.gstatic.com/mapfiles/place_api/icons/v2/parking_pinlet", "name": "Calle Cuesta del Cantón, 59 Parking", "photos": [{"height": 3000, "html_attributions": ["<a href=\"https://maps.google.com/maps/contrib/114022873146782192900\">Carol Castillo</a>"], "photo_reference": "AWn5SU7I49rdI2U4HkQ10MwpmhCPI2xQvNs6daZl42sh7HmQ9mN3HtiCVVAV0Tneit8hcqQ3h7iGnqiOYsWs90hQrK79aDMYkVlZNm72XV0TXXhFuMzr6q028htMMTbpE-pqwa4gASb_asegrnTiBkR_DWsmk0U3C2sp4t3nEAJrkBssD0IkoBPu-JlsRE5OZmg_wpjqCsbTFqDFOEsYF0Hpj2SuxGVHrwomcp8ku40ZgtcvVubNLecOM4wQpknI-C0mUVKgjSCr3LEQc0rjtRiZQz6JgkenHsUj9fJG37C-kFbGnI9XW9EiUNjaitKwZAecJ35oBT8BLdRSdiNQ7C530YqVG9bKlpmucIvtFMifOZ9G936tWCe7xGfmCahjQ8TbgUptY5OyKIi2VoKZTOEcmhhZIGMIVKQRXv3OwBVWwhHiD5uQr2ALIs89Qh0xBNTfTabhTNvHEhziKAFMi4kap8v655AC8kkZfuIuT1kgf9tN-4yZZPdgTW3re6Nt7UaFw6wL89A3o-gP8T_YkXKbsAZ9h6xdVG5DI8btuGlvF7vqnfM4856mnSZpf9aMd0D1EljZ49WkKltZmn1uB_1zS0uDenQNpxyG0sqBz1uleSjxhq9Fmq1z9ZjLHzIRlEGB", "width": 4000}], "place_id": "ChIJU8Pm3XTfQw0RVVBMctEjaZA", "plus_code": {"compound_code": "V74G+56 Bustarviejo, Spain", "global_code": "8CGRV74G+56"}, "rating": 3.6, "reference": "ChIJU8Pm3XTfQw0RVVBMctEjaZA", "scope": "GOOGLE", "types": ["parking", "point_of_interest", "establishment"], "user_ratings_total": 5, "vicinity": "Calle Cuesta del Cantón, 59, Bustarviejo"}, {"business_status": "OPERATIONAL", "geometry": {"location": {"lat": 40.8551784, "lng": -3.7304198}, "viewport": {"northeast": {"lat": 40.8566096802915, "lng": -3.729264919708498}, "southwest": {"lat": 40.8539117197085, "lng": -3.731962880291503}}}, "icon": "https://maps.gstatic.com/mapfiles/place_api/icons/v1/png_71/parking-71.png", "icon_background_color": "#7B9EB0", "icon_mask_base_uri": "https://maps.gstatic.com/mapfiles/place_api/icons/v2/parking_pinlet", "name": "Calle del Cristo, 100 Parking", "place_id": "ChIJf4OY-3bfQw0RNnJFsNjjBak", "plus_code": {"compound_code": "V749+3R Bustarviejo, Spain", "global_code": "8CGRV749+3R"}, "reference": "ChIJf4OY-3bfQw0RNnJFsNjjBak", "scope": "GOOGLE", "types": ["parking", "point_of_interest", "establishment"], "vicinity": "Calle del Cristo, 100, Bustarviejo"}, {"business_status": "OPERATIONAL", "geometry": {"location": {"lat": 40.871407, "lng": -3.6658914}, "viewport": {"northeast": {"lat": 40.8726628302915, "lng": -3.664504019708498}, "southwest": {"lat": 40.8699648697085, "lng": -3.667201980291502}}}, "icon": "https://maps.gstatic.com/mapfiles/place_api/icons/v1/png_71/parking-71.png", "icon_background_color": "#7B9EB0", "icon_mask_base_uri": "https://maps.gstatic.com/mapfiles/place_api/icons/v2/parking_pinlet", "name": "Aparcamiento Público Av. Desvío", "photos": [{"height": 1800, "html_attributions": ["<a href=\"https://maps.google.com/maps/contrib/104089933018920657333\">Kevin Aquino</a>"], "photo_reference": "AWn5SU5s90QVECiX97ViJcIerVI023CswxaArZcZBALRnXq6o-e6nSliAW7dXn9zAfjDZ4P9FeHcAsDsZVkO8WRJnqfEQpBo4Z_-7ZIeI5L26va2H9ccs15ExVQSysRy2zJ-LvqpE9m3gnIVxKAL1WngcfFGGFc8BaQc13usxLN-_2dMksEOs5hZDFwOXN221XN_QgbAOxleT2AGg2xy5tOOdcotxvwA8I0BgLyL5LFbHPT0dM2yj8dkVenBRLdB-FdDIf6VWTaZpG86RZ0KxStgiRIujdEAsP1KsrCQuDG-b-Sdg-KjHJ16e5I6ag9p9-eOu-Xy1zC9wywCtuUcX72MtfniO0C-MCet7vmbh4wzjXLTWoU34Q0djk8hbBP9rx93iV_namVjGEPV0rmvdDMeu14VPLzmQYiOkc4ngFfDg4MmC1JFtVhDlZ7U1ILaphgHX5LBmkwd6DRxV01400-B3WZNeB9LVkZjfyyUH8hVeij2DTEcbt3leRYcEHNjOgJY4baTP3mKOGVPlF-2Hvdauq4BO24ITe5xmW3dpt6vaO6qZYn0pPvU09cejSUAOGhEN3bK9uz4j81y726jjZlKnLg4448Rw7xtrIA1cD1jn4SdvCRnR7CAheslwbsBIhDs8Aq2YA", "width": 4000}], "place_id": "ChIJ0cSMfwDfQw0R0TpA97MsXwA", "plus_code": {"compound_code": "V8CM+HJ Valdemanco, Spain", "global_code": "8CGRV8CM+HJ"}, "rating": 4.5, "reference": "ChIJ0cSMfwDfQw0R0TpA97MsXwA", "scope": "GOOGLE", "types": ["parking", "point_of_interest", "establishment"], "user_ratings_total": 2, "vicinity": "Avenida del Desvío, Valdemanco"}, {"business_status": "OPERATIONAL", "geometry": {"location": {"lat": 40.87034969999999, "lng": -3.6618142}, "viewport": {"northeast": {"lat": 40.8716894302915, "lng": -3.660575619708498}, "southwest": {"lat": 40.8689914697085, "lng": -3.663273580291502}}}, "icon": "https://maps.gstatic.com/mapfiles/place_api/icons/v1/png_71/parking-71.png", "icon_background_color": "#7B9EB0", "icon_mask_base_uri": "https://maps.gstatic.com/mapfiles/place_api/icons/v2/parking_pinlet", "name": "Aparcamiento Público", "place_id": "ChIJu1nnYADdQw0RUNxyVStp6qc", "plus_code": {"compound_code": "V8CQ+47 Valdemanco, Spain", "global_code": "8CGRV8CQ+47"}, "reference": "ChIJu1nnYADdQw0RUNxyVStp6qc", "scope": "GOOGLE", "types": ["parking", "point_of_interest", "establishment"], "vicinity": "M-610, 2, Valdemanco"}, {"business_status": "OPERATIONAL", "geometry": {"location": {"lat": 40.8711691, "lng": -3.657216499999999}, "viewport": {"northeast": {"lat": 40.8725171802915, "lng": -3.655868919708497}, "southwest": {"lat": 40.8698192197085, "lng": -3.658566880291501}}}, "icon": "https://maps.gstatic.com/mapfiles/place_api/icons/v1/png_71/parking-71.png", "icon_background_color": "#7B9EB0", "icon_mask_base_uri": "https://maps.gstatic.com/mapfiles/place_api/icons/v2/parking_pinlet", "name": "Parking Valdemanco", "place_id": "ChIJWdNCSAfdQw0Roa_cMjhttT8", "plus_code": {"compound_code": "V8CV+F4 Valdemanco, Spain", "global_code": "8CGRV8CV+F4"}, "rating": 4.7, "reference": "ChIJWdNCSAfdQw0Roa_cMjhttT8", "scope": "GOOGLE", "types": ["parking", "point_of_interest", "establishment"], "user_ratings_total": 3, "vicinity": "Calle Diseminado, 5001, Valdemanco"}, {"business_status": "OPERATIONAL", "geometry": {"location": {"lat": 40.8231781, "lng": -3.6775496}, "viewport": {"northeast": {"lat": 40.8245440302915, "lng": -3.676209819708498}, "southwest": {"lat": 40.8218460697085, "lng": -3.678907780291502}}}, "icon": "https://maps.gstatic.com/mapfiles/place_api/icons/v1/png_71/parking-71.png", "icon_background_color": "#7B9EB0", "icon_mask_base_uri": "https://maps.gstatic.com/mapfiles/place_api/icons/v2/parking_pinlet", "name": "Aparcamiento de tierra", "place_id": "ChIJ58cKBjHfQw0RxhH3otMy29g", "plus_code": {"compound_code": "R8FC+7X Navalafuente, Spain", "global_code": "8CGRR8FC+7X"}, "reference": "ChIJ58cKBjHfQw0RxhH3otMy29g", "scope": "GOOGLE", "types": ["parking", "point_of_interest", "establishment"], "vicinity": "Navalafuente"}, {"business_status": "OPERATIONAL", "geometry": {"location": {"lat": 40.8707477, "lng": -3.7645042}, "viewport": {"northeast": {"lat": 40.8721125802915, "lng": -3.763136069708498}, "southwest": {"lat": 40.86941461970851, "lng": -3.765834030291503}}}, "icon": "https://maps.gstatic.com/mapfiles/place_api/icons/v1/png_71/parking-71.png", "icon_background_color": "#7B9EB0", "icon_mask_base_uri": "https://maps.gstatic.com/mapfiles/place_api/icons/v2/parking_pinlet", "name": "Aparcamiento Canencia", "photos": [{"height": 3072, "html_attributions": ["<a href=\"https://maps.google.com/maps/contrib/115806689205313313028\">Fernando CA</a>"], "photo_reference": "AWn5SU71146PNbDQ3Kw9pTiVSfTr2CvQFDGLR-wxm7PGBvBSJmPgx3sFBwUypv_NtFw8fRaybNITBjGZ9bd4SaQdCtV_2hW1BzqSmmJIDP3xdBqZqo9_T0QPNNj4dtAVniBL9uBUf68dTKxEneZJUofT2ldDJxvlppVommYLrmLA23Sp4bRiFbR5cdSAR5gP2Cv_8KUoRBfbCy9duAZWubuR1AxJRPf26vwO2I6ydJ7aRkxO4WGbSArnuTxwb2LosQoPVoxNN2iJmi8N7c84zNm9Xg0QshQMJ6hDrGQRy0SvfNib6h_AotnR-F9G0VZRBGpcoqVIQEj4ubI9eYEkZO_dQ7xGZKLgR6NpUisTmdriF8MKspFSkImS6pEaLKyXp8xRw5V55TOZGWcSttsB8DnduOgtoY17PtbLbs9nXutyCVSrOx13r0sCbI22OO02ayRXudjZ4LgCuOfiiTk9_loXTsOoYjq33Zgz57IEqxpjps8KibMVq33B4wpSc_sfSbbhS_sIfg40nkjTuIjEzRatXwz0a6VNwFOqFhZUHHXunsOsx-bGZQ2A7TJbJGVoB5cRQkM68pycv0CpJ6mS8Xb3112Un9hI9ybwyZO_gnAefqVGthdRiFFZPjE15dC83BomwEbW8KuAv9fOsp_uUbrSrHJmkXw", "width": 4096}], "place_id": "ChIJgfHivexhQQ0RaiFFfqAHyKc", "plus_code": {"compound_code": "V6CP+75 Canencia, Spain", "global_code": "8CGRV6CP+75"}, "rating": 4.5, "reference": "ChIJgfHivexhQQ0RaiFFfqAHyKc", "scope": "GOOGLE", "types": ["parking", "point_of_interest", "establishment"], "user_ratings_total": 69, "vicinity": "Calle Cantarranas, Canencia"}, {"business_status": "OPERATIONAL", "geometry": {"location": {"lat": 40.82224799999999, "lng": -3.6771987}, "viewport": {"northeast": {"lat": 40.8235967802915, "lng": -3.675874469708498}, "southwest": {"lat": 40.8208988197085, "lng": -3.678572430291502}}}, "icon": "https://maps.gstatic.com/mapfiles/place_api/icons/v1/png_71/parking-71.png", "icon_background_color": "#7B9EB0", "icon_mask_base_uri": "https://maps.gstatic.com/mapfiles/place_api/icons/v2/parking_pinlet", "name": "Aparcamiento público", "photos": [{"height": 1836, "html_attributions": ["<a href=\"https://maps.google.com/maps/contrib/100308903178243622224\">Gabriel Manquillo</a>"], "photo_reference": "AWn5SU5rO2KoNBivpLCW4WGYKMMWZ2cVBZDCoUhc0mqbHzlMkbPDapDKBv1mPElh2VjkNKP_3lYk9TyOLiC8AuqSCyDd6AU0H-obbKitbb-pmZ8Tdwsj2izLusvTK0cO51MnLKTVUf7_xzEtGkGejq0j0T0u3v5QAFTaSAYpfxhQBiFqstBFuoSq0pMABf18wmtVz3Ak7dvgnAF1o4T8-Gba8kH-ACYMqRG_TwWQ3C3hh8E8bkrFC4pvwUgZC3kAyvl3ARGANlEDUXBhB7DdRNp0bZd7AoSOC6cWG2TTW_VhieMvhayc635opJAGTj99XbLFgUvQp8lf6Le7XQ1xcOTJdf99aKgGdvuCGOEAQwyXAkH0XUgSOgWfhaoYWFts9dSmDdsMNSoGBDb7yt3ucSJJXIqn59oDybFtgnARTXB67OUhg05fiEyvtXxj2_Hg9KGNXGy00jqHa1YbsgbaJ8uHTGu5d10R38qW7o9YXNtxaOjxjI5tXJUgwWtPqc6y51xNb52Oxdv3XGrTA85Tc2LV0PLyaTRe88vW2sX-14F63krQx4hVHWkqtULh06-0SrSbBa6SU-PR4syWBAtS57EebRsmW6rNmj0tS2IyzbgF7cFxzu93vixzsqmzYwP9C8LLoSW6AKGkJWqUwG23Vs-M_8QE-qQ", "width": 3264}], "place_id": "ChIJkQDt3DzfQw0R8-jrJ48VgS0", "plus_code": {"compound_code": "R8CF+V4 Navalafuente, Spain", "global_code": "8CGRR8CF+V4"}, "rating": 4.5, "reference": "ChIJkQDt3DzfQw0R8-jrJ48VgS0", "scope": "GOOGLE", "types": ["parking", "point_of_interest", "establishment"], "user_ratings_total": 20, "vicinity": "Calle Eras de Arriba, 1, Navalafuente"}, {"business_status": "OPERATIONAL", "geometry": {"location": {"lat": 40.90951299999999, "lng": -3.6920748}, "viewport": {"northeast": {"lat": 40.91082953029149, "lng": -3.690718369708498}, "southwest": {"lat": 40.90813156970849, "lng": -3.693416330291502}}}, "icon": "https://maps.gstatic.com/mapfiles/place_api/icons/v1/png_71/parking-71.png", "icon_background_color": "#7B9EB0", "icon_mask_base_uri": "https://maps.gstatic.com/mapfiles/place_api/icons/v2/parking_pinlet", "name": "Aparcamiento de la Ermita", "place_id": "ChIJ2VkFpDLhQw0Rd5UMgJ1fv2Y", "plus_code": {"compound_code": "W855+R5 Garganta de los Montes, Spain", "global_code": "8CGRW855+R5"}, "rating": 3, "reference": "ChIJ2VkFpDLhQw0Rd5UMgJ1fv2Y", "scope": "GOOGLE", "types": ["parking", "point_of_interest", "establishment"], "user_ratings_total": 1, "vicinity": "Camino de Valdemanco, Garganta de los Montes"}, {"business_status": "OPERATIONAL", "geometry": {"location": {"lat": 40.8666048, "lng": -3.6292219}, "viewport": {"northeast": {"lat": 40.8678134302915, "lng": -3.627933269708498}, "southwest": {"lat": 40.8651154697085, "lng": -3.630631230291502}}}, "icon": "https://maps.gstatic.com/mapfiles/place_api/icons/v1/png_71/parking-71.png", "icon_background_color": "#7B9EB0", "icon_mask_base_uri": "https://maps.gstatic.com/mapfiles/place_api/icons/v2/parking_pinlet", "name": "Parking Sierra de la Cabrera", "photos": [{"height": 3024, "html_attributions": ["<a href=\"https://maps.google.com/maps/contrib/111859382299130482478\">Maria Gonzalez Molina</a>"], "photo_reference": "AWn5SU7GPOy14d-BBZsxB3gkB1mNE3eNkaGJWPL1HRMHE-mdL8zDDs8MsK6Di1XXg5FDorqyWNvcwVtbR-hQJlBYdCAH1ZxUpFne7zMe6uiuASmZo-6bSGk1FD4hOEPByPLmt2tVWu61hyOwH0B6hTaG_1kYlidJOrDfWGDbeWCjrOZpUbq8DJg5PXvB06Xi2pW4TYOI0KeQF60W7efKn8HFaykrHTtjQuq4vleCvaD4I4HioJkH1ZaQWGVGCHot-ibvB-USAK3bwzfZNDoA-8d73JWbhI2_I6SaRvbvAXBNZ624_FY9TIcFlZXkDxESK5siwINDYYQZq2_UPOrLJ7powWPHOl1p4DWZweBW63Yokip60PqSFtqf2PB3DN5rQRdJnG1qnNutrfAn6UEPnQh8yS2a3PUnrTTM7O1WyOJnB35rQMyDwyTClXifw7Ht1Dkzxebd-SFLh9BUfVFTY1ioLVITtmHP_mTnJ_9pAJ7sK8S94VRbXZg8Tb1ntnJY3BVcX0ZXGAnsmFP8fbdK2bOPqohpY63KJgFws9hP0j8eJpUT1DrNFkGrFxUoysVbZTe37iWcDVFOsppF6wVfwFqAzi-nIcNwP4NwGkiNZCEEPvbK3H4zuaanfL_NUWncLC8nRvihhA", "width": 4032}], "place_id": "ChIJwaKhVqrdQw0RmHxPR_dCHhs", "plus_code": {"compound_code": "V98C+J8 La Cabrera, Spain", "global_code": "8CGRV98C+J8"}, "rating": 4.4, "reference": "ChIJwaKhVqrdQw0RmHxPR_dCHhs", "scope": "GOOGLE", "types": ["parking", "point_of_interest", "establishment"], "user_ratings_total": 30, "vicinity": "Madrid, La Cabrera"}]