[{"business_status": "OPERATIONAL", "geometry": {"location": {"lat": 40.1040148, "lng": -3.4846191}, "viewport": {"northeast": {"lat": 40.1053641802915, "lng": -3.483297819708498}, "southwest": {"lat": 40.1026662197085, "lng": -3.485995780291502}}}, "icon": "https://maps.gstatic.com/mapfiles/place_api/icons/v1/png_71/shopping-71.png", "icon_background_color": "#4B96F3", "icon_mask_base_uri": "https://maps.gstatic.com/mapfiles/place_api/icons/v2/convenience_pinlet", "international_phone_number": "+34 654 90 35 53", "name": "Casa Anselmo", "opening_hours": {"open_now": false}, "photos": [{"height": 4000, "html_attributions": ["<a href=\"https://maps.google.com/maps/contrib/118259025066605774819\">Casa Anselmo</a>"], "photo_reference": "AWn5SU5TvRccve_DcP5gufwH-PX-T0jYR0x2BLbkSSC4Ql9RDo0iBhevdZVDdH80oYiBnBSBBqHDKivwi09nKb8IZSfgLEwi4LW3juuToWUpDasAIjhfWlyvrgDOW052Zy7P9JGrvwF0BNOXiQzONuRiGbNtJkooqmNDAjer9Ymlp99NtuiBHMWWkqUmy9mJhFXJ_SUjNc1AYum27pFdL7fC17abFx1NpsiRCqppQbAa3xWDhTRm_Ss-shD7aJEHyYhOKbi5rr0mgWtHS4qX3zeEyEJWkCJpFESy2axqh5d8PUR3mv7FtdLY9-P9CPm0Gfc-fHlYpzA85B8", "width": 3000}], "place_id": "ChIJXUopMS0TQg0RX4mlx1eyDTw", "plus_code": {"compound_code": "4G38+J5 Villaconejos, Spain", "global_code": "8CGR4G38+J5"}, "rating": 5, "reference": "ChIJXUopMS0TQg0RX4mlx1eyDTw", "scope": "GOOGLE", "types": ["convenience_store", "store", "food", "point_of_interest", "establishment"], "user_ratings_total": 4, "vicinity": "Plaza Mayor, 7, Villaconejos"}, {"business_status": "OPERATIONAL", "geometry": {"location": {"lat": 40.07763, "lng": -3.48675}, "viewport": {"northeast": {"lat": 40.07889678029149, "lng": -3.485427369708498}, "southwest": {"lat": 40.0761988197085, "lng": -3.488125330291502}}}, "icon": "https://maps.gstatic.com/mapfiles/place_api/icons/v1/png_71/shopping-71.png", "icon_background_color": "#4B96F3", "icon_mask_base_uri": "https://maps.gstatic.com/mapfiles/place_api/icons/v2/convenience_pinlet", "international_phone_number": "+34 624 63 85 03", "name": "La Cociana", "opening_hours": {"open_now": false}, "photos": [{"height": 1500, "html_attributions": ["<a href=\"https://maps.google.com/maps/contrib/113177883928157296301\">La Cociana</a>"], "photo_reference": "AWn5SU4ae3c01s1S1lTeoJnLTxRIJg9gqWjCpUe9VV1hypFCBH7z6gpJbFxhTdfghQUOlDeEPhZ5VIaJJ87MFYDWKdc6Bs2_NYvStg5s0pCxhdUDxFfqNRLKAGsBjVnA9_kKNaxfCj3Nja8TbkqYhGBzXGuN5CjzGmDkdSOmOc_goCFOsLONVjan28yRzwmXqLehQibVoiYmP--MdplMFiyxCYsFB_81nELdJS8io89IF3UyJu12UnnTXhNx3-O28GMXh15jiGPWzyuA-umDwX42j9wHUmj4k9FP_c1vtmISkh7DXLFPLEAukrvWC5i4H7NRJ8n18ClzHaA", "width": 2000}], "place_id": "ChIJ1QxvUWMNQg0RNsIhyzXQSj8", "plus_code": {"compound_code": "3GH7+37 Urtajo, Spain", "global_code": "8CGR3GH7+37"}, "rating": 4.9, "reference": "ChIJ1QxvUWMNQg0RNsIhyzXQSj8", "scope": "GOOGLE", "types": ["convenience_store", "store", "restaurant", "food", "point_of_interest", "establishment"], "user_ratings_total": 90, "vicinity": "Avenida de Castilla, 2, Local 2 - Urb, Urtajo"}, {"business_status": "OPERATIONAL", "geometry": {"location": {"lat": 40.1402551, "lng": -3.421941}, "viewport": {"northeast": {"lat": 40.1416415302915, "lng": -3.420612519708498}, "southwest": {"lat": 40.1389435697085, "lng": -3.423310480291502}}}, "icon": "https://maps.gstatic.com/mapfiles/place_api/icons/v1/png_71/shopping-71.png", "icon_background_color": "#4B96F3", "icon_mask_base_uri": "https://maps.gstatic.com/mapfiles/place_api/icons/v2/convenience_pinlet", "name": "Productos de Chinchón", "place_id": "ChIJ0XhgFwATQg0RfJVKoT_ZgWo", "plus_code": {"compound_code": "4HRH+46 Chinchón, Spain", "global_code": "8CGR4HRH+46"}, "rating": 5, "reference": "ChIJ0XhgFwATQg0RfJVKoT_ZgWo", "scope": "GOOGLE", "types": ["convenience_store", "store", "food", "point_of_interest", "establishment"], "user_ratings_total": 1, "vicinity": "Calle Grande, 6, Chinchón"}, {"business_status": "OPERATIONAL", "geometry": {"location": {"lat": 40.14713649999999, "lng": -3.4283185}, "viewport": {"northeast": {"lat": 40.1484558302915, "lng": -3.426999319708498}, "southwest": {"lat": 40.1457578697085, "lng": -3.429697280291502}}}, "icon": "https://maps.gstatic.com/mapfiles/place_api/icons/v1/png_71/shopping-71.png", "icon_background_color": "#4B96F3", "icon_mask_base_uri": "https://maps.gstatic.com/mapfiles/place_api/icons/v2/convenience_pinlet", "name": "Mini Stop", "place_id": "ChIJ43IKQDATQg0RbbvYKisjgKw", "plus_code": {"compound_code": "4HWC+VM Chinchón, Spain", "global_code": "8CGR4HWC+VM"}, "rating": 1, "reference": "ChIJ43IKQDATQg0RbbvYKisjgKw", "scope": "GOOGLE", "types": ["convenience_store", "store", "food", "point_of_interest", "establishment"], "user_ratings_total": 2, "vicinity": "M-311, Pk 19, Chinchón"}]