[{"business_status": "OPERATIONAL", "geometry": {"location": {"lat": 40.703675, "lng": -3.424333}, "viewport": {"northeast": {"lat": 40.7050351802915, "lng": -3.423003169708497}, "southwest": {"lat": 40.7023372197085, "lng": -3.425701130291501}}}, "icon": "https://maps.gstatic.com/mapfiles/place_api/icons/v1/png_71/park-71.png", "icon_background_color": "#4DB546", "icon_mask_base_uri": "https://maps.gstatic.com/mapfiles/place_api/icons/v2/tree_pinlet", "international_phone_number": "+34 949 33 57 19", "name": "cash2mano", "opening_hours": {"open_now": false}, "place_id": "ChIJtYGQg9TJQw0RE7XLcyzIZd0", "plus_code": {"compound_code": "PH3G+F7 El Casar, Spain", "global_code": "8CGRPH3G+F7"}, "rating": 3.7, "reference": "ChIJtYGQg9TJQw0RE7XLcyzIZd0", "scope": "GOOGLE", "types": ["park", "point_of_interest", "establishment"], "user_ratings_total": 3, "vicinity": "Camino Valdenuño, 12, El Casar"}, {"business_status": "OPERATIONAL", "geometry": {"location": {"lat": 40.67462939999999, "lng": -3.4152111}, "viewport": {"northeast": {"lat": 40.6759125302915, "lng": -3.413920919708499}, "southwest": {"lat": 40.6732145697085, "lng": -3.416618880291503}}}, "icon": "https://maps.gstatic.com/mapfiles/place_api/icons/v1/png_71/park-71.png", "icon_background_color": "#4DB546", "icon_mask_base_uri": "https://maps.gstatic.com/mapfiles/place_api/icons/v2/tree_pinlet", "international_phone_number": "+34 949 10 10 42", "name": "Pipican Montecalderón", "opening_hours": {"open_now": true}, "photos": [{"height": 1080, "html_attributions": ["<a href=\"https://maps.google.com/maps/contrib/102540482757742383829\">Jose David Lopez Faraldo</a>"], "photo_reference": "AWn5SU5R1P3MMzO7WcMbCvfvnnOeQaogOmfimbqB4avk6qIPzR3mSyqQEgOX_VV0HwthSpZ5xnFYOFwmrcaGFc7x-A7gB5za1GBi4JK9PilZw25nxZAJ3Q8kU0-JdJ164FARP5xfRo176TuKsx-OgBRmgQrzYswvxFOg-jaXFdXICaldrWemdCx9KIJ1Z20kDHfc0lKjF1-qdX_HtGIQJXmfUmgyuonpgsDwMIxjuR-17svrtHp6siq5hqUX1rN-o510gmKW77BiCBr85FsPJVV30pFvVnrF7GtNZlZjSZpYZe0LvEtj6tIWarRB8VyX-exMuqgUf7I3XulaGcSkCNWqlOqOksxY80NtAHIVS0YRoihDZDTv91xoKI4E1x_8Pj2le3R5g4U1VJRvCiItqKYGlzus5-8C1O_HFyoO82w7cz1Mctfej_22lbsXL8SYs-6_aqZGL0lUnPq1O1AWHHNyp_ZIIQS1s2KlNBKe3jfeH_ZfPW2SB_bPQzbM5oGD6y4RmJKp086yXRMHxPmCegaYhTMIPLkQoOFC3xyfTIQuwTMsxfQ37hCxSoE_WtNw9Q-95xCMnmrEIMM1fslnQkZNbCdAq1Fu9WDaFm0ZgmqDxfn_U-jhWBtNKCBdTf_4lySF4d6Whg", "width": 1920}], "place_id": "ChIJfzxOrWe3Qw0R7kbOHe1cuoo", "plus_code": {"compound_code": "MHFM+VW Montecalderon, Spain", "global_code": "8CGRMHFM+VW"}, "rating": 4.4, "reference": "ChIJfzxOrWe3Qw0R7kbOHe1cuoo", "scope": "GOOGLE", "types": ["park", "point_of_interest", "establishment"], "user_ratings_total": 8, "vicinity": "Montecalderon"}, {"business_status": "OPERATIONAL", "geometry": {"location": {"lat": 40.67645329999999, "lng": -3.415055199999999}, "viewport": {"northeast": {"lat": 40.67780473029149, "lng": -3.413676219708498}, "southwest": {"lat": 40.67510676970849, "lng": -3.416374180291502}}}, "icon": "https://maps.gstatic.com/mapfiles/place_api/icons/v1/png_71/park-71.png", "icon_background_color": "#4DB546", "icon_mask_base_uri": "https://maps.gstatic.com/mapfiles/place_api/icons/v2/tree_pinlet", "name": "Ibáñez Park", "opening_hours": {"open_now": true}, "photos": [{"height": 4032, "html_attributions": ["<a href=\"https://maps.google.com/maps/contrib/110815523414085764010\">José Ramón Saura</a>"], "photo_reference": "AWn5SU6Lx-OswHqmy5CHTSXEEm_585FCKeF7_9TJCiJoL7-YwfD0hmWra0wZn2x8qY7a81IPR7kuGEGBmFKIfK787gD4fft1wCX2U-WIIDHHbku66HTBEx2Ds-9rLTIkaAAupYcNjlP4KU0-uHGaJ68x9HNKM_KYMvjeiWi4o4Hicotx3dh9yLoBRUo47MhvN2cEiTkJmd5ZTYkKG-l80xN8orp2UAVZ41H2msWXijRC_0rCsdorGtvHY1NuPJBYrRo51LIVDyuPwEOeCR1W0MKhKAfUqADLAjGEXq89hF3KyVENUbf6VhUVVhtnjsGlT47qWOJ_5XcuRiwiICTYoVUTKr4NAHRWGESi_bH_IZMtStjkVLtlXsjP27goE7eLX0T3cE-7EUa8AIG3YW1KO5JAIHsoyscwTfH-2ypCXqeALr6dtCotXQxoqtr7l4yN7rXfE5gnpopzNdzr-R5EhLdhMeoImem_fC5J0jBrt8s1conpZOod-Q1wKx2sQUL96ij4kBUO1jp3NdOaWClIvloxhMF6YMbW69qH2MBU1oYz998-4QD7CyDD47Q3J5n95CWuQUtQ6vAzHMxtCeh6ICe4Hvx7fCIKQ_JFjn-CPpLz5oI1aS5WrSED2GbPvv06wn_TOQ0WMteQ", "width": 3024}], "place_id": "ChIJ40P15BO3Qw0RyqMVMRnQ0uc", "plus_code": {"compound_code": "MHGM+HX El Casar, Spain", "global_code": "8CGRMHGM+HX"}, "rating": 5, "reference": "ChIJ40P15BO3Qw0RyqMVMRnQ0uc", "scope": "GOOGLE", "types": ["park", "point_of_interest", "establishment"], "user_ratings_total": 1, "vicinity": "Calle Blasco Ibáñez, 707, El Casar"}, {"business_status": "OPERATIONAL", "geometry": {"location": {"lat": 40.68073799999999, "lng": -3.4123388}, "viewport": {"northeast": {"lat": 40.6819761802915, "lng": -3.410947869708498}, "southwest": {"lat": 40.6792782197085, "lng": -3.413645830291502}}}, "icon": "https://maps.gstatic.com/mapfiles/place_api/icons/v1/png_71/park-71.png", "icon_background_color": "#4DB546", "icon_mask_base_uri": "https://maps.gstatic.com/mapfiles/place_api/icons/v2/tree_pinlet", "name": "Parque", "opening_hours": {"open_now": true}, "photos": [{"height": 3024, "html_attributions": ["<a href=\"https://maps.google.com/maps/contrib/110815523414085764010\">José Ramón Saura</a>"], "photo_reference": "AWn5SU4yyjJoTK7Wu7hlGhd8MhrmnhIL5ImvMBzBQ5z_do51fVvfyKGopbPDjXcf2qFfyaAedBzxX4_1z2tvXb_RMFZrvqotGxcJ86xPKmORbBlaqQRZUsVa2wcG_1NNB6E2Wsef298ByvaeoczmirOmxACef4i0F6O0BugFm1GyHCTNo8273qHmQ6dSpD3JC_uyLtH5qNyPCSKVAW5uRjThJ7GDvmsvbGzO0jBncRWpSvpmWBrXQSPU6bRkeeZz_ZcjrdWPPCeFhn4NG1WAWquwRxrxYg68_MmJJDCSUeeAwG1xBi3yrwrHUl3WD-8ygdxoMLnZkOcN8VmYpUql3WbaqHqSl3ygtUnWnRdFKtoGE16Phv_crLzstSTqg0lY1-Bxp7xTqjx7Mm7vg91VWLSnLpqlkELV_0V045BRyaq6yPgxfScNfrG2LldQhESxYJh7nDsNWXJxGyUsMgS0mx08Ht7ieuILfSUu-dEkJXxhuhF9KQQam2VkdfNBv3QHT03-jMby_hI8ZPwKBVdLVxsCU2yTtYOPINnaA-4SCAoItz8TvymuiPefdh_CiXXSl8stZ_w12BYGrupBWDJS54Lp9FQjl-UbjmiVgPHMkMayFb_P-t68WPCBY2rX4ofFtOqeMXKvLA", "width": 4032}], "place_id": "ChIJc2f29c23Qw0R6zuCDxL6NmM", "plus_code": {"compound_code": "MHJQ+73 Montecalderon, Spain", "global_code": "8CGRMHJQ+73"}, "rating": 4.3, "reference": "ChIJc2f29c23Qw0R6zuCDxL6NmM", "scope": "GOOGLE", "types": ["park", "point_of_interest", "establishment"], "user_ratings_total": 4, "vicinity": ""}, {"business_status": "OPERATIONAL", "geometry": {"location": {"lat": 40.68061950000001, "lng": -3.4158555}, "viewport": {"northeast": {"lat": 40.6818892302915, "lng": -3.414511369708499}, "southwest": {"lat": 40.6791912697085, "lng": -3.417209330291502}}}, "icon": "https://maps.gstatic.com/mapfiles/place_api/icons/v1/png_71/park-71.png", "icon_background_color": "#4DB546", "icon_mask_base_uri": "https://maps.gstatic.com/mapfiles/place_api/icons/v2/tree_pinlet", "name": "Montecalderón Park", "opening_hours": {"open_now": true}, "photos": [{"height": 4032, "html_attributions": ["<a href=\"https://maps.google.com/maps/contrib/110815523414085764010\">José Ramón Saura</a>"], "photo_reference": "AWn5SU65kKIEcqve_S7jgbxNZ0ecs4Jy_iwVICCHaFBogGYtCMxMpS1c68P50xmjLH0eaDW9Y19DQMONx9sZdDNeqdUl4xgm716rZYi0BzXIQIc1LzPPk7rm-sWs2ggvXXpVZhivlE5rpi5cMa0Z_vBSn7JIkETFcevAtku4V5B0SxqnVh3IbAbaI2IynkuqYr5BiumQcI509sN5XXE7L12xyyLtQvY1qfXqS1iQ83KhNUgEuenIwFVEY9hDFCgH7suj1_S9ItA09pmEeXPGPPvdvSYVwhZxnmBJKukqloDJCQq4rrP63ez-7R4Uopv6RUtiGKm-r9AY0Q-2oT6b-o_tpezDILFOpOvDgM5PblEnTFIzcMVngwCNyZacT4cQWFgyKViWh_eplrr8ut29wKwbNj0HUsnTStbKMGQ239ByQ3WTOPGOVe7R6KJK3iU1mWS_debbQX--z5nxQZ7jFm83m4L3HcvUy410NyYiGVRX75tdlnJw6i9WBgqqtKqFV4nGZot2pgR-J3Ja92SqmSDCrW878oJ7zGasdULCnU9E3YGp02ruHlFQ5UUPppg7aAAbRS56kPUa1sMKbOTT-y_rIUchEVS3tHBGzzGenydlxO3oNwYtiJdY46L5oDxgXUoN7ytgP1uL", "width": 3024}], "place_id": "ChIJZ8ekiDq3Qw0RqKZlK-SnkvQ", "plus_code": {"compound_code": "MHJM+6M Montecalderon, Spain", "global_code": "8CGRMHJM+6M"}, "rating": 4.5, "reference": "ChIJZ8ekiDq3Qw0RqKZlK-SnkvQ", "scope": "GOOGLE", "types": ["park", "point_of_interest", "establishment"], "user_ratings_total": 30, "vicinity": "Montecalderon"}, {"business_status": "OPERATIONAL", "geometry": {"location": {"lat": 40.6808297, "lng": -3.4160815}, "viewport": {"northeast": {"lat": 40.6822110302915, "lng": -3.414833719708498}, "southwest": {"lat": 40.67951306970851, "lng": -3.417531680291502}}}, "icon": "https://maps.gstatic.com/mapfiles/place_api/icons/v1/png_71/park-71.png", "icon_background_color": "#4DB546", "icon_mask_base_uri": "https://maps.gstatic.com/mapfiles/place_api/icons/v2/tree_pinlet", "name": "Parque Infantil Montecalderón", "place_id": "ChIJm2CZknS3Qw0R_wgn-7sC5gw", "plus_code": {"compound_code": "MHJM+8H El Casar, Spain", "global_code": "8CGRMHJM+8H"}, "rating": 4.2, "reference": "ChIJm2CZknS3Qw0R_wgn-7sC5gw", "scope": "GOOGLE", "types": ["park", "point_of_interest", "establishment"], "user_ratings_total": 6, "vicinity": "Calle Chapí, 139, El Casar"}, {"business_status": "OPERATIONAL", "geometry": {"location": {"lat": 40.6843264, "lng": -3.4133272}, "viewport": {"northeast": {"lat": 40.6856897802915, "lng": -3.412073069708498}, "southwest": {"lat": 40.6829918197085, "lng": -3.414771030291502}}}, "icon": "https://maps.gstatic.com/mapfiles/place_api/icons/v1/png_71/park-71.png", "icon_background_color": "#4DB546", "icon_mask_base_uri": "https://maps.gstatic.com/mapfiles/place_api/icons/v2/tree_pinlet", "name": "Mariano Sánchez Ruiz Park", "opening_hours": {"open_now": true}, "photos": [{"height": 4000, "html_attributions": ["<a href=\"https://maps.google.com/maps/contrib/100020445837210688493\">P SC</a>"], "photo_reference": "AWn5SU5FMCWhk4yrsmQ_T_ZyPyS85rHyAwNR4qzGrxroKc2edXQm2QazWUjH9NDrnqznLmyOFPpWLP1ObC57vNdXA8ECMKNH1XezIZQeo3AXKC23FUjsTVV3KRIFpAcdVgPqBSMCMAxvnksh9ggKV3J_R7SGcxm3oMhgDh2FL76JghNcTC50p80YI1KX7KeTsox0-YtQ3HtcUxB_Jp7UjvnM_FN9iIEJg4iXdBoctGHzl3diLxyLYAWE1WdGOEoO1fnj2IO9AKJePR1MOYYu81omGmN3y88XmLDW5pk-c6SFiKJvtXJzmWRr30rvTsx8JIUrc-u7hWnFTXluBZM6g7E9KUuUHuZ0oQ4MQ1MKoPEH68hsZ5l6BwKzcwM1ApOmOdUOQDiR239BDtjqOpzztTMZ5tCgbtZyp3kAHJ7kzHIvjQ8AtGm4D5sO6_FWDT52Hx0BQaovA_chGRzHPdWC-kJxN2iLCKzBkWvcd6uyb0ea7oMeMVnDBoX5QzPxDW5ScBNfiXkyZfdUfFb_8dauwOCTNy-z8s-K3VnUgADKVZu7ePTs42uIOA1_eDAg9qXcM_-GhcMItPo1puBp4BSh47J8zsOV-4Z6Y-KFYI6S4pmL_gyZJt7KRl8WTeKSGgPCKHeQGCy9mw", "width": 3000}], "place_id": "ChIJ90iVwRi2Qw0R8bkaCObzXK0", "plus_code": {"compound_code": "MHMP+PM El Casar, Spain", "global_code": "8CGRMHMP+PM"}, "rating": 3.9, "reference": "ChIJ90iVwRi2Qw0R8bkaCObzXK0", "scope": "GOOGLE", "types": ["park", "point_of_interest", "establishment"], "user_ratings_total": 43, "vicinity": "19170 el, Calle Blasco Ibáñez, 84D, El Casar"}, {"business_status": "OPERATIONAL", "geometry": {"location": {"lat": 40.68613819999999, "lng": -3.3732456}, "viewport": {"northeast": {"lat": 40.6874836302915, "lng": -3.371850319708499}, "southwest": {"lat": 40.6847856697085, "lng": -3.374548280291502}}}, "icon": "https://maps.gstatic.com/mapfiles/place_api/icons/v1/png_71/park-71.png", "icon_background_color": "#4DB546", "icon_mask_base_uri": "https://maps.gstatic.com/mapfiles/place_api/icons/v2/tree_pinlet", "name": "Rivera Del Torote", "opening_hours": {"open_now": true}, "photos": [{"height": 9000, "html_attributions": ["<a href=\"https://maps.google.com/maps/contrib/108851940513866590248\">Miguel Rivas</a>"], "photo_reference": "AWn5SU6j6XF_5KSfN63UuToE4tJfoqEHmuvpUJIxmcaL6tAo5wdRW7gU_uOVxSgbyHD65mkjIAAg_D2OIOAqHNREzR9s57CUepMM6urKRfgYad1DpM4tFoY3TZsn0oJSlLujNrTS7snr87M1ahnl2Jbem9CaOwkv4ZKYDqN-Yu8vPOF5przlejO9azjOXRzf9iFknlqg4d76Wg9bbiTo64z5OuB9ylx5JyJTjJAp6Ar9mWA9AA6MB0TgaqH-mY5PwF4Bv0Rmixj1Ft2qEtC7_PGtYVslxc9791qQlLfYlwxbnv67G-U_pbt0Aosko8r93JNdE3-f2TMXR04CXzp16IVDIYD9BlZhAvKzUXENYNEtc3JriBeDDJdM8nQt61O9gSBNTp5lo39djpwWwuB-DSBoU0V4OYQETotvPxkxwY7jZsNAkneaHXTFi3UNm-xTnnJ7zdn24sbY2V2RlTzUD0c0067YJvFVtLaxrUxfFtOZoLINVn3zq2F3Yb7Gn9PkloW5SX1XDoF-k0182NQmkYguCE4T-_96kEPeGnsc42Q1Ewa3Rd0m2clBuBtQ9TVKLOmBWaWB3s-NKF4ApXZPmsB3dUb5KCo0pOiWKtNQ4I5beFqH0NphqLzt6UFTWxacM_PQoFbQ7uO7", "width": 12000}], "place_id": "ChIJL63bidm3Qw0R0Zou70X0IsM", "plus_code": {"compound_code": "MJPG+FP Parque de Las Castillas, Spain", "global_code": "8CGRMJPG+FP"}, "rating": 2.8, "reference": "ChIJL63bidm3Qw0R0Zou70X0IsM", "scope": "GOOGLE", "types": ["park", "point_of_interest", "establishment"], "user_ratings_total": 6, "vicinity": ""}, {"business_status": "OPERATIONAL", "geometry": {"location": {"lat": 40.6841388, "lng": -3.414487299999999}, "viewport": {"northeast": {"lat": 40.6855275302915, "lng": -3.413282769708498}, "southwest": {"lat": 40.6828295697085, "lng": -3.415980730291502}}}, "icon": "https://maps.gstatic.com/mapfiles/place_api/icons/v1/png_71/park-71.png", "icon_background_color": "#4DB546", "icon_mask_base_uri": "https://maps.gstatic.com/mapfiles/place_api/icons/v2/tree_pinlet", "name": "Chapí Park", "opening_hours": {"open_now": true}, "place_id": "ChIJyz5wKnO3Qw0Rr1dsb7XZazQ", "plus_code": {"compound_code": "MHMP+M6 El Casar, Spain", "global_code": "8CGRMHMP+M6"}, "reference": "ChIJyz5wKnO3Qw0Rr1dsb7XZazQ", "scope": "GOOGLE", "types": ["park", "point_of_interest", "establishment"], "vicinity": "Calle Chapí, 121, El Casar"}, {"business_status": "OPERATIONAL", "geometry": {"location": {"lat": 40.6865938, "lng": -3.3729379}, "viewport": {"northeast": {"lat": 40.6879250802915, "lng": -3.371610419708498}, "southwest": {"lat": 40.68522711970851, "lng": -3.374308380291502}}}, "icon": "https://maps.gstatic.com/mapfiles/place_api/icons/v1/png_71/park-71.png", "icon_background_color": "#4DB546", "icon_mask_base_uri": "https://maps.gstatic.com/mapfiles/place_api/icons/v2/tree_pinlet", "name": "Las Barras", "place_id": "ChIJC1FSJgC3Qw0RVdRL_3zN5IU", "plus_code": {"compound_code": "MJPG+JR Torrejón del Rey, Spain", "global_code": "8CGRMJPG+JR"}, "reference": "ChIJC1FSJgC3Qw0RVdRL_3zN5IU", "scope": "GOOGLE", "types": ["park", "point_of_interest", "establishment"], "vicinity": "Calle Pastrana, 1012, Torrejón del Rey"}, {"business_status": "OPERATIONAL", "geometry": {"location": {"lat": 40.6857215, "lng": -3.368871599999999}, "viewport": {"northeast": {"lat": 40.68699953029149, "lng": -3.367438419708498}, "southwest": {"lat": 40.6843015697085, "lng": -3.370136380291501}}}, "icon": "https://maps.gstatic.com/mapfiles/place_api/icons/v1/png_71/park-71.png", "icon_background_color": "#4DB546", "icon_mask_base_uri": "https://maps.gstatic.com/mapfiles/place_api/icons/v2/tree_pinlet", "name": "Pistas Rojas", "opening_hours": {"open_now": true}, "place_id": "ChIJ7RvooLq3Qw0Ra6xsHt3xwDw", "plus_code": {"compound_code": "MJPJ+7F Parque de Las Castillas, Spain", "global_code": "8CGRMJPJ+7F"}, "rating": 4, "reference": "ChIJ7RvooLq3Qw0Ra6xsHt3xwDw", "scope": "GOOGLE", "types": ["park", "point_of_interest", "establishment"], "user_ratings_total": 3, "vicinity": "Calle Río Tajo, 2159W, Parque de Las Castillas"}, {"business_status": "OPERATIONAL", "geometry": {"location": {"lat": 40.6881863, "lng": -3.413369799999999}, "viewport": {"northeast": {"lat": 40.68951938029149, "lng": -3.412041769708498}, "southwest": {"lat": 40.68682141970849, "lng": -3.414739730291501}}}, "icon": "https://maps.gstatic.com/mapfiles/place_api/icons/v1/png_71/park-71.png", "icon_background_color": "#4DB546", "icon_mask_base_uri": "https://maps.gstatic.com/mapfiles/place_api/icons/v2/tree_pinlet", "name": "escultura Park", "opening_hours": {"open_now": true}, "place_id": "ChIJwx3FMYe3Qw0RGvg3mTabX9M", "plus_code": {"compound_code": "MHQP+7M Montecalderon, Spain", "global_code": "8CGRMHQP+7M"}, "rating": 5, "reference": "ChIJwx3FMYe3Qw0RGvg3mTabX9M", "scope": "GOOGLE", "types": ["park", "point_of_interest", "establishment"], "user_ratings_total": 2, "vicinity": "Montecalderon"}, {"business_status": "OPERATIONAL", "geometry": {"location": {"lat": 40.6899973, "lng": -3.4101157}, "viewport": {"northeast": {"lat": 40.6913436802915, "lng": -3.408806219708499}, "southwest": {"lat": 40.6886457197085, "lng": -3.411504180291503}}}, "icon": "https://maps.gstatic.com/mapfiles/place_api/icons/v1/png_71/park-71.png", "icon_background_color": "#4DB546", "icon_mask_base_uri": "https://maps.gstatic.com/mapfiles/place_api/icons/v2/tree_pinlet", "name": "Salida c. del Pilar", "opening_hours": {"open_now": true}, "photos": [{"height": 2448, "html_attributions": ["<a href=\"https://maps.google.com/maps/contrib/115355393681006824739\">Patricia MC</a>"], "photo_reference": "AWn5SU51gpo0vH9HNEJCB-5EM0r5yuKt9t8lCRno6YOHm7S5x6_gfQMpbf_V4qOWjm4LC7mWVrnp6tuubOKA3Hsp3SFKmzvIKAUH77BXOi9cW1t9sbDS1ouKCeYyH_ZurOp1M9AExCXsqY48vjSQmA7aS7xAUwVkYXvooTt69kWQVy6pxfYVMzunx53rDcqII-Y-552HETCnhcoYnc5WHANnoqhFdemh-KtHHy3dRgpnrdG9TSw4qy8BbjwLGgsV1LA9Q6EFt-TPfzzXJf6WeEpso1eM5-3UbbZT-btD2Xz18TbnIj7t3qLYDS12HMJ0-9N8gpaGZQ0sSN4kPExBK0As_dU5fIwkgnsSwpHaWij6NrIbF2IZZDDpLUs45HgtmyCLEPui0uYZq-n3yZfqCOT93zehUCryw2i5KH2JweVUTKE7Xmk9auojVktcUZZOKFrjG1YueH8ePy7kDQw51LKHmOnaY8juAA7xof6a7tcylwE0vEafH0AHY3CniLPW-CqtE2UG0NnU6rqGvsu6FEKKTTwuAGJ8A3fTzTIPqo6XcZs4jkpE0p7X1DTDMUbpwT0UofmdR07F0TB3msNLcHsLyUJEG6LmGnRwBe3t4KE6XQqYrxem6DXQsKJGYDzP1ADQ1nP04w", "width": 3264}], "place_id": "ChIJEcJ5Kxy3Qw0RkcH3ETd3A2Y", "plus_code": {"compound_code": "MHQQ+XX Ribatejada, Spain", "global_code": "8CGRMHQQ+XX"}, "reference": "ChIJEcJ5Kxy3Qw0RkcH3ETd3A2Y", "scope": "GOOGLE", "types": ["park", "point_of_interest", "establishment"], "vicinity": "Calle del Pilar, Ribatejada"}, {"business_status": "OPERATIONAL", "geometry": {"location": {"lat": 40.6891261, "lng": -3.415362}, "viewport": {"northeast": {"lat": 40.6904965802915, "lng": -3.413800369708498}, "southwest": {"lat": 40.6877986197085, "lng": -3.416498330291502}}}, "icon": "https://maps.gstatic.com/mapfiles/place_api/icons/v1/png_71/park-71.png", "icon_background_color": "#4DB546", "icon_mask_base_uri": "https://maps.gstatic.com/mapfiles/place_api/icons/v2/tree_pinlet", "name": "Sagrada Familia Garden", "place_id": "ChIJ1_Oxtx23Qw0R9TZISHWDvf0", "plus_code": {"compound_code": "MHQM+MV Montecalderon, Spain", "global_code": "8CGRMHQM+MV"}, "reference": "ChIJ1_Oxtx23Qw0R9TZISHWDvf0", "scope": "GOOGLE", "types": ["park", "point_of_interest", "establishment"], "vicinity": "Montecalderon"}, {"business_status": "OPERATIONAL", "geometry": {"location": {"lat": 40.69168689999999, "lng": -3.4143056}, "viewport": {"northeast": {"lat": 40.6929716302915, "lng": -3.413070669708498}, "southwest": {"lat": 40.6902736697085, "lng": -3.415768630291502}}}, "icon": "https://maps.gstatic.com/mapfiles/place_api/icons/v1/png_71/park-71.png", "icon_background_color": "#4DB546", "icon_mask_base_uri": "https://maps.gstatic.com/mapfiles/place_api/icons/v2/tree_pinlet", "name": "Goya Park", "opening_hours": {"open_now": true}, "photos": [{"height": 4032, "html_attributions": ["<a href=\"https://maps.google.com/maps/contrib/110815523414085764010\">José Ramón Saura</a>"], "photo_reference": "AWn5SU6ihbB0L_xnfhBeUBSz3Bb4-OfityVwkJdPReFkUXj-BID5JkZGhGdHyBKwkcXR5RWL36DCDG_bE-D60F7OKRC0Bp4GWZU61M3wKTVU5_XAgXPOOpCsBdPltI62gQyM3fqCxEvwVTAnuaPssXCsOOEM3EK1GznFlL_Tw6ihkgu-_of1oBxll7TTncI8TizqBl-STJf9ZJcOsbQ1BaL5GsqJ9EhCM9s1fTAybm1QaR0sYXDIxA8I1fY8djlI-mEppylUtWa9Em5FEijxi9WDwlcI5vj7FkaSH01NVNKBdNnors2eCZGkKIZFe_JUBtIY1QOeVSaXwZaXv2_4HloVnSYDW-u2n2gL64f1_ZgRLxj4HyrX80R27BrXvc_tgAC6NwhMa57Y8XHwaLkMP0VP_R-y4BVJDPTUohH6c9k2wsjWs0fbdo-Ht7iKZgWwDm4u3tZUZTusoZ4N0-QjdTeTC7u_RvRyjs12Oj-sYl9Ovwm7D0aCU6JUY60MepDnxosCd959Z9GuJBguU4RfXa7O3bR75ivgJIP0yxMv7vGXIYAtRDtG68aexeGbIK1a8uH-AheQqfzDUDq0uEtp3snzgDXg5jCGzZycJSeHUoZKyZB9pd3-NxTWndD2XdEfCRHlkck4KbeW", "width": 3024}], "place_id": "ChIJGzE-J7O3Qw0RXGVxp_XlAHc", "plus_code": {"compound_code": "MHRP+M7 Montecalderon, Spain", "global_code": "8CGRMHRP+M7"}, "rating": 5, "reference": "ChIJGzE-J7O3Qw0RXGVxp_XlAHc", "scope": "GOOGLE", "types": ["park", "point_of_interest", "establishment"], "user_ratings_total": 3, "vicinity": "Montecalderon"}, {"business_status": "OPERATIONAL", "geometry": {"location": {"lat": 40.6907295, "lng": -3.3639058}, "viewport": {"northeast": {"lat": 40.69211798029149, "lng": -3.362529569708498}, "southwest": {"lat": 40.68942001970849, "lng": -3.365227530291502}}}, "icon": "https://maps.gstatic.com/mapfiles/place_api/icons/v1/png_71/park-71.png", "icon_background_color": "#4DB546", "icon_mask_base_uri": "https://maps.gstatic.com/mapfiles/place_api/icons/v2/tree_pinlet", "name": "Rotonda de \"La Fuente\"", "place_id": "ChIJmyW8SwC3Qw0RE1Y1-hE7tUA", "plus_code": {"compound_code": "MJRP+7C Torrejón del Rey, Spain", "global_code": "8CGRMJRP+7C"}, "reference": "ChIJmyW8SwC3Qw0RE1Y1-hE7tUA", "scope": "GOOGLE", "types": ["park", "point_of_interest", "establishment"], "vicinity": "Avenida de los Castillos, Torrejón del Rey"}, {"business_status": "OPERATIONAL", "geometry": {"location": {"lat": 40.63262159999999, "lng": -3.3820862}, "viewport": {"northeast": {"lat": 40.63360493029149, "lng": -3.380126869708498}, "southwest": {"lat": 40.63090696970849, "lng": -3.382824830291501}}}, "icon": "https://maps.gstatic.com/mapfiles/place_api/icons/v1/png_71/park-71.png", "icon_background_color": "#4DB546", "icon_mask_base_uri": "https://maps.gstatic.com/mapfiles/place_api/icons/v2/tree_pinlet", "name": "Lago", "photos": [{"height": 4032, "html_attributions": ["<a href=\"https://maps.google.com/maps/contrib/112289273308603133847\">Luis Enrique Bravo A.</a>"], "photo_reference": "AWn5SU4LR8UI-LpnRtvPBy8OqLJAyDbFAEfSXppwyHeueXcfia6FYgUQ1g3BfQKRm9DI6CbXSz6igLt96hhwKAJBSc0BbtzTMOQ41gJ0Zl3M9m4LPQ4TQ0TdcOhC1P3-KGmpo4Gsv3z7LG3G0OHHhzJWI5lCDhqUygcuGRRwRh1crNtAiX917PJUCk2OfzwEEQDoiNoaDwrK9OXhOJ-2iQ9wcV9qww2nB8UFR6u6mEa247CKzkWunHy0aGIAMTLpnEKtuLCxil0GoU4k3NHuy2Nfjoj4TxtTQwJMRSpBVrt9CO3j-Cj6C_9-XNHLY66szPMPGF55jZj5dmLr_UmF7HaUiKeTGNnAWOR9o3sru_LGc2zupUDPbGslVcO3lQIqEsA38rmsC8OVrgVjPm9dPnt_Pld22iC1gi4XILyAfpM94rU2TZgtaIRmnjtuR4Q2qJM2eglG7vwc2kitG0PPO34gx-MevNG_NCs2kg0kEcf1-5zGGKYk0S2vNZoDZv2MAoYTywxtshxgN-vyWbJwv__WJpdIlw-xLFGFXCx5dX5II8sG-IRi4iz1p96DzI1Smm1h_w9kN31wlBvJIYKm9J-CdMyuSMnD8JORcfQnDbJvSEZuQbqC4kUwZLP_ucOytM9qdt11EoHR9IuYkujpGI3rRrRYnRg", "width": 3024}], "place_id": "ChIJ13t0HQC1Qw0R6FHXUs-T44k", "rating": 4, "reference": "ChIJ13t0HQC1Qw0R6FHXUs-T44k", "scope": "GOOGLE", "types": ["park", "point_of_interest", "establishment"], "user_ratings_total": 1, "vicinity": "JJM9+25, Jardín de Serracines"}, {"business_status": "OPERATIONAL", "geometry": {"location": {"lat": 40.692842, "lng": -3.3621748}, "viewport": {"northeast": {"lat": 40.69425148029149, "lng": -3.360754269708498}, "southwest": {"lat": 40.6915535197085, "lng": -3.363452230291502}}}, "icon": "https://maps.gstatic.com/mapfiles/place_api/icons/v1/png_71/park-71.png", "icon_background_color": "#4DB546", "icon_mask_base_uri": "https://maps.gstatic.com/mapfiles/place_api/icons/v2/tree_pinlet", "name": "Para Perros Park", "opening_hours": {"open_now": true}, "photos": [{"height": 1920, "html_attributions": ["<a href=\"https://maps.google.com/maps/contrib/110158627222017594663\">Ivan Marques Nevado</a>"], "photo_reference": "AWn5SU6GZdDqWJtxc9sqbiIXbR5xSBN_Yd-3NDmzlTGsKaFwy2OQ0fSD_Phu2jhfgdBA5xqZ17Qbd7G2tzTbiNEHBpl922h7GUc4-7VXGJdbTPgjDKcdKbDfPQ8UcKyAmTxcuGXSGz1cK9BPdTnL-MLChMKqid25hAu1Fzp_KNG0C4Mat1ynn5zqbDWkC-6c90CN8j-uI38Pd9wc5FbowmRka64qz4ReyxD6LcDydTXr4wOROC34habcmIus5RpMy61YIGQLSPK9-ymC7BmSm9ZoZFyYQkslLzS1n26A55aT6f_vtm63I4ToLg-6nYdybG2mL2u5Kf1jI6VnLmBMKu1Kpqx8kPa6EDE3ecBb4rJewoBRgM3vKQHikuc0pgWO7QdvKfMkVLz-8Q7jrcI2fdm9RGl4PxWjCa_gW9MByqoZ4p1PqXVldzJyXPRIzNMsGdUNvPti73RPfEu2czCLowvMMQFvntBrVIq2rDO8rusqyiy7jZTgE7L8L0ylIXL-WtFp9H82oIoGw2_iQ575xawXmmiYU8uOSORgbVkWBmIwTAdSzCbGQo9XXf2Rfte53vqQ5pXoZsS6pXBLYq0rK37SPWUG__KK21RK3-jg40fCkjOYW_rZvSEIu2n_keNzJw7T", "width": 1080}], "place_id": "ChIJn2jU1S63Qw0R08T2GctzsgY", "plus_code": {"compound_code": "MJVQ+44 Torrejón del Rey, Spain", "global_code": "8CGRMJVQ+44"}, "rating": 3, "reference": "ChIJn2jU1S63Qw0R08T2GctzsgY", "scope": "GOOGLE", "types": ["park", "point_of_interest", "establishment"], "user_ratings_total": 3, "vicinity": "Calle Río Júcar, 5A, Torrejón del Rey"}, {"business_status": "OPERATIONAL", "geometry": {"location": {"lat": 40.6360405, "lng": -3.3685135}, "viewport": {"northeast": {"lat": 40.6375166802915, "lng": -3.3671921}, "southwest": {"lat": 40.63481871970851, "lng": -3.3724777}}}, "icon": "https://maps.gstatic.com/mapfiles/place_api/icons/v1/png_71/park-71.png", "icon_background_color": "#4DB546", "icon_mask_base_uri": "https://maps.gstatic.com/mapfiles/place_api/icons/v2/tree_pinlet", "name": "Arroyo del pelícano", "place_id": "ChIJC7FjcLW1Qw0R2vgA2pxippc", "plus_code": {"compound_code": "JJPJ+CH Torrejón del Rey, Spain", "global_code": "8CGRJJPJ+CH"}, "rating": 5, "reference": "ChIJC7FjcLW1Qw0R2vgA2pxippc", "scope": "GOOGLE", "types": ["park", "point_of_interest", "establishment"], "user_ratings_total": 1, "vicinity": "Torrejón del Rey"}, {"business_status": "OPERATIONAL", "geometry": {"location": {"lat": 40.62736999999999, "lng": -3.399262}, "viewport": {"northeast": {"lat": 40.6286364802915, "lng": -3.397968119708498}, "southwest": {"lat": 40.6259385197085, "lng": -3.400666080291501}}}, "icon": "https://maps.gstatic.com/mapfiles/place_api/icons/v1/png_71/park-71.png", "icon_background_color": "#4DB546", "icon_mask_base_uri": "https://maps.gstatic.com/mapfiles/place_api/icons/v2/tree_pinlet", "international_phone_number": "+34 918 79 15 50", "name": "Reguerilla Park", "opening_hours": {"open_now": true}, "photos": [{"height": 1080, "html_attributions": ["<a href=\"https://maps.google.com/maps/contrib/111671087170626082493\">Alejandro Herrero Alcalde</a>"], "photo_reference": "AWn5SU63MDSmt-pUMPulvDTMdcCbjkTPysA3svNSz1PJ88z4gDM-1fq2e9WgBQ_d8eSR57Yys3vLlbGBK10g11J8zm1ejX-2Z7u7nGkHTdD4VVHdrsPjOgDHB9loN_GlPQyKqmz5oeZMPGahT7H1f5qTLKUnMw64q8cL2pcdnsfiR9x4fZzBMoBH4NW7hlJzd6z7W4Hx3XqqhnWbB4_MQd4_uX9uSeQh0qnZAO8M0uyyRDaPUug90wAMlUJjub1crmkc-P8AnyRi_8XlQNxs_cjEla7ZaY6jmVRCna0aapmdyQhqw9zLO4vA658gSisVxU8LP1ofad60AFN675Huwk7DIJ1X__MVyLL468rNGDsvw3dx9X1FGzD8x6eTMDRePCOBeRMh4AgwqAiuqUOnN6V-83uezlU31gek0zLfZBrm0Fbxebrd2jPlm4DqnYODVWQmKw3b9N-GXT6gBdPQO5rILaESN7-7aaFlnj7Nj4x9OF0LNuOZvZM1po8kYVPOp2LZdlN7EgwrQExr8YZnXvH9IxnLC8My_pFdCQkzJ7PLYEyO3Rkc6LgGpct6hYwjga2XaaECNoN0ITLpiVsLhbdLZ07szkaYSwsWLeR8-ehOZCphgf_SGCL936j0CMvTDRWfp7jDOw", "width": 1920}], "place_id": "ChIJ2QpvKKC1Qw0R07V61xiQxj4", "plus_code": {"compound_code": "JJG2+W7 Serracines, Spain", "global_code": "8CGRJJG2+W7"}, "rating": 3.8, "reference": "ChIJ2QpvKKC1Qw0R07V61xiQxj4", "scope": "GOOGLE", "types": ["park", "point_of_interest", "establishment"], "user_ratings_total": 105, "vicinity": "Calle del Infante Garcia, s/n, Serracines"}]