[{"business_status": "OPERATIONAL", "geometry": {"location": {"lat": 40.1966934, "lng": -3.844648300000001}, "viewport": {"northeast": {"lat": 40.1979943802915, "lng": -3.843372019708498}, "southwest": {"lat": 40.19529641970851, "lng": -3.846069980291503}}}, "icon": "https://maps.gstatic.com/mapfiles/place_api/icons/v1/png_71/school-71.png", "icon_background_color": "#7B9EB0", "icon_mask_base_uri": "https://maps.gstatic.com/mapfiles/place_api/icons/v2/school_pinlet", "international_phone_number": "+34 912 76 14 12", "name": "I.E.S Sor Juana de la Cruz", "place_id": "ChIJJ-RWE6PzQQ0R1qBsiUeFKaY", "plus_code": {"compound_code": "55W4+M4 Cubas de la Sagra, Spain", "global_code": "8CGR55W4+M4"}, "reference": "ChIJJ-RWE6PzQQ0R1qBsiUeFKaY", "scope": "GOOGLE", "types": ["secondary_school", "school", "point_of_interest", "establishment"], "vicinity": "Calle los Almendros, Cubas de la Sagra"}, {"business_status": "OPERATIONAL", "geometry": {"location": {"lat": 40.2149398, "lng": -3.846543499999999}, "viewport": {"northeast": {"lat": 40.21617863029149, "lng": -3.845058819708497}, "southwest": {"lat": 40.2134806697085, "lng": -3.847756780291502}}}, "icon": "https://maps.gstatic.com/mapfiles/place_api/icons/v1/png_71/school-71.png", "icon_background_color": "#7B9EB0", "icon_mask_base_uri": "https://maps.gstatic.com/mapfiles/place_api/icons/v2/school_pinlet", "international_phone_number": "+34 918 14 17 68", "name": "IES Griñón", "opening_hours": {"open_now": false}, "photos": [{"height": 1816, "html_attributions": ["<a href=\"https://maps.google.com/maps/contrib/102243648526755885308\">Ana Fuejo</a>"], "photo_reference": "AWn5SU6nVHLxhfU3Y5K-gwC12W9RKRBqCV5YnmdUqGWioO5RElF7g8d5hoLuMtYATfiOIlZPa1OPAE_KObp2k2_JBwIP5NSwb4lqDCtd3aEaax7NU28cqyx63rSk3CWu7zqRhmuVAuu_mKIsFLp_BrRIknSrQnim5vu73XOAdFMk-esGWvYbZXIFUPa_g9dksqoUrViYTszKYqfCi6IZ0VXMKiokaY-5wdM4JtQhG3dvdUVluj3Z1JJQOuKAI0mMMjHVZZneO7Pr6VmZZKlO0eByP83nV55lwkhWmI69i8ZLuKCefUCAi6py47cxw4HOHIVeL167sH7wbVyKcctbmo7mggmFSXRKLgtZ6om0nmk8LjTV0nvG-L8tA4XU2fGODeNeZ7O0WluFTWoBt-GIdG8pMjZ-9TWyrcSgm9XFmc0XR6A3526OHD-ilLCqPYWmvBCUk8duleTLfNlpzMJ31H8kYTyIjLRL3NHt5sWvpXp83mYI3yAo0Eh0wiae-Lykns19NOIFe2qnGlKlpThsxYQQdnfx0L4ckSGELMpED91VyAyd-S5_3rdZocZDp_yn41syZuVBrRZvEGvSSoLvgut7JCXMxbSAPh0MscS2FfrCU2xlPR4jvHnG0Xe0nVIkh3FPRaCfDRo-", "width": 4032}], "place_id": "ChIJdx_JuhLzQQ0RCeF7kS-k21U", "plus_code": {"compound_code": "6573+X9 Griñón, Spain", "global_code": "8CGR6573+X9"}, "reference": "ChIJdx_JuhLzQQ0RCeF7kS-k21U", "scope": "GOOGLE", "types": ["secondary_school", "school", "point_of_interest", "establishment"], "vicinity": "Plaza del Alba, 3, Griñón"}, {"business_status": "OPERATIONAL", "geometry": {"location": {"lat": 40.1666174, "lng": -3.8952327}, "viewport": {"northeast": {"lat": 40.1680187802915, "lng": -3.893974419708498}, "southwest": {"lat": 40.1653208197085, "lng": -3.896672380291503}}}, "icon": "https://maps.gstatic.com/mapfiles/place_api/icons/v1/png_71/school-71.png", "icon_background_color": "#7B9EB0", "icon_mask_base_uri": "https://maps.gstatic.com/mapfiles/place_api/icons/v2/school_pinlet", "international_phone_number": "+34 925 52 95 56", "name": "Secondary School IES Libertad", "opening_hours": {"open_now": false}, "photos": [{"height": 1536, "html_attributions": ["<a href=\"https://maps.google.com/maps/contrib/107002480321273266101\">Juan Carlos Márquez LLorente</a>"], "photo_reference": "AWn5SU4nPvbQ0xcABS3XpzkmPyhek8rxY7HwBHUHTHRdrrY8zJnXnhjbJsFGp2yiAkh446CqVIzLgG14pxuCmCHPAFCFVeTT4t2C8WutCXTD8UKcBj0CCiiXpJChDynZ0x-hJcxMKM0WbQvK_z_FVqt1FqkNGv7dgdVsUMqTObC2rKeWx-Q0oex6kHOPX3UzFIdqdKzv2SzVw4IU9hpJHu7jSrrEPnSIIGDyu1QR1cYzPqb2gW0zeYgLB0KVraSeDcfc41IUElM2wcJ1KH1CaI03WyQnS2_DhLU01T6604VtVa4ihWRvmq6jJVqbaaGTtiTcJKy6Q2DB3xPrwL78rRN3ekgqKt5AmNlcWMKFUbHD9xvnCaXGXatWItHSa2ETixHyXYf9JkV57oOinuqJrIGQ6Lmcbkbff2GhvNhE74f-R4YB5DFrg31acJ4w1HzQtU71VqMrTU63bwCmXGShhNGemdeqUzgOBuamhMJvUmOJIoLu5Tx8LtqgETa_0xavGlf6ydwxHn_RMpxhNRK2rNDZmwrX6f66R9ri0mLHR4M0g4V82TR5tfWQNxlI_HErv5Wx5jw-Srpk5NdNG0Xw6dLzvzbQExtXdQ_pW_pGMDMe74gsRqKXjnaLDN0dbvdjJFl8MeJuHQ", "width": 2304}], "place_id": "ChIJ37-MrRzyQQ0RPgTwMY5i1Kk", "plus_code": {"compound_code": "5483+JW Carranque, Spain", "global_code": "8CGR5483+JW"}, "reference": "ChIJ37-MrRzyQQ0RPgTwMY5i1Kk", "scope": "GOOGLE", "types": ["secondary_school", "school", "point_of_interest", "establishment"], "vicinity": "Calle Cedillo del Condado, 1, Carranque"}, {"business_status": "OPERATIONAL", "geometry": {"location": {"lat": 40.1584116, "lng": -3.885916699999999}, "viewport": {"northeast": {"lat": 40.1596650302915, "lng": -3.884624069708498}, "southwest": {"lat": 40.1569670697085, "lng": -3.887322030291502}}}, "icon": "https://maps.gstatic.com/mapfiles/place_api/icons/v1/png_71/school-71.png", "icon_background_color": "#7B9EB0", "icon_mask_base_uri": "https://maps.gstatic.com/mapfiles/place_api/icons/v2/school_pinlet", "name": "Nuevo Instituto de secundaria (En construcción)", "opening_hours": {"open_now": false}, "place_id": "ChIJ_Z0C-4TxQQ0RaRtyjObtphI", "plus_code": {"compound_code": "5457+9J Ugena, Spain", "global_code": "8CGR5457+9J"}, "reference": "ChIJ_Z0C-4TxQQ0RaRtyjObtphI", "scope": "GOOGLE", "types": ["secondary_school", "school", "point_of_interest", "establishment"], "vicinity": "Calle PRAGA, 1A, Ugena"}, {"business_status": "OPERATIONAL", "geometry": {"location": {"lat": 40.1930882, "lng": -3.8051341}, "viewport": {"northeast": {"lat": 40.1943770802915, "lng": -3.803748519708498}, "southwest": {"lat": 40.1916791197085, "lng": -3.806446480291502}}}, "icon": "https://maps.gstatic.com/mapfiles/place_api/icons/v1/png_71/school-71.png", "icon_background_color": "#7B9EB0", "icon_mask_base_uri": "https://maps.gstatic.com/mapfiles/place_api/icons/v2/school_pinlet", "international_phone_number": "+34 918 10 60 97", "name": "I.E.S. MIGUEL DELIBES", "opening_hours": {"open_now": false}, "place_id": "ChIJI07iyGn0QQ0RE5KZjDA8-wE", "plus_code": {"compound_code": "55VV+6W Torrejón de la Calzada, Spain", "global_code": "8CGR55VV+6W"}, "reference": "ChIJI07iyGn0QQ0RE5KZjDA8-wE", "scope": "GOOGLE", "types": ["secondary_school", "school", "point_of_interest", "establishment"], "vicinity": "Calle Miguel Hernández, 2, Torrejón de la Calzada"}]