[{"business_status": "OPERATIONAL", "geometry": {"location": {"lat": 40.30046139999999, "lng": -4.4370594}, "viewport": {"northeast": {"lat": 40.30189973029149, "lng": -4.435650769708498}, "southwest": {"lat": 40.29920176970849, "lng": -4.438348730291502}}}, "icon": "https://maps.gstatic.com/mapfiles/place_api/icons/v1/png_71/shopping-71.png", "icon_background_color": "#4B96F3", "icon_mask_base_uri": "https://maps.gstatic.com/mapfiles/place_api/icons/v2/shoppingcart_pinlet", "international_phone_number": "+34 912 17 04 53", "name": "Supermercados Dia", "opening_hours": {"open_now": false}, "photos": [{"height": 4342, "html_attributions": ["<a href=\"https://maps.google.com/maps/contrib/109042813664120653234\">Supermercados Dia</a>"], "photo_reference": "AWn5SU6hHt4I0lO9IyvJWTWCUW3gMDcZXGf7oQmHcPyNyUFBlX6GUHWQnHg5QEZvfaJBCHc2YUxBLzuvEZ8tt7cdUyKwkamPCBI6PZ3RWRafyzKs-GrY1I5MFbSLSlJwonb4gkda4k9cYhdlcNJDOxKw_aKbNwoToEs3h0Ai1dEz3iX63srJxa2v4C1CO5qyYKBYC3XiVGwafqsr3lx90l8pdo6PRAJpAmiBg-4ernae98Wvh6iDxIB-ha-XiG5m6G_PEmrG4Cp3VCs5s4cx5VWhaJluPuhxuLD707WTiaPblIwgi3aZ1QiGdR4f_8A92Zi4xXhONiVhfyk", "width": 6567}], "place_id": "ChIJIUJus3hLQA0RcRVAbZzwLKo", "plus_code": {"compound_code": "8H27+55 Cadalso de los Vidrios, Spain", "global_code": "8CGQ8H27+55"}, "rating": 4, "reference": "ChIJIUJus3hLQA0RcRVAbZzwLKo", "scope": "GOOGLE", "types": ["supermarket", "convenience_store", "bakery", "grocery_or_supermarket", "store", "food", "point_of_interest", "establishment"], "user_ratings_total": 264, "vicinity": "Calle Doctor Menéndez, 5, Cadalso de los Vidrios"}, {"business_status": "OPERATIONAL", "geometry": {"location": {"lat": 40.3007343, "lng": -4.4419738}, "viewport": {"northeast": {"lat": 40.3020742302915, "lng": -4.440597119708497}, "southwest": {"lat": 40.2993762697085, "lng": -4.443295080291501}}}, "icon": "https://maps.gstatic.com/mapfiles/place_api/icons/v1/png_71/shopping-71.png", "icon_background_color": "#4B96F3", "icon_mask_base_uri": "https://maps.gstatic.com/mapfiles/place_api/icons/v2/convenience_pinlet", "name": "Comercio Loli", "place_id": "ChIJ9_dIe4FLQA0RFuYcfEQJ-gQ", "plus_code": {"compound_code": "8H25+76 Cadalso de los Vidrios, Spain", "global_code": "8CGQ8H25+76"}, "rating": 4.7, "reference": "ChIJ9_dIe4FLQA0RFuYcfEQJ-gQ", "scope": "GOOGLE", "types": ["convenience_store", "store", "food", "point_of_interest", "establishment"], "user_ratings_total": 7, "vicinity": "Calle Real, 64, Cadalso de los Vidrios"}, {"business_status": "OPERATIONAL", "geometry": {"location": {"lat": 40.2645393, "lng": -4.4680627}, "viewport": {"northeast": {"lat": 40.2658870802915, "lng": -4.466721569708498}, "southwest": {"lat": 40.2631891197085, "lng": -4.469419530291503}}}, "icon": "https://maps.gstatic.com/mapfiles/place_api/icons/v1/png_71/shopping-71.png", "icon_background_color": "#4B96F3", "icon_mask_base_uri": "https://maps.gstatic.com/mapfiles/place_api/icons/v2/convenience_pinlet", "international_phone_number": "+34 654 64 40 26", "name": "Pica&pica 24h", "photos": [{"height": 3419, "html_attributions": ["<a href=\"https://maps.google.com/maps/contrib/114343852509749708245\">Rafael Meana Garcia</a>"], "photo_reference": "AWn5SU7tr5wqO0svFQu30BF4zQ9O8bQUvKik9sJidbqbGPrvyjemHQx7N0T2dcbeEFTeSkqLwa_8q0_jQO0XfsC_MIU8PBsRK0C9F3kWTsDik_fYaMOfUok4cnNA--R1D3wK3-0y724-IyFFK9k32PGfkRN4dbzwsxCjxNyrKWrHfRNn2buzRGUsCggbcEBHpZFnEyXhe-vvncGmIAVevY923cP9yXr98eeNK7c6pClP9BbO4ThCZ7qptuWcokPvrWkfWzPvxntWeTpf-46e4J73-HlFGRlT-8oBh7Yd-va91N6ZLD2R9A678bSjpGCVsANrsPS7DyVFMlIPmQgHXK26f-bJyk5MVCSmhVQI7-s13dtrOqJ3SDoC7vSSQx3BhgFLz2ZNlAnit-Hg0br3FjCyDXbVqMQCsVA9Gww0EQkikPJqusa6WVMu0vkZjZCHg5DeJ8bDznuEzsiMAVQR9KyASvTopD9g0mcBwYZFalKAQW1yyWsoF-Pu2yULty6SiW62Sy8iaKij9Zky5p_oe6kj4Xq0uJHKqr_yG8PJhKXGCGXawr-kJj8dJMgXUOB0DZp-VQ7fg2A9uRiPQuTUYr5m8tLK6MZfpwPWjIWJDQQnuw5j9fQtuk62k4WYmx7sDLWYLEdO8w", "width": 2280}], "place_id": "ChIJjY_ikJNLQA0R13uG4pVIeVU", "plus_code": {"compound_code": "7G7J+RQ Cenicientos, Spain", "global_code": "8CGQ7G7J+RQ"}, "reference": "ChIJjY_ikJNLQA0R13uG4pVIeVU", "scope": "GOOGLE", "types": ["convenience_store", "store", "food", "point_of_interest", "establishment"], "vicinity": "Calle Libertad, 43, Cenicientos"}, {"business_status": "OPERATIONAL", "geometry": {"location": {"lat": 40.2631831, "lng": -4.4681411}, "viewport": {"northeast": {"lat": 40.2645497302915, "lng": -4.466845669708497}, "southwest": {"lat": 40.2618517697085, "lng": -4.469543630291501}}}, "icon": "https://maps.gstatic.com/mapfiles/place_api/icons/v1/png_71/shopping-71.png", "icon_background_color": "#4B96F3", "icon_mask_base_uri": "https://maps.gstatic.com/mapfiles/place_api/icons/v2/convenience_pinlet", "name": "DELICATERE", "opening_hours": {"open_now": false}, "place_id": "ChIJp5KpFwBLQA0RSdmoVQJB9p0", "plus_code": {"compound_code": "7G7J+7P Cenicientos, Spain", "global_code": "8CGQ7G7J+7P"}, "rating": 5, "reference": "ChIJp5KpFwBLQA0RSdmoVQJB9p0", "scope": "GOOGLE", "types": ["convenience_store", "store", "food", "point_of_interest", "establishment"], "user_ratings_total": 1, "vicinity": "Calle de García Lorca, 1, Cenicientos"}]