[{"geometry": {"location": {"lat": 40.7351603, "lng": -3.5825347}, "viewport": {"northeast": {"lat": 40.74021336898591, "lng": -3.576447456324869}, "southwest": {"lat": 40.72873502693603, "lng": -3.586620608344755}}}, "icon": "https://maps.gstatic.com/mapfiles/place_api/icons/v1/png_71/geocode-71.png", "icon_background_color": "#7B9EB0", "icon_mask_base_uri": "https://maps.gstatic.com/mapfiles/place_api/icons/v2/generic_pinlet", "name": "El Molar", "photos": [{"height": 2335, "html_attributions": ["<a href=\"https://maps.google.com/maps/contrib/101830352464938515708\">Sandra Pereira</a>"], "photo_reference": "AWn5SU5OD8KlVMTZxfTd0kc8BItEeWLrSFzWP7yrjzL4v-9EPlaQMahi3Mue93XfCFGozygrsC7whle2BcXn2gqbq9c9JeUiS3gQwfmnJR4Go17bqZSeGWCS01uRZE2xp36Oz_9espNUWEoOgakmVHWmsvqjBHUolEYCRSHsjuS1yua_jz8sSaKaDrNoX504W2x5wNnNO9mRpaOKKKnFZon1DLAnyygEJjl9z7B-Ab_USgMha4pXNaRlWqzaRG9qg9Yesg-OkoO-84h4uppkM55ir9-8bQKxvCOFl8Um7LufinQ26hWmDmTuTmakkghY6PS7xoVCQULzY0S86PZevGZXFFPkl7D0XgIKfdQZHGrxEeoxKmK3qyllrtZaI9KilT-z5-wB81WCr4qAg8tFjIimAx5ocQIR3S6mPlJQPtryr8dKaYLurGTbu9ThWKZ-Qocvg3-hQgiVZWbfSfw32MPEE2Gx-mQxTyPGClmfGWCU2WbYCl92f7V01Y8Grp5LSIJKmS0F1GPZDeDBW4JbOgEmqneltQ3OSH0TGBuOaVJbkKpnnWvujBc0sFVe425UE43_JMUBkWPzbfOEzzyqsyfTmQ-hgakKFozDDPb89wyqpfuX3xRKL6RMNygyXdwm_BRpV3urUQ", "width": 2160}], "place_id": "ChIJPxiTeQLQQw0RVaOLHLpmYV0", "reference": "ChIJPxiTeQLQQw0RVaOLHLpmYV0", "scope": "GOOGLE", "types": ["locality", "political"], "vicinity": "El Molar"}, {"business_status": "OPERATIONAL", "geometry": {"location": {"lat": 40.7339438, "lng": -3.5820147}, "viewport": {"northeast": {"lat": 40.7353304302915, "lng": -3.580678519708497}, "southwest": {"lat": 40.7326324697085, "lng": -3.583376480291502}}}, "icon": "https://maps.gstatic.com/mapfiles/place_api/icons/v1/png_71/generic_business-71.png", "icon_background_color": "#7B9EB0", "icon_mask_base_uri": "https://maps.gstatic.com/mapfiles/place_api/icons/v2/generic_pinlet", "international_phone_number": "+34 608 72 38 92", "name": "Patatas fritas El Molar JID", "opening_hours": {"open_now": false}, "photos": [{"height": 3024, "html_attributions": ["<a href=\"https://maps.google.com/maps/contrib/112809373260530050403\">Patatas fritas El Molar JID</a>"], "photo_reference": "AWn5SU6tlCQCQR9t2xJCoLkhFfgspBmt3oRuZrCbbJa8gKeR7pZ-JQH7djS_Hx1r0mYUkTK5vINTf-XeqowmAUUreJ5ldyY3GUTaDl6rNCuCL8BOB8m4O0zeGpteJzdYiHL0J2zn86MtwUB-eFfpc8ZuxX2I05t_63TL2P6yXQs2rexnnShR0PfPJDwyVoUMZJDAnQ4xVTiCcsnS4w102E4gRXWzwXxiTZE2ph4iA6DwfgGKYdPEiBpNM0B8o_Idpu5yfVJRMGlLugLmIARyskgKGlSy1XqsXqbSGfTlOVH3kJ1UtNN3OwBvAdqTdreZaxGhhctoIM4k9Q0", "width": 4032}], "place_id": "ChIJFZxqigLQQw0RJJHPlJV2q50", "plus_code": {"compound_code": "PCM9+H5 El Molar, Spain", "global_code": "8CGRPCM9+H5"}, "rating": 4.7, "reference": "ChIJFZxqigLQQw0RJJHPlJV2q50", "scope": "GOOGLE", "types": ["point_of_interest", "food", "establishment"], "user_ratings_total": 88, "vicinity": "Calle de Correos, 2, El Molar"}, {"business_status": "OPERATIONAL", "geometry": {"location": {"lat": 40.7375105, "lng": -3.5838991}, "viewport": {"northeast": {"lat": 40.7388252802915, "lng": -3.582566119708498}, "southwest": {"lat": 40.7361273197085, "lng": -3.585264080291503}}}, "icon": "https://maps.gstatic.com/mapfiles/place_api/icons/v1/png_71/generic_business-71.png", "icon_background_color": "#7B9EB0", "icon_mask_base_uri": "https://maps.gstatic.com/mapfiles/place_api/icons/v2/generic_pinlet", "international_phone_number": "+34 918 41 03 72", "name": "Construcciones El Molar, S.A.", "place_id": "ChIJu8eRyALQQw0RALCgzcH8btY", "plus_code": {"compound_code": "PCQ8+2C El Molar, Spain", "global_code": "8CGRPCQ8+2C"}, "reference": "ChIJu8eRyALQQw0RALCgzcH8btY", "scope": "GOOGLE", "types": ["point_of_interest", "general_contractor", "establishment"], "vicinity": "Calle de las Angustias, 16, El Molar"}, {"business_status": "OPERATIONAL", "geometry": {"location": {"lat": 40.73400419999999, "lng": -3.5822789}, "viewport": {"northeast": {"lat": 40.73532323029149, "lng": -3.581005669708498}, "southwest": {"lat": 40.73262526970849, "lng": -3.583703630291502}}}, "icon": "https://maps.gstatic.com/mapfiles/place_api/icons/v1/png_71/school-71.png", "icon_background_color": "#7B9EB0", "icon_mask_base_uri": "https://maps.gstatic.com/mapfiles/place_api/icons/v2/school_pinlet", "international_phone_number": "+34 918 41 04 91", "name": "Autoescuela chaparral - El Molar- Cursos CAP", "opening_hours": {"open_now": false}, "photos": [{"height": 1024, "html_attributions": ["<a href=\"https://maps.google.com/maps/contrib/106017149264933934978\">Autoescuela chaparral - El Molar- Cursos CAP</a>"], "photo_reference": "AWn5SU5kJCVUqjDG8uKNULoko7wsyuAwDXu-1CRv2Hi5maLvIgr4rYmdqCuyT8amkYXh-4xAy9QT1xUiSSy0FvEdZFn_6_NWjYBdkUcRAzEZpfAxCSNVGYE-BqoHkNapeUFpzO6aD7zAa6JLEPy5LFRFKq2KK114A33EER4ttkyPV_YlN3knmNDpnrCBPqRsOfd_1x4uIXr4jfHqAw87FaSa7dis5S1ooz5JHuIWflrNwOjfE_At9eBBc13IUkonS1deL-VseNFOkgcKyNR0o-F0rWnXUB4NSmzdam7R3wIoMzVdY_efXrd9uxfcxJGJmht0XsyXLW9WEaw", "width": 877}], "place_id": "ChIJrSX2YALQQw0RBasr2JCYC1U", "plus_code": {"compound_code": "PCM9+J3 El Molar, Spain", "global_code": "8CGRPCM9+J3"}, "rating": 4.8, "reference": "ChIJrSX2YALQQw0RBasr2JCYC1U", "scope": "GOOGLE", "types": ["point_of_interest", "establishment"], "user_ratings_total": 128, "vicinity": "Avenida de España, 30, El Molar"}, {"business_status": "OPERATIONAL", "geometry": {"location": {"lat": 40.7294309, "lng": -3.5804231}, "viewport": {"northeast": {"lat": 40.7307512802915, "lng": -3.579130269708499}, "southwest": {"lat": 40.7280533197085, "lng": -3.581828230291503}}}, "icon": "https://maps.gstatic.com/mapfiles/place_api/icons/v1/png_71/civic_building-71.png", "icon_background_color": "#7B9EB0", "icon_mask_base_uri": "https://maps.gstatic.com/mapfiles/place_api/icons/v2/civic-bldg_pinlet", "international_phone_number": "+34 918 41 22 11", "name": "Juzgado de Paz", "opening_hours": {"open_now": false}, "place_id": "ChIJI0sPlgLQQw0Rl7JXpPHVoEw", "plus_code": {"compound_code": "PCH9+QR El Molar, Spain", "global_code": "8CGRPCH9+QR"}, "rating": 3, "reference": "ChIJI0sPlgLQQw0Rl7JXpPHVoEw", "scope": "GOOGLE", "types": ["courthouse", "point_of_interest", "establishment"], "user_ratings_total": 1, "vicinity": "Plaza Mayor, 1, El Molar"}, {"business_status": "OPERATIONAL", "geometry": {"location": {"lat": 40.74395539999999, "lng": -3.5991083}, "viewport": {"northeast": {"lat": 40.74530763029149, "lng": -3.597817369708498}, "southwest": {"lat": 40.74260966970849, "lng": -3.600515330291502}}}, "icon": "https://maps.gstatic.com/mapfiles/place_api/icons/v1/png_71/generic_business-71.png", "icon_background_color": "#7B9EB0", "icon_mask_base_uri": "https://maps.gstatic.com/mapfiles/place_api/icons/v2/generic_pinlet", "international_phone_number": "+34 918 43 48 65", "name": "Residencia y Centro de Día San Miguel", "photos": [{"height": 298, "html_attributions": ["<a href=\"https://maps.google.com/maps/contrib/110795273323217932303\">Residencia y Centro de Día San Miguel</a>"], "photo_reference": "AWn5SU67B9IY1If6x64pgxN4p-Cs_Um5aqKONdy_Fvk1QUHEUAOUhTZAApSMMRujgGvmc2QowE1vTi_jXDXS_-lLiF6K7xUVAUy_7Sx9B_lGw49Kqh1POPlOtaESrirTz3TnIuPHBYJoIqP2rvdbx4ojHVhetKsBYgke6bZ7v75Xnv-fzFRuNZws7mg24cFvjpYrA0IN8hJepmTvKEJ80niZA1UpiNPtUBINV7yBz0LgilazlOY6tdcaPar1Tl0QAOoa24MyIIQ3850CaJzYkFtMRlmNl2a7lHQKGCv1nsQRBRgzqr4QOFQKf49T2lESAQuyOUin8asDFSk", "width": 398}], "place_id": "ChIJ9_bcq6HaQw0RH4lQARQe3xo", "plus_code": {"compound_code": "PCV2+H9 Pedrezuela, Spain", "global_code": "8CGRPCV2+H9"}, "rating": 5, "reference": "ChIJ9_bcq6HaQw0RH4lQARQe3xo", "scope": "GOOGLE", "types": ["point_of_interest", "health", "establishment"], "user_ratings_total": 5, "vicinity": "Paseo de la Ermita, 28, BAJO, Pedrezuela"}, {"business_status": "OPERATIONAL", "geometry": {"location": {"lat": 40.73494579999999, "lng": -3.582970199999999}, "viewport": {"northeast": {"lat": 40.73629203029149, "lng": -3.581607519708498}, "southwest": {"lat": 40.7335940697085, "lng": -3.584305480291502}}}, "icon": "https://maps.gstatic.com/mapfiles/place_api/icons/v1/png_71/pharmacy-71.png", "icon_background_color": "#F88181", "icon_mask_base_uri": "https://maps.gstatic.com/mapfiles/place_api/icons/v2/pharmacy_pinlet", "international_phone_number": "+34 918 41 03 22", "name": "Farmacia El Molar", "opening_hours": {"open_now": false}, "photos": [{"height": 540, "html_attributions": ["<a href=\"https://maps.google.com/maps/contrib/112452564829470932981\">Farmacia El Molar</a>"], "photo_reference": "AWn5SU7IcRBmOAgq936_E1ndjgBqzp9EgFIsdVEw5GKrPJlJrRcd4JQ_we_ZIDybUjceeZvELt298vmYiFfseZOWqxCpzorvR1sHQppQXWcPxmrpv1Pb9-7gBmX_4a9-vnoIkpU5SVfOzqc46HHgMTjli5mMfQ-epHycQpRZ_gWXgqCsyD_1WhqbSWa6Jlpv4fnM1E79eCThr-rP_BSx4ccZGT6XWBr-V-l5p_vBTZVv1S5hmAy1g7aZAstdnjSivQPzMEUAKS0peK6REllZu9HZeNn5ytQzwCqCta_0XgZEuTICqrMq6Atilli9BfYNCXbRZtRGI2wDLNM", "width": 960}], "place_id": "ChIJ6y4xKAfQQw0Rzq01FiHBjH0", "plus_code": {"compound_code": "PCM8+XR El Molar, Spain", "global_code": "8CGRPCM8+XR"}, "rating": 4.4, "reference": "ChIJ6y4xKAfQQw0Rzq01FiHBjH0", "scope": "GOOGLE", "types": ["pharmacy", "point_of_interest", "health", "store", "establishment"], "user_ratings_total": 87, "vicinity": "Avenida de España, 54, El Molar"}, {"business_status": "OPERATIONAL", "geometry": {"location": {"lat": 40.73729099999999, "lng": -3.581036}, "viewport": {"northeast": {"lat": 40.73864683029149, "lng": -3.579814519708499}, "southwest": {"lat": 40.7359488697085, "lng": -3.582512480291503}}}, "icon": "https://maps.gstatic.com/mapfiles/place_api/icons/v1/png_71/school-71.png", "icon_background_color": "#7B9EB0", "icon_mask_base_uri": "https://maps.gstatic.com/mapfiles/place_api/icons/v2/school_pinlet", "international_phone_number": "+34 918 41 02 85", "name": "Colegio Público Ntra. Sra. del Remolino", "opening_hours": {"open_now": false}, "photos": [{"height": 2304, "html_attributions": ["<a href=\"https://maps.google.com/maps/contrib/113279683621844369530\">Colegio Público Ntra. Sra. del Remolino</a>"], "photo_reference": "AWn5SU5C08avNNll2PzB-owenhhpopT_BLolOKs9jEP1GpBBiZdOvLBPuEg3oAsBP0ibzhYiJoUplBHT4ESJyz9HKyHk4GgtRUdyKWgtW2SCcvq3moTdK9N2qvEq3De3EVgJhMzFh_d99NuafDnYv-mDMOkWxzUOQjb_dfR_ivaKUdvmKRzKtsMYRBLG3EUuG5er3HvSM7qvXUOmbe4ykRSO_0oER4M9on5fPtROFZE5lPWpyIZac7V65Evpgcq80Mnzp6lX3Z6rypiM7_hpi6Pc6zS_IDJFTXqwIEeYBKDtTJVVGtq3Nw6MNs4isAD8WHfjdJ_fbV9AzKQ", "width": 4096}], "place_id": "ChIJSb_xHP7PQw0RfdWotZr1ehk", "plus_code": {"compound_code": "PCP9+WH El Molar, Spain", "global_code": "8CGRPCP9+WH"}, "reference": "ChIJSb_xHP7PQw0RfdWotZr1ehk", "scope": "GOOGLE", "types": ["point_of_interest", "school", "establishment"], "vicinity": "Calle de San Isidro, 8, El Molar"}, {"business_status": "OPERATIONAL", "geometry": {"location": {"lat": 40.7349335, "lng": -3.5787075}, "viewport": {"northeast": {"lat": 40.7362367302915, "lng": -3.577354819708498}, "southwest": {"lat": 40.7335387697085, "lng": -3.580052780291501}}}, "icon": "https://maps.gstatic.com/mapfiles/place_api/icons/v1/png_71/bar-71.png", "icon_background_color": "#FF9E67", "icon_mask_base_uri": "https://maps.gstatic.com/mapfiles/place_api/icons/v2/bar_pinlet", "international_phone_number": "+34 918 41 03 93", "name": "Taberna Marinera", "opening_hours": {"open_now": false}, "photos": [{"height": 3456, "html_attributions": ["<a href=\"https://maps.google.com/maps/contrib/100700704466113177990\">CHAKALAN</a>"], "photo_reference": "AWn5SU50G5mkUqD_pbnuN4SIK7ZS-oJzviDnQPp9NmdpYJQh0XovNSZyGEAbo8aXAeQQ77iffD-mgJzuQ7kemZbmNfdN0vnw9jVY5u3jc6GZQ8KJO82u70xJG1qLl0foLT0YZACpPncI22PggZwll2DGPIRH-USofN7dCu2j2ilc_RBkaJWWDqnabb2tEQT3hXuPlnvzb85DzQ-lyrK88_6oSPZNosjTEU_h38857Ekgy5L732xqcybomk4MAgWC4sf3Y9dDoIV4ox5k7FS41U1DaeHx78w5SCNhzHUzidHMHd32aswKx2rA_h4-3cKLZs9Q7dDP7RRhUFkNE-GEpTswf3Wag5MWw5CH4maYOaEpONzs2bfxyegODFhlzqt4cV4KrK93uL_NXmRNvxUTqrMoblMyTUnDnaSj6tTIg-P5TdUJvHW2_cgfrCdjrqxbGiueOHcFnJyLdGPf3qEu5CFOloKQ3Wnjxelnj4t4XJ7TKnt5HtUGvT8nwIo6xj71vRsYrStSDSj1Ab9lNDMablhoXdbn1_pDGZoQ9_ndQ_3Qe27gFBm3QgZq7_5PP4opy7A1gjqH6n1eQzhLbM1rHrKVBuYJ0j7QYwfQIDC_FuvTPo4mlQM0UNZMNH41l9S-na32YkWy8w", "width": 4608}], "place_id": "ChIJkZmROP3PQw0RW6k0r76_73c", "plus_code": {"compound_code": "PCMC+XG El Molar, Spain", "global_code": "8CGRPCMC+XG"}, "rating": 4.1, "reference": "ChIJkZmROP3PQw0RW6k0r76_73c", "scope": "GOOGLE", "types": ["bar", "restaurant", "point_of_interest", "food", "establishment"], "user_ratings_total": 161, "vicinity": "Calle de la Cuesta, 23, El Molar"}, {"business_status": "OPERATIONAL", "geometry": {"location": {"lat": 40.7336984, "lng": -3.589515200000001}, "viewport": {"northeast": {"lat": 40.7350779802915, "lng": -3.588295519708498}, "southwest": {"lat": 40.73238001970851, "lng": -3.590993480291503}}}, "icon": "https://maps.gstatic.com/mapfiles/place_api/icons/v1/png_71/generic_business-71.png", "icon_background_color": "#7B9EB0", "icon_mask_base_uri": "https://maps.gstatic.com/mapfiles/place_api/icons/v2/generic_pinlet", "international_phone_number": "+34 670 05 57 18", "name": "PILAS-AUDIOVISUAL", "opening_hours": {"open_now": false}, "place_id": "ChIJGRKEpwXQQw0RqO-O0y54EgY", "plus_code": {"compound_code": "PCM6+F5 El Molar, Spain", "global_code": "8CGRPCM6+F5"}, "reference": "ChIJGRKEpwXQQw0RqO-O0y54EgY", "scope": "GOOGLE", "types": ["point_of_interest", "establishment"], "vicinity": "Calle Peña del Rey, 28, El Molar"}, {"business_status": "OPERATIONAL", "geometry": {"location": {"lat": 40.7333193, "lng": -3.5821084}, "viewport": {"northeast": {"lat": 40.7346805802915, "lng": -3.580825419708498}, "southwest": {"lat": 40.7319826197085, "lng": -3.583523380291502}}}, "icon": "https://maps.gstatic.com/mapfiles/place_api/icons/v1/png_71/bank-71.png", "icon_background_color": "#909CE1", "icon_mask_base_uri": "https://maps.gstatic.com/mapfiles/place_api/icons/v2/bank-intl_pinlet", "international_phone_number": "+34 689 19 48 96", "name": "BBVA - Agente Autorizado", "opening_hours": {"open_now": false}, "photos": [{"height": 720, "html_attributions": ["<a href=\"https://maps.google.com/maps/contrib/101198618227429209066\">BBVA - Agente Autorizado</a>"], "photo_reference": "AWn5SU5ZKGKL73eA_YHqX_vNbJzFMEmfDINiQBVb9yQWuOQ4uuiyUKOo7UPNNgQgc2PqkbL3p9gTmubC0xtuG8N_UKlKsrMdJ8SJJVEsc19cMbDWu0Zb4KPriI5G2_Z38DE7eggJXnVbRnfjAZkYvvE-nEdjnPHZs78nQVuWynpmWtncfn-Zzkkg-EwgFtpiOKhn0O0Tu-fZLImaGDsSHn7Dgk07x1JL1GltKlVzHEuW8DNCJ2xkZvK8apa4KT1CLWA8-8xEXB1xF0iMRxbkk80iM8RtxsmwmBdsDA-JsC_moKUzzt_cStBu1ip7dWl124WpF8aIZa8fxgQ", "width": 1280}], "place_id": "ChIJ4_fzjQLQQw0R1nuybem8bOw", "plus_code": {"compound_code": "PCM9+85 El Molar, Spain", "global_code": "8CGRPCM9+85"}, "rating": 3.5, "reference": "ChIJ4_fzjQLQQw0R1nuybem8bOw", "scope": "GOOGLE", "types": ["bank", "atm", "finance", "point_of_interest", "establishment"], "user_ratings_total": 55, "vicinity": "Avenida de España, 12, El Molar"}, {"business_status": "OPERATIONAL", "geometry": {"location": {"lat": 40.7349298, "lng": -3.5785754}, "viewport": {"northeast": {"lat": 40.73623578029151, "lng": -3.577225219708498}, "southwest": {"lat": 40.73353781970851, "lng": -3.579923180291502}}}, "icon": "https://maps.gstatic.com/mapfiles/place_api/icons/v1/png_71/generic_business-71.png", "icon_background_color": "#7B9EB0", "icon_mask_base_uri": "https://maps.gstatic.com/mapfiles/place_api/icons/v2/generic_pinlet", "international_phone_number": "+34 666 43 99 75", "name": "Restaurante La Bodega de Prada", "opening_hours": {"open_now": false}, "photos": [{"height": 2249, "html_attributions": ["<a href=\"https://maps.google.com/maps/contrib/104514343715168758042\">Restaurante La Bodega de Prada</a>"], "photo_reference": "AWn5SU6M0u-mJM-bm5GPy6J826RplxjAUTQxrCWhcdmgXxwrokWMXpLvkTVPH7F39_m8fAblSy7jtOOvlOnNUxpfixnQ4d4aBM4Dy7SUTAEAMEvgkqiyH2xAriHksLQrl2AVneomXVNy9jzV7kH4Z7hQVESbpGwncEnqt8NMd64z5DiJk9-bziSWBgpQzgZJ1b-KD3UHTZbjojfQzQ3UoeFpm8b4PiYBVFQE5H8d3zrqaoh0z-oC3R96kHILv_oTfAGDe6ziOyDcmPJYImpr9FV9LpG2Vibg68_jAE-JnObJPlJBWqxjLwa0bWeygU351UDlIbJOgUWq4BY", "width": 3999}], "place_id": "ChIJs44QZP3PQw0RfcokeHbmf2U", "plus_code": {"compound_code": "PCMC+XH El Molar, Spain", "global_code": "8CGRPCMC+XH"}, "rating": 4.4, "reference": "ChIJs44QZP3PQw0RfcokeHbmf2U", "scope": "GOOGLE", "types": ["restaurant", "point_of_interest", "food", "establishment"], "user_ratings_total": 192, "vicinity": "Calle sta. M.ª de la cuesta, s/n, El Molar"}, {"business_status": "OPERATIONAL", "geometry": {"location": {"lat": 40.7343789, "lng": -3.5826501}, "viewport": {"northeast": {"lat": 40.73572633029151, "lng": -3.581327069708498}, "southwest": {"lat": 40.73302836970851, "lng": -3.584025030291502}}}, "icon": "https://maps.gstatic.com/mapfiles/place_api/icons/v1/png_71/shopping-71.png", "icon_background_color": "#4B96F3", "icon_mask_base_uri": "https://maps.gstatic.com/mapfiles/place_api/icons/v2/shopping_pinlet", "international_phone_number": "+34 918 44 03 57", "name": "Autorecambios Hernández S.L.", "opening_hours": {"open_now": false}, "place_id": "ChIJp4wIXQLQQw0R-b1XWY44DEw", "plus_code": {"compound_code": "PCM8+QW El Molar, Spain", "global_code": "8CGRPCM8+QW"}, "rating": 4.2, "reference": "ChIJp4wIXQLQQw0R-b1XWY44DEw", "scope": "GOOGLE", "types": ["car_repair", "point_of_interest", "store", "establishment"], "user_ratings_total": 51, "vicinity": "Avenida de España, 44, El Molar"}, {"business_status": "OPERATIONAL", "geometry": {"location": {"lat": 40.73288300000001, "lng": -3.582711400000001}, "viewport": {"northeast": {"lat": 40.73430328029151, "lng": -3.581381819708498}, "southwest": {"lat": 40.73160531970851, "lng": -3.584079780291503}}}, "icon": "https://maps.gstatic.com/mapfiles/place_api/icons/v1/png_71/worship_general-71.png", "icon_background_color": "#7B9EB0", "icon_mask_base_uri": "https://maps.gstatic.com/mapfiles/place_api/icons/v2/worship_christian_pinlet", "international_phone_number": "+34 918 41 00 08", "name": "Iglesia de la Asunción de Nuestra Señora", "photos": [{"height": 4008, "html_attributions": ["<a href=\"https://maps.google.com/maps/contrib/116522339215122585058\">Juan Rubio</a>"], "photo_reference": "AWn5SU78UE5h1BgW1Sf4wgJJRzSQrvu3GMuYhoaiTqKKqdW4sfWYAtlI0FJS3xge2delbDAGOJdNHImU7EYPrpgXVJiWYNf_2UobnfxWmetWbjj3xmrUihWyOEwixh_Kg_hWBGnIrndmBsmaDNmj6EY8Gcjx-yrfAkcxGecAEZQCKjVDlFTMfIdC56syYbrvSt8o6Hgr9ubcvdAZEznkTWE3G8vFyBcam_oMlH1p-kFjJj9A4mSBiOqUq7v-jjNpF-B_0Ude8j8zvzQkWW89CZ7WlAiXtrW9LAXl0GziauqqgDMvL5zBqvkGrGRK525km4EfxfIUFLLyqVXX2kOv9qHZ6EdYfpgmDY8afqHEKQ0oksAGvqbiL3HW9GcJKd7m91W6-t-TMiaCO9KsDGCaTG3oy-PoBnlU8Oe1Z-_MyJMVRJRvRGFdOHfv3EnE5zm12wmUbc_c8Z8S_wl2LesHitncBznD5Pla7N-yeKkhp3yTsjrkHUVfmDTMntYFLt7TmxSrePi8PqgDmWmfb8PQ3YE1ML_73q81LMplP0zaXlwtImEJDiaAldhjBzZDGjUrnUOaaXYfOk1J0MolGgc3iQTbPO7MHDTYG7DHrPgc94ytTHK7cXb4qVfhvTQnUlPdWE1lrSJSEBtgDN8bHRVBvAZEzw", "width": 6008}], "place_id": "ChIJ9_X47ALQQw0RpJj0dsejupA", "plus_code": {"compound_code": "PCM8+5W El Molar, Spain", "global_code": "8CGRPCM8+5W"}, "rating": 4.7, "reference": "ChIJ9_X47ALQQw0RpJj0dsejupA", "scope": "GOOGLE", "types": ["church", "place_of_worship", "point_of_interest", "establishment"], "user_ratings_total": 104, "vicinity": "Plaza de Germán Ortega, 1, El Molar"}, {"business_status": "OPERATIONAL", "geometry": {"location": {"lat": 40.7325168, "lng": -3.5828247}, "viewport": {"northeast": {"lat": 40.7337548802915, "lng": -3.581539169708498}, "southwest": {"lat": 40.73105691970851, "lng": -3.584237130291502}}}, "icon": "https://maps.gstatic.com/mapfiles/place_api/icons/v1/png_71/generic_business-71.png", "icon_background_color": "#7B9EB0", "icon_mask_base_uri": "https://maps.gstatic.com/mapfiles/place_api/icons/v2/generic_pinlet", "international_phone_number": "+34 918 41 10 22", "name": "MAPFRE", "opening_hours": {"open_now": false}, "photos": [{"height": 2351, "html_attributions": ["<a href=\"https://maps.google.com/maps/contrib/118336577592005645890\">MAPFRE</a>"], "photo_reference": "AWn5SU4P7RRPFrLlCdQDxijppJ_OaX-oCrVh9R8q7asGwabPeFmOXXTQs1gRAf6htxVqxal_GHRoVMshZllPx3FcbjijiBLPKd1ieKJ2BAoS7CpkjtDZ8iKg2oBj12HzsBdCXJd6LSIef1mcuDxp2NH80lw07oumtn74s9V8MjA1kcVjI8RfWHtSoEvsA3UQo2qtzMVkrWT7XetHL8M3XeQEKSmVpq_E63ZiW64JPu7xK5O0PKQjCDov_Wa2HGci3ZpX3MyTz-xI4NExyz7XIbevkPw_uQWU9Lh54w_10JHSYddNHJVxcFA37bstMKTJCCTXCNn3Xotg", "width": 3519}], "place_id": "ChIJOQ8fEwLQQw0RHiIrCZ9kFnM", "plus_code": {"compound_code": "PCM8+2V El Molar, Spain", "global_code": "8CGRPCM8+2V"}, "rating": 4.2, "reference": "ChIJOQ8fEwLQQw0RHiIrCZ9kFnM", "scope": "GOOGLE", "types": ["insurance_agency", "accounting", "finance", "point_of_interest", "health", "establishment"], "user_ratings_total": 5, "vicinity": "Plaza Mayor, 12, El Molar"}, {"business_status": "OPERATIONAL", "geometry": {"location": {"lat": 40.73511799999999, "lng": -3.5824526}, "viewport": {"northeast": {"lat": 40.73645998029151, "lng": -3.581114869708498}, "southwest": {"lat": 40.73376201970851, "lng": -3.583812830291502}}}, "icon": "https://maps.gstatic.com/mapfiles/place_api/icons/v1/png_71/shopping-71.png", "icon_background_color": "#4B96F3", "icon_mask_base_uri": "https://maps.gstatic.com/mapfiles/place_api/icons/v2/convenience_pinlet", "international_phone_number": "+34 918 41 00 01", "name": "Asecomolar", "photos": [{"height": 302, "html_attributions": ["<a href=\"https://maps.google.com/maps/contrib/114655629593957071101\">ASECOMOLAR</a>"], "photo_reference": "AWn5SU5C9hZXFBNs0u6uLg7p9JG6VuQgdfeiTe-K3GoVuzQWlWgKzpxmWyFiMZKpci1T8dzn2ky5nkI8AsQXKg2fRQxb0d4H7x-_wvOKE3ZUQriY80INLJrKOGDrIWvvd9f0cEod-VQ1MHwXuFObyEgdjYWFkgiK4KcSZqv6uePfxQJyzWWYKA3rybHRvcnz9aFiWAtST8j8GuDNKYGwIbOJ6tT1zP58cBRswJszrFn_ybzplTr2gWybIWq2WTuBGFzd1Prm4NC3KtrnVhi3jLErxx8pjaZLVflkSJih2vSQpHVW7wohfWV2pTeGG00gDQ57Wz7vDINnmz0", "width": 591}], "place_id": "ChIJ9WRtQQLQQw0RaC_uKreRYEA", "plus_code": {"compound_code": "PCP9+22 El Molar, Spain", "global_code": "8CGRPCP9+22"}, "reference": "ChIJ9WRtQQLQQw0RaC_uKreRYEA", "scope": "GOOGLE", "types": ["convenience_store", "point_of_interest", "food", "store", "establishment"], "vicinity": "Plaza del Paraíso, 2, El Molar"}, {"business_status": "OPERATIONAL", "geometry": {"location": {"lat": 40.737524, "lng": -3.5885659}, "viewport": {"northeast": {"lat": 40.7388090802915, "lng": -3.587194969708497}, "southwest": {"lat": 40.7361111197085, "lng": -3.589892930291501}}}, "icon": "https://maps.gstatic.com/mapfiles/place_api/icons/v1/png_71/shopping-71.png", "icon_background_color": "#4B96F3", "icon_mask_base_uri": "https://maps.gstatic.com/mapfiles/place_api/icons/v2/shopping_pinlet", "international_phone_number": "+34 918 41 15 80", "name": "Avant Audio", "opening_hours": {"open_now": false}, "place_id": "ChIJ571uaAPQQw0RgEMv-uPHAak", "plus_code": {"compound_code": "PCQ6+2H El Molar, Spain", "global_code": "8CGRPCQ6+2H"}, "reference": "ChIJ571uaAPQQw0RgEMv-uPHAak", "scope": "GOOGLE", "types": ["electronics_store", "point_of_interest", "home_goods_store", "store", "establishment"], "vicinity": "Calle de las Arcas, 2, El Molar"}, {"business_status": "OPERATIONAL", "geometry": {"location": {"lat": 40.7320986, "lng": -3.5824358}, "viewport": {"northeast": {"lat": 40.7334406302915, "lng": -3.581170119708498}, "southwest": {"lat": 40.7307426697085, "lng": -3.583868080291502}}}, "icon": "https://maps.gstatic.com/mapfiles/place_api/icons/v1/png_71/shopping-71.png", "icon_background_color": "#4B96F3", "icon_mask_base_uri": "https://maps.gstatic.com/mapfiles/place_api/icons/v2/shopping_pinlet", "international_phone_number": "+34 918 41 03 60", "name": "Óptica y Audiología Molar Visión", "opening_hours": {"open_now": false}, "photos": [{"height": 2268, "html_attributions": ["<a href=\"https://maps.google.com/maps/contrib/116111123513740072574\">Óptica y Audiología Molar Visión</a>"], "photo_reference": "AWn5SU7pweCC1ZkXRaulpTDtUTZqWnLRS-b9ZPhwti1uL4UwmEZCUVKq3tH2Sf7CWYQ0rvPGKsJmo7jcc5p9_ZNOPrQREPRyvBNLJ9ec72n_BBAebYD5p0Ncfpn4TTItOjCeQ51QWdD5Asd0gtf6mxz2fhDuEV6jJbI-ipch0okJSwMwhcYzxWf4b68B1lGVxfFgnAYoHhZpBBgb2DhcAh4mtoKEhWr9gjcHv3pAENrnmDX-TxVugUTKDXasIbplfCmD7SZqqTLNQ2Y0uwzr0X-ejuvHQDv8TfFXmlcFbpaBTlu512S_1bowJq6CK4c6m9rblGNAId_f3lk", "width": 4032}], "place_id": "ChIJCRcQxwLQQw0R8kgmFaO-CIs", "plus_code": {"compound_code": "PCJ9+R2 El Molar, Spain", "global_code": "8CGRPCJ9+R2"}, "rating": 4.9, "reference": "ChIJCRcQxwLQQw0R8kgmFaO-CIs", "scope": "GOOGLE", "types": ["point_of_interest", "health", "store", "establishment"], "user_ratings_total": 16, "vicinity": "Calle Real, 7, El Molar"}, {"business_status": "OPERATIONAL", "geometry": {"location": {"lat": 40.7331729, "lng": -3.5821253}, "viewport": {"northeast": {"lat": 40.73451653029149, "lng": -3.580827319708498}, "southwest": {"lat": 40.73181856970849, "lng": -3.583525280291502}}}, "icon": "https://maps.gstatic.com/mapfiles/place_api/icons/v1/png_71/shopping-71.png", "icon_background_color": "#4B96F3", "icon_mask_base_uri": "https://maps.gstatic.com/mapfiles/place_api/icons/v2/shopping_pinlet", "international_phone_number": "+34 615 50 13 14", "name": "Carnicería Lito", "opening_hours": {"open_now": false}, "place_id": "ChIJd85FdgLQQw0RbRIWRpiEac8", "plus_code": {"compound_code": "PCM9+74 El Molar, Spain", "global_code": "8CGRPCM9+74"}, "rating": 4.7, "reference": "ChIJd85FdgLQQw0RbRIWRpiEac8", "scope": "GOOGLE", "types": ["point_of_interest", "food", "store", "establishment"], "user_ratings_total": 3, "vicinity": "Ramon Gabriel 26, supermercado DIA, El Molar"}, {"geometry": {"location": {"lat": 40.744654, "lng": -3.6027866}, "viewport": {"northeast": {"lat": 40.750050088039, "lng": -3.592568878838539}, "southwest": {"lat": 40.73952456703427, "lng": -3.610821026375171}}}, "icon": "https://maps.gstatic.com/mapfiles/place_api/icons/v1/png_71/geocode-71.png", "icon_background_color": "#7B9EB0", "icon_mask_base_uri": "https://maps.gstatic.com/mapfiles/place_api/icons/v2/generic_pinlet", "name": "Pedrezuela", "photos": [{"height": 4608, "html_attributions": ["<a href=\"https://maps.google.com/maps/contrib/101486630692914097475\">Felix Claudio</a>"], "photo_reference": "AWn5SU6V877cic548CO3-f3UFahenfY170gQ7jiy6kMc-j32W0XBrM5qFCa5gkmRp_OIZnyDONB4gbBx9p6i1ObmWsk1wHi3oHLm5wOfKcXsrGyMwlmN_fmfeJMmFcsuqbTggkz4tz4FFSCckHJ6b3cpSsKQb-23hMj85DE9ZFHGmDEfdCPfHOz3UWwF6m1kqwxWKxCYLDlx081NjVOdBubo-6c9sXMjigUYZVjbOKS7qAiKN0vealzyqgEaoZI-1TEmrQLC-ubPzDBqvOcnAzCr2Mz4c1esacCGCJusGH-bzamf1fCpwe6AlDGib8VTcsgZfsg8p3-bVSEgWiGplfqaQCPzRVIgDKiSY7zAwPA2_ayVcA_xByGgTIwlCdO5qA5_YvsfUT89ZwaVJZBMxiX0QQev5wiJ-cOpgZpfnwGqhwX0WdDa8yUsn1Mzkb64t7gqJmQ7QtjUfMpxz9CJ0YDlDnkU3baZ-I9Zk30Lvky9mHd5XJgw3kKPCI5s8rKQ9mzLwMAsGtbppehtETFszAjS2kptu3mdkicT0iEPgBSL2Wdvt87hGocADcfc4babUHu5JyVAy5RkgtGVtSbMkQ48BdJGVR8VVHILIyCWQcfH6GWb9SyPYYU5BHWoNFrzWuE-FnPFZw", "width": 3456}], "place_id": "ChIJffjKap_aQw0RxbkIkbEyPlg", "reference": "ChIJffjKap_aQw0RxbkIkbEyPlg", "scope": "GOOGLE", "types": ["locality", "political"], "vicinity": "Pedrezuela"}]