[{"geometry": {"location": {"lat": 40.9928523, "lng": -3.7085288}, "viewport": {"northeast": {"lat": 40.99520822069078, "lng": -3.704417166298381}, "southwest": {"lat": 40.98872991376034, "lng": -3.710998843704115}}}, "icon": "https://maps.gstatic.com/mapfiles/place_api/icons/v1/png_71/geocode-71.png", "icon_background_color": "#7B9EB0", "icon_mask_base_uri": "https://maps.gstatic.com/mapfiles/place_api/icons/v2/generic_pinlet", "name": "San Mamés", "photos": [{"height": 2888, "html_attributions": ["<a href=\"https://maps.google.com/maps/contrib/118417285573585034769\">Manoli Cuenca</a>"], "photo_reference": "AWn5SU7YaqapLia32bQwBvqVusPhmxQTAVjGWTDAbQusroATd1_k2NCOMFcTEa_KH9vcrJjxWDIZT_TiTwzTo_AEzpabQmAmmnTTWqTuIQGHfYw6rfrEqu2dPNfG-2ZigEqj3KJ-iSGXvIpfwlWuaVZUCOl5Rm2yYlaEyUBTAdldfbOTvg6f61vxF8azEnXt2JL-DX-Tf7U_LzNkgnvAKhtb9ugoTMb4ufj-v2o8tqd-jbH-HM4NuicT_N86W_-kvkfaQInMm3KX-3OKpGMTeIuHC9KWhvJiqIKbTENxcagAPy6Cp__GKP2oTf4tKfTfa1ixvknbuogge40r2MYCXwD1_jIBFXG9RUU_5-Lnh6zP78u-bmNCEHbm9U41YATrAXelqWL49eTAP1pKfbVGA-h1K9rodL-lgj6pfcmwXksxdXpcCBdzcYwX3wobpQFo4NhKRXcxJvG-xHgXVz_SYvsH9H1unQ_BxSZO2soU6soJTcpVBbxBE9qFpM2VW6XA81T4r93cEp6dBqSVb1nXSwdHsTmJi_Zo--7yOtVG-0M0TeJJCCFMT0GH7qHJi0vhscPFs-bWkYqIeJVsfxW4_o8Pd_D9enlwbgpZy0IgZEGybBiS0pjoQaz7lVQI4-qw2xuevIRpyg", "width": 3300}], "place_id": "ChIJfRuDhjHiQw0R_kdDBchlCTY", "reference": "ChIJfRuDhjHiQw0R_kdDBchlCTY", "scope": "GOOGLE", "types": ["locality", "political"], "vicinity": "San Mamés"}, {"business_status": "OPERATIONAL", "geometry": {"location": {"lat": 40.990371, "lng": -3.7251033}, "viewport": {"northeast": {"lat": 40.9917210302915, "lng": -3.723819019708498}, "southwest": {"lat": 40.9890230697085, "lng": -3.726516980291502}}}, "icon": "https://maps.gstatic.com/mapfiles/place_api/icons/v1/png_71/hospital-71.png", "icon_background_color": "#F88181", "icon_mask_base_uri": "https://maps.gstatic.com/mapfiles/place_api/icons/v2/hospital-H_pinlet", "international_phone_number": "+34 918 69 51 28", "name": "Consultorio Medico", "photos": [{"height": 2448, "html_attributions": ["<a href=\"https://maps.google.com/maps/contrib/113130058026615239874\">Monica Sanchez Fernandez</a>"], "photo_reference": "AWn5SU4KMCZ8JZaFPTTS0xvVjF-Y3jDbs9HchK5gO2Vs5465BE1Kg5KdcQAL6d4kaxLZhjetByrH24PTbOnbXJbxWzAOCuMcZjRzB6wm_gvizt9IrZg3Zm15Av9nrqdzqurT_LW1gQdXdTPLhc5kCtTdtNDzbzpoiCRnhdoYoRhBA7aDvVy2BmHcZRAlYHrKoWGekIWogMH3gsC0109cuFfGb1sNRGu1N1RjcjMRR00WY5iU-HWFMlQO5qPX8qD07-YwTTYpa0w7rKkRE4K_x0aE4fAtsSsBqTWz3VHXrRQc2vQB5V7vJbYGVuhcpd9LRMQKbQqzplo2sfDjo079ulYsy14xs8udbXpKM2Qv2haZJWoR11DupJb0dt019bWtSmYw8LYPgheQLD2OfovlKFAbT5ztXJ0win5pkZoa9YhgdDOI-1T8MDibRLnx1JV9ik61Np0mOesWuYHZBimY9uiulFaUiFOP3Jv5uvEYvZeH1a3S7_sKSs6UX-3ZsByj-x0aedtZ-gFXyN3ZcyMunDTpir8VhY9dCi2lKcx-IYE7np3BWkJ4KCvvbDXtswdCeD5pmYUylEFFLXSZDA-JyhMBiKLVJfNEMQOuaanCHzPNIgi0hYJmSYtD71O06bsYrJFuah2iXCpJ", "width": 3264}], "place_id": "ChIJoZymkBfiQw0RXLgeX2cKxLE", "plus_code": {"compound_code": "X7RF+4X Navarredonda, Spain", "global_code": "8CGRX7RF+4X"}, "rating": 3, "reference": "ChIJoZymkBfiQw0RXLgeX2cKxLE", "scope": "GOOGLE", "types": ["hospital", "health", "point_of_interest", "establishment"], "user_ratings_total": 1, "vicinity": "Calle de la Fuente Vieja, 13, Navarredonda"}, {"business_status": "OPERATIONAL", "geometry": {"location": {"lat": 40.99079929999999, "lng": -3.725607}, "viewport": {"northeast": {"lat": 40.9921135302915, "lng": -3.724227169708497}, "southwest": {"lat": 40.9894155697085, "lng": -3.726925130291502}}}, "icon": "https://maps.gstatic.com/mapfiles/place_api/icons/v1/png_71/civic_building-71.png", "icon_background_color": "#7B9EB0", "icon_mask_base_uri": "https://maps.gstatic.com/mapfiles/place_api/icons/v2/civic-bldg_pinlet", "international_phone_number": "+34 918 69 51 28", "name": "Navarredonda and San Mamés Town Hall", "opening_hours": {"open_now": false}, "photos": [{"height": 4008, "html_attributions": ["<a href=\"https://maps.google.com/maps/contrib/116522339215122585058\">Juan Rubio</a>"], "photo_reference": "AWn5SU5a73XO0Brim2_SZf_RHagZGgxJnUJnGVSs4dRNbtbzc4PMyld2JCopW3DQpy9XaHtXx3HZfdMFj1Yf06w0_s-Lmv7HN2ard1Z2S_c3rT3mw9WSsca41T2pcu4T6DdBrZeEIL9QW5GI_nVJxwvna1gJPZFDEivu7VACtw9-eC8AM209HVmdZT2zG2ngSwlAeMLqIgvkkLK9QRrKScbgLaoUkAichbuEu2eYMgmQyyw2C5fQ6jLqdPUEkfiXY-MVKHQSEx-vWaMB_Xdd4shIYKtKPYz5JpwC93RH-yQpeqdWJ1OuZ0ZX-eRQC-0y3HBjAbT4Nwb4u-ujjtYwGqK78BZDRbjIBjguFNs-AIBt3kM6xOHWQpRc9e9Vr1rrPF7MTyrhjt61GQ8gq4SHeQnpr1XmMVwmLTctT22LqF2c6kBLdYgkeEnpFShOGAyCShkoTlD5Tyk1dKWNnwgTwqh3ITosfqdrNMqWP0g9fpmSMLsu2dYnvbnp6L3jaZiDg0MEX9P-hGx4obIEAcUqidG-enYrPhhKXCf67Miewp-rkBVe5i7_vKmhXdOoQ-t0GaIIAXgH__iAd0iiIKDMZVeolSQX4eWiGtOqtImuRT5AbOvT61o7c5cXFp_O6LN9E2hAHPSj9xr6", "width": 6008}], "place_id": "ChIJzSDLoRfiQw0Rsezom2gdav4", "plus_code": {"compound_code": "X7RF+8Q Navarredonda, Spain", "global_code": "8CGRX7RF+8Q"}, "rating": 4.5, "reference": "ChIJzSDLoRfiQw0Rsezom2gdav4", "scope": "GOOGLE", "types": ["city_hall", "local_government_office", "point_of_interest", "establishment"], "user_ratings_total": 10, "vicinity": "Plaza de la Constitución, 1, Navarredonda"}, {"business_status": "OPERATIONAL", "geometry": {"location": {"lat": 40.9904227, "lng": -3.727714999999999}, "viewport": {"northeast": {"lat": 40.9917203802915, "lng": -3.726330769708497}, "southwest": {"lat": 40.9890224197085, "lng": -3.729028730291502}}}, "icon": "https://maps.gstatic.com/mapfiles/place_api/icons/v1/png_71/generic_business-71.png", "icon_background_color": "#7B9EB0", "icon_mask_base_uri": "https://maps.gstatic.com/mapfiles/place_api/icons/v2/generic_pinlet", "international_phone_number": "+34 636 72 97 30", "name": "Alojamientos Rurales La Nava", "opening_hours": {"open_now": false}, "photos": [{"height": 2340, "html_attributions": ["<a href=\"https://maps.google.com/maps/contrib/108602069673260075588\">Alojamientos Rurales La Nava</a>"], "photo_reference": "AWn5SU5o1B3FOStfwYB2hvYXJj5c_HLm2bla6Q6iq_T0BqQ8kVPWPQD-DzjUx8hnZJhyjLHhpb0O7AtdhgdVI5Yt_yQlSUfZ7fMtl6pi5xOm9glLt_MBTUpCRB7V2cado3fQ866OoOu1BLdefU1RjYUYZgfFtwUSVnGlYCfHUSx-DryVrWciM3EF3cQvdH5KYC8eEcPTON53iJiwnV9jDz-oo3OlKZ04nyRQxlEcfA04CK_AKJfxMXXLMAE8piDKpyg8Ik0awMApl0xDofAimPwsBDXJk7Dct_Lyh1yMJ23njCJw7vuxGkLVx51Qfs7YgFn9f9taZo_yUqU", "width": 1080}], "place_id": "ChIJkUi8SBfiQw0RYvFmilMSdRA", "plus_code": {"compound_code": "X7RC+5W Navarredonda, Spain", "global_code": "8CGRX7RC+5W"}, "rating": 4.5, "reference": "ChIJkUi8SBfiQw0RYvFmilMSdRA", "scope": "GOOGLE", "types": ["point_of_interest", "establishment"], "user_ratings_total": 58, "vicinity": "Camino de la Nava, 2, Navarredonda"}, {"business_status": "OPERATIONAL", "geometry": {"location": {"lat": 41.0005099, "lng": -3.713014500000001}, "viewport": {"northeast": {"lat": 41.0017763802915, "lng": -3.711789419708498}, "southwest": {"lat": 40.9990784197085, "lng": -3.714487380291502}}}, "icon": "https://maps.gstatic.com/mapfiles/place_api/icons/v1/png_71/shopping-71.png", "icon_background_color": "#4B96F3", "icon_mask_base_uri": "https://maps.gstatic.com/mapfiles/place_api/icons/v2/shopping_pinlet", "international_phone_number": "+34 637 74 28 88", "name": "Quesería Artesanal Santo Mamés", "opening_hours": {"open_now": false}, "photos": [{"height": 3024, "html_attributions": ["<a href=\"https://maps.google.com/maps/contrib/103575018472698796073\">Patricia Sainz Stuyck</a>"], "photo_reference": "AWn5SU6c_44ZhaZGxtRu6vXtt9VmtD8vkkRiqBFArgWlElMlECd3r0CndwYiTkwq3rDlA31RTRlwWUIVKzLF-0RT74McamQkdPlQm-nnVM-mO2MY3YAuODRrUDsjU3lveLDSV-lT3Bk3LpK6RdZptfQ2pE8bceovttD-IF-ap6uMIqOaTpWtBJeX_5tnbRJ-p1mi2wEoz34wsWK0CNK0LnKWZ35aSZnMV6pTMLTnQkYnPy_DvSS3s0RMi4YmKKzwIoCX6s0iX-begRowEWoEoo6pyVxcnV19vzWAnOZWxG-iQYO0stL86agSubxZlLp6wvu8hy5EyDVmzNUgM7su8wYrwkQJ_aEYMcLpG7_AzPCVGbCekBD23FoEd6I6RGm9sFRC5d7uMMAGSA5QAk0bmyndGAuuIvU6e87HzrVk1ysP3NAxTMUb7qkVJ1kMXy3j0W3SGXVe5Am7R-ufRKHJNORn8EssMSFGuCNJ3HiJawQGFT4ORZ0GnGvImViK1ImhgcKZmDQNCtUGW0KExO2iuK-Ym1rkamW8xB4mHbtjF2fOKQvFiKHtuHVQTB4LDX2RWlzIRV1sLN42NMv0eMwOmomOLmPiRU-5nnyb-E_BFy7HoNHpKofiDU22I62l4f2MJyBYJ6_m5g", "width": 4032}], "place_id": "ChIJuw7XnDHiQw0RVySUjYOsgfg", "plus_code": {"compound_code": "272P+6Q San Mamés, Spain", "global_code": "8CHR272P+6Q"}, "rating": 4.3, "reference": "ChIJuw7XnDHiQw0RVySUjYOsgfg", "scope": "GOOGLE", "types": ["store", "point_of_interest", "food", "establishment"], "user_ratings_total": 439, "vicinity": "Juan Antonio Garcia Andres, San Mamés"}, {"business_status": "CLOSED_TEMPORARILY", "geometry": {"location": {"lat": 40.99109829999999, "lng": -3.7069957}, "viewport": {"northeast": {"lat": 40.9924614802915, "lng": -3.705649619708497}, "southwest": {"lat": 40.9897635197085, "lng": -3.708347580291502}}}, "icon": "https://maps.gstatic.com/mapfiles/place_api/icons/v1/png_71/generic_business-71.png", "icon_background_color": "#7B9EB0", "icon_mask_base_uri": "https://maps.gstatic.com/mapfiles/place_api/icons/v2/generic_pinlet", "name": "Rural accommodation La Chorrera", "permanently_closed": true, "photos": [{"height": 4000, "html_attributions": ["<a href=\"https://maps.google.com/maps/contrib/103661960380677193766\">Mariana G.</a>"], "photo_reference": "AWn5SU7yJ3epcvattvAYdHHlNp96qM30JNeH95TShSGbFaXJratvCaUbe3SXI3pvbUq3fmL5Ug2KzfV2l3j4mjn0GwBKyXOMFrwyi5VHPmxYZ38vDf7kwGwJmpvgXpvFWLuVE9lz9_mgFSb2FhbIYzTbMr8dM99Qaq-2Y9MGmusioYNh9jMX6uwyzilveqB5d7G29AHcWR2BpiW5kpFoE-1ML8SoUXMOnGKzUYplLRLbHbQUBzEyxZ9gXdirL-Tval3xlFiaAQsIjNpqn85vThW1B1tITJl-o9gsT0juneVqTo0Eq_C08lmxa-ltBfABeVhExwKgUszEzgeUb8StSnPAdtdQ3RERxtBr9pLW3deIhSsuto9sVbcDAvH8WnUAR4fdSzhUbpO_ZIuQZURRtCttcL9ZvqqJ1bvDiuRjIl7O1Y07tmaoj8cOgFqGF98dtgNkSBfeaSilvg2LXWWavNnhDw9EwbVDkFiUpo3NlyXyzijbWc7GBnvV6Sq6uW1IztRYkgCZTWyIerMeey8J0HTp6BBBTq-m2Qj5NbXt0gKqKaHC6cibNDkT7sR50Vbd7YTqqR9q6a3f6Dl8CDwXkgP0dFXpfGcXaueRb6MJpZa21GAkWSpWo01-Y1jkELX7gtrHQNwazlAH", "width": 6000}], "place_id": "ChIJh1lcFDLiQw0R7Qv9EhMxGeI", "plus_code": {"compound_code": "X7RV+C6 San Mamés, Spain", "global_code": "8CGRX7RV+C6"}, "rating": 4.5, "reference": "ChIJh1lcFDLiQw0R7Qv9EhMxGeI", "scope": "GOOGLE", "types": ["lodging", "point_of_interest", "establishment"], "user_ratings_total": 102, "vicinity": "Calle de la Antigua Cañada Real, 14, San Mamés"}, {"business_status": "OPERATIONAL", "geometry": {"location": {"lat": 40.9738251, "lng": -3.713715}, "viewport": {"northeast": {"lat": 40.9750827802915, "lng": -3.712090419708497}, "southwest": {"lat": 40.9723848197085, "lng": -3.714788380291501}}}, "icon": "https://maps.gstatic.com/mapfiles/place_api/icons/v1/png_71/lodging-71.png", "icon_background_color": "#909CE1", "icon_mask_base_uri": "https://maps.gstatic.com/mapfiles/place_api/icons/v2/hotel_pinlet", "international_phone_number": "+34 608 20 52 25", "name": "Posada SPA & Granja La Tejera de Lozoya", "opening_hours": {"open_now": true}, "photos": [{"height": 900, "html_attributions": ["<a href=\"https://maps.google.com/maps/contrib/113698115063861027948\">Posada SPA &amp; Granja La Tejera de Lozoya</a>"], "photo_reference": "AWn5SU55WnClf1zG0A9HoRgURkw0E0hoYqz1EUzGVbGDQWet-JnmmEJGuBLtDQa10epqvGXjzj8KMWad6pYaHnKhC4nLFc6CaqBqRRqJaVyw2SxDvrBI1a_vBWnDgqJq5hqSPQmWotnmMp9--KuGIkWwtOJQbJ6FgtN0n0NwqjRelWtoGjKADEiygaWiUDcizcYbtzhtOwO8O9v-EIca7lvUS_Y2_e6C5Q8XWPq1xNP350oqeZYQ05V0AiOVQ09botscOfaOST_SdwWqK92tK7wclp7bQXjI1RJNYF11thWsA3O5N8hN9djEAKYw27nkkVpSSOhAojkDP6s", "width": 1600}], "place_id": "ChIJB8ZJtYfhQw0RQjNKiSlVYE4", "plus_code": {"compound_code": "X7FP+GG Gargantilla del Lozoya, Spain", "global_code": "8CGRX7FP+GG"}, "rating": 4.2, "reference": "ChIJB8ZJtYfhQw0RQjNKiSlVYE4", "scope": "GOOGLE", "types": ["real_estate_agency", "travel_agency", "lodging", "point_of_interest", "establishment"], "user_ratings_total": 443, "vicinity": "CARRETERA M-635 de Gargantilla del Lozoya Km. 0, 800, Gargantilla del Lozoya"}, {"business_status": "OPERATIONAL", "geometry": {"location": {"lat": 40.9921867, "lng": -3.709353699999999}, "viewport": {"northeast": {"lat": 40.9935540802915, "lng": -3.707969319708497}, "southwest": {"lat": 40.9908561197085, "lng": -3.710667280291502}}}, "icon": "https://maps.gstatic.com/mapfiles/place_api/icons/v1/png_71/generic_business-71.png", "icon_background_color": "#7B9EB0", "icon_mask_base_uri": "https://maps.gstatic.com/mapfiles/place_api/icons/v2/generic_pinlet", "name": "M-634 Carretera Navarredonda", "place_id": "ChIJtYQnojHiQw0RGvXX9n8q4FE", "plus_code": {"compound_code": "X7RR+V7 San Mamés, Spain", "global_code": "8CGRX7RR+V7"}, "reference": "ChIJtYQnojHiQw0RGvXX9n8q4FE", "scope": "GOOGLE", "types": ["transit_station", "point_of_interest", "establishment"], "vicinity": "Spain"}, {"business_status": "OPERATIONAL", "geometry": {"location": {"lat": 40.9928224, "lng": -3.7085286}, "viewport": {"northeast": {"lat": 40.9941721302915, "lng": -3.707180669708498}, "southwest": {"lat": 40.9914741697085, "lng": -3.709878630291502}}}, "icon": "https://maps.gstatic.com/mapfiles/place_api/icons/v1/png_71/generic_business-71.png", "icon_background_color": "#7B9EB0", "icon_mask_base_uri": "https://maps.gstatic.com/mapfiles/place_api/icons/v2/generic_pinlet", "name": "San Mames - Plaza Constitucion", "place_id": "ChIJwbOMeTHiQw0Rt40ILEA6gKg", "plus_code": {"compound_code": "X7VR+4H San Mamés, Spain", "global_code": "8CGRX7VR+4H"}, "reference": "ChIJwbOMeTHiQw0Rt40ILEA6gKg", "scope": "GOOGLE", "types": ["transit_station", "point_of_interest", "establishment"], "vicinity": "Spain"}, {"business_status": "OPERATIONAL", "geometry": {"location": {"lat": 40.99086299999999, "lng": -3.726228999999999}, "viewport": {"northeast": {"lat": 40.9921055302915, "lng": -3.724955669708497}, "southwest": {"lat": 40.9894075697085, "lng": -3.727653630291502}}}, "icon": "https://maps.gstatic.com/mapfiles/place_api/icons/v1/png_71/worship_general-71.png", "icon_background_color": "#7B9EB0", "icon_mask_base_uri": "https://maps.gstatic.com/mapfiles/place_api/icons/v2/worship_christian_pinlet", "name": "Iglesia de San Miguel Arcangel", "photos": [{"height": 4008, "html_attributions": ["<a href=\"https://maps.google.com/maps/contrib/116522339215122585058\">Juan Rubio</a>"], "photo_reference": "AWn5SU7q_H3VJGLQzxeQpTUkJR3VQJgBi64jVMsicydJfmzsLzlMrLbBhVPywZ5PkXHMN0F-vBDph-uChviMEfshnbR1dOm1uR1B-o-oHsep0eklob1OHl0jxaapTfCQO8YHjSoUzZt9dWgB_9gCn2uXs0hK-wIWgKkhmtfklPVJzGVSJd6kzzNTsmdOPnHUW8XmlU3ks0D1zZ9mfPOOrRchaa2-HGZweZuBtuT8iT9qDzjl3QrxbXPWhW71QWGasflTcVd_LH3EXW81FzrFa80TDXuvNOPrDzTMHH_9SsPqlxhJv8cVVDE6ajscsKe2bXxids1JAgQWS_iBjnK6ixFHRVM_o030fQJeXm-7c0yHgbiZqfYVI5aUhF6VRNqBOISQNu5yZ2uJoCpjKrJhdzFjrHxlyzbX5CYK5uFHE8IYoPLcNZz8yvavsAXbJ62MwheIYu7LOU6GtBWD-lZ9lBq7_ycNNRPchrnTYnrVxm17BqKk1L7B2XTmRnA7jPSogsYYNCKT0j0q0hNdAAZr25sBig-rwA7aTdSKLHzbe23F025LAQsCjJbH8iSxoieyWCVVLZt2IT9Lpq5-ckTViYOB8lVVfyeYyqVNV2bV0q6oZzitI3n-HD_6pW-Hn1DhadPsXGokBYRH", "width": 6008}], "place_id": "ChIJE2uqDRfiQw0R_A3FzkFmYKc", "plus_code": {"compound_code": "X7RF+8G Navarredonda, Spain", "global_code": "8CGRX7RF+8G"}, "rating": 4, "reference": "ChIJE2uqDRfiQw0R_A3FzkFmYKc", "scope": "GOOGLE", "types": ["church", "place_of_worship", "point_of_interest", "establishment"], "user_ratings_total": 1, "vicinity": "Plaza de la Iglesia, Navarredonda"}, {"business_status": "OPERATIONAL", "geometry": {"location": {"lat": 40.9906792, "lng": -3.725699}, "viewport": {"northeast": {"lat": 40.9920230802915, "lng": -3.724407169708498}, "southwest": {"lat": 40.9893251197085, "lng": -3.727105130291502}}}, "icon": "https://maps.gstatic.com/mapfiles/place_api/icons/v1/png_71/generic_business-71.png", "icon_background_color": "#7B9EB0", "icon_mask_base_uri": "https://maps.gstatic.com/mapfiles/place_api/icons/v2/generic_pinlet", "name": "Fuente", "place_id": "ChIJxQ1O4f3jQw0RLRJ90YfAUxs", "plus_code": {"compound_code": "X7RF+7P Navarredonda, Spain", "global_code": "8CGRX7RF+7P"}, "rating": 5, "reference": "ChIJxQ1O4f3jQw0RLRJ90YfAUxs", "scope": "GOOGLE", "types": ["point_of_interest", "establishment"], "user_ratings_total": 1, "vicinity": "Plaza de la Constitución, Navarredonda"}, {"business_status": "OPERATIONAL", "geometry": {"location": {"lat": 40.99080709999999, "lng": -3.725669600000001}, "viewport": {"northeast": {"lat": 40.9920831302915, "lng": -3.724393919708498}, "southwest": {"lat": 40.9893851697085, "lng": -3.727091880291502}}}, "icon": "https://maps.gstatic.com/mapfiles/place_api/icons/v1/png_71/bar-71.png", "icon_background_color": "#FF9E67", "icon_mask_base_uri": "https://maps.gstatic.com/mapfiles/place_api/icons/v2/bar_pinlet", "international_phone_number": "+34 636 72 97 30", "name": "Bar La Ronda", "opening_hours": {"open_now": false}, "photos": [{"height": 3120, "html_attributions": ["<a href=\"https://maps.google.com/maps/contrib/111561943982816975190\">Pablo Fernandez</a>"], "photo_reference": "AWn5SU4D_7a2RxOXSDUkyKhf7UM6FHQMsf8dPngVzI3iVZM3BwmEdCa3CTjWqzndPOVcOHXIsx3ZigkYZhXJau8AMSo5UpOZ1vNnQ3Gb1Tprx2VVC7uLg4f_Mt6M1E44pCR5SNXOSdardW--hmifVn00QQT6a1f6puKbyP9BCy8kXoYzEPWpaDaeSvG7nnG0MkLRpRr9Ty1h5TPcfqTsaAD_ceDC61Ii0A09ZBafNu2wT-7ZZPlgZbOsAJOb4tv9SkXT7_6IJhUOChukNYCREXsVAMxG0sUmAR_Susrs41FcQ_5yad5kRllc9SO_CjnV2Taa39wKfcyxDep-YW7mw6VppJHq3N1kHFn1hCUQH2xFgk8NDPHP1sy3JWQqe3EwUu1QYMBjWW-pMkngJCGeuHUYRX0DBzCH6Dxc7XxDHU1P0Fk0b_pxKBBt2ngMrbpw0yioMBTAJnPw7jZbelCX110dPCYZZTfMi3SAkTt_slsSY1badkC4ktKZ7TjXva9em1u4o4Sv9dijXnt3H9noZpMYYzlYH5fUC4D7S_oviu4oZcUThycQDo38cU0uXsxhG4qOwkNbm6WiuNLBpdk2I7vBSNA2c-Okds6d12ye8fD6J2nwlUePTrTZh4JIpG6l6Diy", "width": 4160}], "place_id": "ChIJVf3uMvDjQw0RTQz41eAb9Qg", "plus_code": {"compound_code": "X7RF+8P Navarredonda, Spain", "global_code": "8CGRX7RF+8P"}, "price_level": 1, "rating": 4.5, "reference": "ChIJVf3uMvDjQw0RTQz41eAb9Qg", "scope": "GOOGLE", "types": ["bar", "point_of_interest", "establishment"], "user_ratings_total": 229, "vicinity": "Plaza de la Constitución, 1, Navarredonda"}, {"business_status": "OPERATIONAL", "geometry": {"location": {"lat": 40.9905814, "lng": -3.7257241}, "viewport": {"northeast": {"lat": 40.99195468029149, "lng": -3.724411719708498}, "southwest": {"lat": 40.98925671970849, "lng": -3.727109680291502}}}, "icon": "https://maps.gstatic.com/mapfiles/place_api/icons/v1/png_71/generic_business-71.png", "icon_background_color": "#13B5C7", "icon_mask_base_uri": "https://maps.gstatic.com/mapfiles/place_api/icons/v2/generic_pinlet", "name": "Antiguas escuelas", "place_id": "ChIJGVMzz6PjQw0RnGlUzkyTvfU", "plus_code": {"compound_code": "X7RF+6P Navarredonda, Spain", "global_code": "8CGRX7RF+6P"}, "reference": "ChIJGVMzz6PjQw0RnGlUzkyTvfU", "scope": "GOOGLE", "types": ["point_of_interest", "establishment"], "vicinity": "Plaza de la Constitución, Navarredonda"}, {"business_status": "OPERATIONAL", "geometry": {"location": {"lat": 40.9906627, "lng": -3.7252364}, "viewport": {"northeast": {"lat": 40.9919952802915, "lng": -3.723887669708497}, "southwest": {"lat": 40.9892973197085, "lng": -3.726585630291502}}}, "icon": "https://maps.gstatic.com/mapfiles/place_api/icons/v1/png_71/generic_business-71.png", "icon_background_color": "#13B5C7", "icon_mask_base_uri": "https://maps.gstatic.com/mapfiles/place_api/icons/v2/generic_pinlet", "name": "Fuente de los Tres Caños", "photos": [{"height": 2604, "html_attributions": ["<a href=\"https://maps.google.com/maps/contrib/106829760506698165124\">Cristobal “ClopezA” Lopez Alba</a>"], "photo_reference": "AWn5SU68vouVLMeIuEkxsaZznhrBC0aPgQzGYX7kUTNyG3ZsdAjmkPWmBVxElYsXPYv0P_geqy-RqM3CNi6AOR0pNKSFMADLwtfs4IFao-nw2T6bB59EnmsMGUIC0UxTv4p4mTCjhE0rcSJFcvBneMbmLKth6L3Nn8anLH2UPsg0fCvzI-BN71_1DfgtrXjK-2YRHLqfislDsaVM_L7lIX_UL9GuARzLEvcww8uUv4kQSreHukkQ6LBhUb18q0Scz6VbD3WtNEeVQSOFQPyP8XwjW3dYTzplCm0CfABS6LBWpRPw_VEt6SExdloKcANX5qH50tpplUiTBRaR_gajhMTUKVENEOzjWdYn2u8MrRY0yUFIz9DJZFZs6wApePFvxmr2pkBf_OgrHbCCpMkcZbPAeVjzCcIrMypSs8Ti7kHMdmX18DTjvHyo7J8kb9dKZNzxgSgIDu3OMcySNJ7QBDwBUz53DI3NzPzOQtM9KKbECfVS5OI04Z_XIznRKqfBJ5TihcF7JbsUUqU1vzXM9wW_LrvwBZFrVwKJADSLp8I1zRrtnx0lRgStLTfHSAx49mBiypxwUiTGyFj0eOssO5OATzjt2qIkJEVEFRvZYqBBqvY31ss76cIZeuQQj13Qqn_-AUqIg1SAXv4v80hp97UuBmkaBhQ", "width": 4624}], "place_id": "ChIJazwoUADjQw0Rd91LqreHfxQ", "plus_code": {"compound_code": "X7RF+7W Navarredonda, Spain", "global_code": "8CGRX7RF+7W"}, "reference": "ChIJazwoUADjQw0Rd91LqreHfxQ", "scope": "GOOGLE", "types": ["point_of_interest", "establishment"], "vicinity": "Calle Real, Navarredonda"}, {"business_status": "OPERATIONAL", "geometry": {"location": {"lat": 40.99063999999999, "lng": -3.725149999999999}, "viewport": {"northeast": {"lat": 40.9920038802915, "lng": -3.723804619708498}, "southwest": {"lat": 40.9893059197085, "lng": -3.726502580291502}}}, "icon": "https://maps.gstatic.com/mapfiles/place_api/icons/v1/png_71/generic_business-71.png", "icon_background_color": "#7B9EB0", "icon_mask_base_uri": "https://maps.gstatic.com/mapfiles/place_api/icons/v2/generic_pinlet", "name": "Navarredonda-Pza.Constitución", "place_id": "ChIJV2WOnxfiQw0RUWKNIb05Xgs", "plus_code": {"compound_code": "X7RF+7W Navarredonda, Spain", "global_code": "8CGRX7RF+7W"}, "rating": 1, "reference": "ChIJV2WOnxfiQw0RUWKNIb05Xgs", "scope": "GOOGLE", "types": ["transit_station", "point_of_interest", "establishment"], "user_ratings_total": 1, "vicinity": "Spain"}, {"business_status": "OPERATIONAL", "geometry": {"location": {"lat": 40.9906649, "lng": -3.7271355}, "viewport": {"northeast": {"lat": 40.9919609802915, "lng": -3.725752269708498}, "southwest": {"lat": 40.9892630197085, "lng": -3.728450230291503}}}, "icon": "https://maps.gstatic.com/mapfiles/place_api/icons/v1/png_71/generic_business-71.png", "icon_background_color": "#13B5C7", "icon_mask_base_uri": "https://maps.gstatic.com/mapfiles/place_api/icons/v2/generic_pinlet", "name": "Piedra o reloj de las veces", "place_id": "ChIJibT5VADjQw0RlRZgD5MwRMI", "plus_code": {"compound_code": "X7RF+74 Navarredonda, Spain", "global_code": "8CGRX7RF+74"}, "reference": "ChIJibT5VADjQw0RlRZgD5MwRMI", "scope": "GOOGLE", "types": ["point_of_interest", "establishment"], "vicinity": "Navarredonda"}, {"business_status": "OPERATIONAL", "geometry": {"location": {"lat": 40.9903657, "lng": -3.724961799999999}, "viewport": {"northeast": {"lat": 40.99171683029149, "lng": -3.723748319708497}, "southwest": {"lat": 40.9890188697085, "lng": -3.726446280291501}}}, "icon": "https://maps.gstatic.com/mapfiles/place_api/icons/v1/png_71/generic_business-71.png", "icon_background_color": "#7B9EB0", "icon_mask_base_uri": "https://maps.gstatic.com/mapfiles/place_api/icons/v2/generic_pinlet", "international_phone_number": "+34 610 55 51 51", "name": "El Jabardo SAT", "opening_hours": {"open_now": true}, "photos": [{"height": 1530, "html_attributions": ["<a href=\"https://maps.google.com/maps/contrib/107078481088628061169\">El Jabardo SAT</a>"], "photo_reference": "AWn5SU6CF-jexqfKsfluEqNic8fragkiPunm3chD5vWgdGNiVaTBocSqu9yAO5-KEBQV41vN2bK0TczBS71JirVFM9xup_8JlcwVeypDYz2XK-a88mIYTxGru8wSHXYFK8psbfWqWtvBe88IyvEV6tWeDE2HBMjcBzRI-Ar4r8UbNBJHgueqHsBDAEB7Fv8L0d4JW2TBZzsQbFtV0aOD2BChyaTUwy_M5BYH9lhWU6kEToWoPZXPgw4h2S44y2c80LCXoFXu_4_D7PeUfcwkfGb7BtqBJ-95_pnsNQwsg8pl83Wlbhk0wDihk1Vu6P_gDqFtyD8Dqavbz8k", "width": 2040}], "place_id": "ChIJU-aEgvPjQw0RauQSep9ig8o", "plus_code": {"compound_code": "X7RG+42 Navarredonda, Spain", "global_code": "8CGRX7RG+42"}, "rating": 5, "reference": "ChIJU-aEgvPjQw0RauQSep9ig8o", "scope": "GOOGLE", "types": ["point_of_interest", "establishment"], "user_ratings_total": 1, "vicinity": "Calle de la Fuente Vieja, 7, Madrid"}, {"business_status": "OPERATIONAL", "geometry": {"location": {"lat": 40.9896938, "lng": -3.7256916}, "viewport": {"northeast": {"lat": 40.99102483029149, "lng": -3.724350119708498}, "southwest": {"lat": 40.98832686970849, "lng": -3.727048080291503}}}, "icon": "https://maps.gstatic.com/mapfiles/place_api/icons/v1/png_71/generic_business-71.png", "icon_background_color": "#13B5C7", "icon_mask_base_uri": "https://maps.gstatic.com/mapfiles/place_api/icons/v2/generic_pinlet", "name": "Potro de Herrar", "photos": [{"height": 4032, "html_attributions": ["<a href=\"https://maps.google.com/maps/contrib/113130058026615239874\">Monica Sanchez Fernandez</a>"], "photo_reference": "AWn5SU6VeXP-HOn60b_bxDbrNz6X8lb6U-eUofivVq5uKPzZcW2msAZmILlYz34g3tS65aac7OjYXvhs2VKWSY6CAtcHiIbOErdSzpBvULWF1ZWRbjBRt-nUsHcGg55ZPjJdZoSqLCetFv015V63mUtmwNII_5_EjDo1qu4t_QtQQqD1hN8iLo6QaiFbB-HnjD9ZeFgW_Q6yZ_YsmQhQAUpzswV3R1eRMD-zD8NK-s0S2WzqbnoVg_IbA-qis6FGXQ0xRAQE80RZxmdIT7gTrQe0DV0A0qTA452cbZmRwFju9yf3TaSH6HPt6wPLTSX4pCec0FMMBb1PIOqX8zYqQGLeGvX7Ifo4MkGykyxakl9HdM6icqh_I9accgMpIa_8jvQk-fz2XmNytO7E5Ul4V5zgdBQOZOZT7UzaQ72j4zTdRdsYQgQiQvzzw7Xcofw0aXUMrR6XYzTYphIR5vJ4mpYthi5utjjzAZcdUZNkhWl_tw7PDdSFpfUFmRzr1w7Y44ossr5Oubq-3izVlepBylryD6G3Z0yi5Simw9hnlQFIlJeHKwXpIDvC2v4IlN1Fsl_i4g8wp04KTHfdXKLOJyWEMjcN9IrH-Hto6ZH4w4RmWaiPgwu_wXAwhHBSgh3PgIMle4lhhA", "width": 3024}], "place_id": "ChIJGW5BUvrjQw0R_E_0RON55g4", "plus_code": {"compound_code": "X7QF+VP Navarredonda, Spain", "global_code": "8CGRX7QF+VP"}, "rating": 1.5, "reference": "ChIJGW5BUvrjQw0R_E_0RON55g4", "scope": "GOOGLE", "types": ["point_of_interest", "establishment"], "user_ratings_total": 2, "vicinity": "Calle de las Eras, 16, Navarredonda"}, {"business_status": "OPERATIONAL", "geometry": {"location": {"lat": 40.989089, "lng": -3.7253033}, "viewport": {"northeast": {"lat": 40.9905726302915, "lng": -3.724013969708498}, "southwest": {"lat": 40.9878746697085, "lng": -3.726711930291502}}}, "icon": "https://maps.gstatic.com/mapfiles/place_api/icons/v1/png_71/park-71.png", "icon_background_color": "#4DB546", "icon_mask_base_uri": "https://maps.gstatic.com/mapfiles/place_api/icons/v2/tree_pinlet", "name": "Fuente Vieja", "opening_hours": {"open_now": true}, "photos": [{"height": 4080, "html_attributions": ["<a href=\"https://maps.google.com/maps/contrib/105250861148603128897\">Tere</a>"], "photo_reference": "AWn5SU7nk12Lzw3IZDC4jwF2mKoU3P2_Kc40GoVgdSI77l0EPqkf22tMQsCNulma9aoo9N8rbayiIztA8fTuPBkyHBrLFnLKiH_QE10RYt6fLHBb2K9X0ySR7gAtCfrMNCXse06FSAzYqYuSDyShyPHs-K7xJnm8r99wvWTh7YOHmF62jloSdWTKZAyWI8allI39bez6IRzWlNsKdrV0i-7VJg9gaGzpfUA7Q2w5ZhL3ctgLc6ldkfwz0zmf41bC1osXr7LBZUWd7M6z02Z-y_oobGjQF5giPuD6GrGX_awj1uTCnahUdLeIxZyfYt2YtbRqfbbkP1BVZPaSQc8iOSgCp0o0ZuWUUco6tm_YF8WPAuP_HaNcB4brlVWXmBY3LWnwPNshGXNwJLj9w6XRcH2H2fACf5-0dubnLVzyJLT3YOmezVT_UAIu9t40m3_RCEmTz2Bh215BBGluP5FaiTh8kiOPflB1ncfthjKZLW9bEq-Jg65VNTnm9EQ4wV-qlfa9v2Fn48XYDSH8wFJceDo1YBtr6Aa2EFlp3EC3B0GdMfNQWon_jV1bjy0jfACfOU9MYpVAbOYYKeucYc2qm3Nnmg0fSpUaLvU0VIbRskcsgQ-Onklu7un-HvC6FMV4bOPyg5BxFPSpMdJnyBXuIfV4EqD9-WE", "width": 1836}], "place_id": "ChIJIya8QfPjQw0RvE6RxEcs3lM", "plus_code": {"compound_code": "X7QF+JV Navarredonda, Spain", "global_code": "8CGRX7QF+JV"}, "rating": 4.7, "reference": "ChIJIya8QfPjQw0RvE6RxEcs3lM", "scope": "GOOGLE", "types": ["park", "point_of_interest", "establishment"], "user_ratings_total": 3, "vicinity": "Calle Pezuela, 11, Navarredonda"}, {"geometry": {"location": {"lat": 40.9906853, "lng": -3.7241428}, "viewport": {"northeast": {"lat": 40.99174298925753, "lng": -3.722208092247123}, "southwest": {"lat": 40.98904502867454, "lng": -3.725512683028915}}}, "icon": "https://maps.gstatic.com/mapfiles/place_api/icons/v1/png_71/geocode-71.png", "icon_background_color": "#7B9EB0", "icon_mask_base_uri": "https://maps.gstatic.com/mapfiles/place_api/icons/v2/generic_pinlet", "name": "La Peñuela", "place_id": "ChIJuWAO6hfiQw0RqCnsVwEfSSg", "reference": "ChIJuWAO6hfiQw0RqCnsVwEfSSg", "scope": "GOOGLE", "types": ["sublocality_level_1", "sublocality", "political"], "vicinity": "La Peñuela"}]