[{"business_status": "OPERATIONAL", "geometry": {"location": {"lat": 40.5048336, "lng": -3.5316425}, "viewport": {"northeast": {"lat": 40.50618598029151, "lng": -3.530276919708498}, "southwest": {"lat": 40.50348801970851, "lng": -3.532974880291502}}}, "icon": "https://maps.gstatic.com/mapfiles/place_api/icons/v1/png_71/generic_business-71.png", "icon_background_color": "#7B9EB0", "icon_mask_base_uri": "https://maps.gstatic.com/mapfiles/place_api/icons/v2/generic_pinlet", "name": "Paracuellos - Pza Constitucion", "place_id": "ChIJJzGBtNAzQg0R3CN31XoLQpw", "plus_code": {"compound_code": "GF39+W8 Paracuellos de Jarama, Spain", "global_code": "8CGRGF39+W8"}, "reference": "ChIJJzGBtNAzQg0R3CN31XoLQpw", "scope": "GOOGLE", "types": ["transit_station", "point_of_interest", "establishment"], "vicinity": "Spain"}, {"business_status": "OPERATIONAL", "geometry": {"location": {"lat": 40.5035697, "lng": -3.532187399999999}, "viewport": {"northeast": {"lat": 40.5049041302915, "lng": -3.530882519708497}, "southwest": {"lat": 40.5022061697085, "lng": -3.533580480291501}}}, "icon": "https://maps.gstatic.com/mapfiles/place_api/icons/v1/png_71/generic_business-71.png", "icon_background_color": "#7B9EB0", "icon_mask_base_uri": "https://maps.gstatic.com/mapfiles/place_api/icons/v2/generic_pinlet", "name": "Real-Ronda de las Cuestas", "photos": [{"height": 4312, "html_attributions": ["<a href=\"https://maps.google.com/maps/contrib/110904560839225443352\">Ali Khaddour</a>"], "photo_reference": "AWn5SU7T4z12RXliQRtOMkjtU6UlU6AIgcT_SKh6U7kz9D7GKQtDQof0Y4Ta4g3ICSIwANi-l7zF4NQIIOQDw3L2v4ObDxG_Ztp1On7MARNn1vVvNAt3rdtAfMXVRWv7lj6eO5aY5q8RApqzLNvxj8M4iULsiOLxOXGHMoarNPYwFJtj6pYSESsSI6jQ8WUAITrZOZHgUffD794x0_H600h4pmy3h6j14MHVK9dNk82Q7I85TN-GAm2fRdFPjuiCqxJV8l-wAQNnk7F6mOvqQBqUdlDcX3gDkgz06LGFVCKfFXUuMiPUOkadLYKuss9BENjz9KpvJPCtScmvii_JCX6b8-J0qalQJFz371SgSWOnw3s9HVXhQWYv1WrOK0iUNrPnDj9M86rMYRBVPwFfF3ulMY-PiSMK1gQ_4GzU9FoGKBwmooUX8y_vulaG-S5B3iMFLrDgLZQYB4BiapX-Vr9X7cJzxt2WZTx8JaAdGMqNOJi2OQygXx4UAzURBGVvyYZBIkxVvHRyDoWtQ1fzwiyN3veE3lO3XUlE5novNmVInqD1ilmHgDsH_gniifWzZitQghZ-dPgcRD2bI4rG3BQesrPpqoMgRetOFouYWNzZD5YWmc3nbD_Q2FDbnyLfjoguv0UOEnSZ", "width": 5760}], "place_id": "ChIJw8BcPtczQg0RaVfaSKKPU8g", "plus_code": {"compound_code": "GF39+C4 Paracuellos de Jarama, Spain", "global_code": "8CGRGF39+C4"}, "rating": 3, "reference": "ChIJw8BcPtczQg0RaVfaSKKPU8g", "scope": "GOOGLE", "types": ["transit_station", "point_of_interest", "establishment"], "user_ratings_total": 4, "vicinity": "Spain"}, {"business_status": "OPERATIONAL", "geometry": {"location": {"lat": 40.5043976, "lng": -3.5304238}, "viewport": {"northeast": {"lat": 40.5057539302915, "lng": -3.529060669708499}, "southwest": {"lat": 40.50305596970851, "lng": -3.531758630291502}}}, "icon": "https://maps.gstatic.com/mapfiles/place_api/icons/v1/png_71/bus-71.png", "icon_background_color": "#10BDFF", "icon_mask_base_uri": "https://maps.gstatic.com/mapfiles/place_api/icons/v2/bus_share_taxi_pinlet", "name": "Real-Atarre", "place_id": "ChIJYdwe_NkzQg0RehhyulVq8Ho", "plus_code": {"compound_code": "GF39+QR Paracuellos de Jarama, Spain", "global_code": "8CGRGF39+QR"}, "reference": "ChIJYdwe_NkzQg0RehhyulVq8Ho", "scope": "GOOGLE", "types": ["bus_station", "transit_station", "point_of_interest", "establishment"], "vicinity": "Spain"}, {"business_status": "OPERATIONAL", "geometry": {"location": {"lat": 40.5061027, "lng": -3.5299059}, "viewport": {"northeast": {"lat": 40.5074331302915, "lng": -3.528596819708498}, "southwest": {"lat": 40.5047351697085, "lng": -3.531294780291502}}}, "icon": "https://maps.gstatic.com/mapfiles/place_api/icons/v1/png_71/generic_business-71.png", "icon_background_color": "#7B9EB0", "icon_mask_base_uri": "https://maps.gstatic.com/mapfiles/place_api/icons/v2/generic_pinlet", "name": "Paracuellos - Ronda Fuente 6", "place_id": "ChIJJdMebdozQg0RJGUMfFZgA9Q", "plus_code": {"compound_code": "GF4C+C2 Paracuellos de Jarama, Spain", "global_code": "8CGRGF4C+C2"}, "reference": "ChIJJdMebdozQg0RJGUMfFZgA9Q", "scope": "GOOGLE", "types": ["transit_station", "point_of_interest", "establishment"], "vicinity": "Spain"}, {"business_status": "OPERATIONAL", "geometry": {"location": {"lat": 40.50437159999999, "lng": -3.528476}, "viewport": {"northeast": {"lat": 40.50571773029149, "lng": -3.527133469708499}, "southwest": {"lat": 40.5030197697085, "lng": -3.529831430291502}}}, "icon": "https://maps.gstatic.com/mapfiles/place_api/icons/v1/png_71/generic_business-71.png", "icon_background_color": "#7B9EB0", "icon_mask_base_uri": "https://maps.gstatic.com/mapfiles/place_api/icons/v2/generic_pinlet", "name": "PºRadar-Murcia", "place_id": "ChIJg5euh9kzQg0R_As8Za31v4w", "plus_code": {"compound_code": "GF3C+PJ Paracuellos de Jarama, Spain", "global_code": "8CGRGF3C+PJ"}, "reference": "ChIJg5euh9kzQg0R_As8Za31v4w", "scope": "GOOGLE", "types": ["transit_station", "point_of_interest", "establishment"], "vicinity": "Spain"}, {"business_status": "OPERATIONAL", "geometry": {"location": {"lat": 40.50435290000001, "lng": -3.5284638}, "viewport": {"northeast": {"lat": 40.5056998302915, "lng": -3.527119469708498}, "southwest": {"lat": 40.5030018697085, "lng": -3.529817430291502}}}, "icon": "https://maps.gstatic.com/mapfiles/place_api/icons/v1/png_71/generic_business-71.png", "icon_background_color": "#7B9EB0", "icon_mask_base_uri": "https://maps.gstatic.com/mapfiles/place_api/icons/v2/generic_pinlet", "name": "Pºradar-Murcia", "place_id": "ChIJA36sh9kzQg0Rf-5CsL4-9wc", "plus_code": {"compound_code": "GF3C+PJ Paracuellos de Jarama, Spain", "global_code": "8CGRGF3C+PJ"}, "reference": "ChIJA36sh9kzQg0Rf-5CsL4-9wc", "scope": "GOOGLE", "types": ["transit_station", "point_of_interest", "establishment"], "vicinity": "Spain"}, {"business_status": "OPERATIONAL", "geometry": {"location": {"lat": 40.5042177, "lng": -3.5284632}, "viewport": {"northeast": {"lat": 40.50556753029149, "lng": -3.527112219708498}, "southwest": {"lat": 40.50286956970849, "lng": -3.529810180291502}}}, "icon": "https://maps.gstatic.com/mapfiles/place_api/icons/v1/png_71/generic_business-71.png", "icon_background_color": "#7B9EB0", "icon_mask_base_uri": "https://maps.gstatic.com/mapfiles/place_api/icons/v2/generic_pinlet", "name": "PºRadar-Av.Andalucía", "place_id": "ChIJb3xfg9kzQg0RwDmDIjXMgis", "plus_code": {"compound_code": "GF3C+MJ Paracuellos de Jarama, Spain", "global_code": "8CGRGF3C+MJ"}, "reference": "ChIJb3xfg9kzQg0RwDmDIjXMgis", "scope": "GOOGLE", "types": ["transit_station", "point_of_interest", "establishment"], "vicinity": "Spain"}, {"business_status": "OPERATIONAL", "geometry": {"location": {"lat": 40.5078451, "lng": -3.5330594}, "viewport": {"northeast": {"lat": 40.5091972802915, "lng": -3.531685969708498}, "southwest": {"lat": 40.5064993197085, "lng": -3.534383930291502}}}, "icon": "https://maps.gstatic.com/mapfiles/place_api/icons/v1/png_71/generic_business-71.png", "icon_background_color": "#7B9EB0", "icon_mask_base_uri": "https://maps.gstatic.com/mapfiles/place_api/icons/v2/generic_pinlet", "name": "Paracuellos - Chorrillo Alt 62", "place_id": "ChIJwTx5TdAzQg0R58skbdKsBsI", "plus_code": {"compound_code": "GF58+4Q Paracuellos de Jarama, Spain", "global_code": "8CGRGF58+4Q"}, "reference": "ChIJwTx5TdAzQg0R58skbdKsBsI", "scope": "GOOGLE", "types": ["transit_station", "point_of_interest", "establishment"], "vicinity": "Spain"}, {"business_status": "OPERATIONAL", "geometry": {"location": {"lat": 40.507907, "lng": -3.5329666}, "viewport": {"northeast": {"lat": 40.5092562802915, "lng": -3.531615269708498}, "southwest": {"lat": 40.5065583197085, "lng": -3.534313230291501}}}, "icon": "https://maps.gstatic.com/mapfiles/place_api/icons/v1/png_71/generic_business-71.png", "icon_background_color": "#7B9EB0", "icon_mask_base_uri": "https://maps.gstatic.com/mapfiles/place_api/icons/v2/generic_pinlet", "name": "Paracuellos De Jarama", "place_id": "ChIJsw7ATdAzQg0RibgPnylIiP0", "plus_code": {"compound_code": "GF58+5R Paracuellos de Jarama, Spain", "global_code": "8CGRGF58+5R"}, "reference": "ChIJsw7ATdAzQg0RibgPnylIiP0", "scope": "GOOGLE", "types": ["transit_station", "point_of_interest", "establishment"], "vicinity": "Spain"}, {"business_status": "OPERATIONAL", "geometry": {"location": {"lat": 40.5080348, "lng": -3.5329426}, "viewport": {"northeast": {"lat": 40.5093926802915, "lng": -3.531590019708498}, "southwest": {"lat": 40.5066947197085, "lng": -3.534287980291502}}}, "icon": "https://maps.gstatic.com/mapfiles/place_api/icons/v1/png_71/generic_business-71.png", "icon_background_color": "#7B9EB0", "icon_mask_base_uri": "https://maps.gstatic.com/mapfiles/place_api/icons/v2/generic_pinlet", "name": "Real-Av.Andalucía", "place_id": "ChIJX7Y7TNAzQg0RrZPQ3lntZ00", "plus_code": {"compound_code": "GF58+6R Paracuellos de Jarama, Spain", "global_code": "8CGRGF58+6R"}, "reference": "ChIJX7Y7TNAzQg0RrZPQ3lntZ00", "scope": "GOOGLE", "types": ["transit_station", "point_of_interest", "establishment"], "vicinity": "Spain"}, {"business_status": "OPERATIONAL", "geometry": {"location": {"lat": 40.5081786, "lng": -3.533048599999999}, "viewport": {"northeast": {"lat": 40.5095141802915, "lng": -3.531733969708498}, "southwest": {"lat": 40.5068162197085, "lng": -3.534431930291502}}}, "icon": "https://maps.gstatic.com/mapfiles/place_api/icons/v1/png_71/generic_business-71.png", "icon_background_color": "#7B9EB0", "icon_mask_base_uri": "https://maps.gstatic.com/mapfiles/place_api/icons/v2/generic_pinlet", "name": "Paracuellos De Jarama", "place_id": "ChIJZwJ4S9AzQg0RvDBo1IAafxc", "plus_code": {"compound_code": "GF58+7Q Paracuellos de Jarama, Spain", "global_code": "8CGRGF58+7Q"}, "reference": "ChIJZwJ4S9AzQg0RvDBo1IAafxc", "scope": "GOOGLE", "types": ["transit_station", "point_of_interest", "establishment"], "vicinity": "Spain"}, {"business_status": "OPERATIONAL", "geometry": {"location": {"lat": 40.5057802, "lng": -3.527578}, "viewport": {"northeast": {"lat": 40.50711893029151, "lng": -3.526230369708498}, "southwest": {"lat": 40.50442096970851, "lng": -3.528928330291502}}}, "icon": "https://maps.gstatic.com/mapfiles/place_api/icons/v1/png_71/generic_business-71.png", "icon_background_color": "#7B9EB0", "icon_mask_base_uri": "https://maps.gstatic.com/mapfiles/place_api/icons/v2/generic_pinlet", "name": "Real-Segovia", "place_id": "ChIJlxK0yNszQg0Ro7A9zjqaK3c", "plus_code": {"compound_code": "GF4C+8X Paracuellos de Jarama, Spain", "global_code": "8CGRGF4C+8X"}, "reference": "ChIJlxK0yNszQg0Ro7A9zjqaK3c", "scope": "GOOGLE", "types": ["transit_station", "point_of_interest", "establishment"], "vicinity": "Spain"}, {"business_status": "OPERATIONAL", "geometry": {"location": {"lat": 40.5057, "lng": -3.52747}, "viewport": {"northeast": {"lat": 40.5070469302915, "lng": -3.526121269708498}, "southwest": {"lat": 40.5043489697085, "lng": -3.528819230291501}}}, "icon": "https://maps.gstatic.com/mapfiles/place_api/icons/v1/png_71/generic_business-71.png", "icon_background_color": "#7B9EB0", "icon_mask_base_uri": "https://maps.gstatic.com/mapfiles/place_api/icons/v2/generic_pinlet", "name": "Real-Av.Andalucía", "place_id": "ChIJSaDtxdszQg0RhPCx3AmDCxM", "plus_code": {"compound_code": "GF4F+72 Paracuellos de Jarama, Spain", "global_code": "8CGRGF4F+72"}, "reference": "ChIJSaDtxdszQg0RhPCx3AmDCxM", "scope": "GOOGLE", "types": ["transit_station", "point_of_interest", "establishment"], "vicinity": "Spain"}, {"business_status": "OPERATIONAL", "geometry": {"location": {"lat": 40.5056816, "lng": -3.5274594}, "viewport": {"northeast": {"lat": 40.5070459302915, "lng": -3.526108369708497}, "southwest": {"lat": 40.5043479697085, "lng": -3.528806330291501}}}, "icon": "https://maps.gstatic.com/mapfiles/place_api/icons/v1/png_71/generic_business-71.png", "icon_background_color": "#7B9EB0", "icon_mask_base_uri": "https://maps.gstatic.com/mapfiles/place_api/icons/v2/generic_pinlet", "name": "Paracuellos - C/ Real 57", "photos": [{"height": 4000, "html_attributions": ["<a href=\"https://maps.google.com/maps/contrib/112910685164659005600\">Julián González Lipp</a>"], "photo_reference": "AWn5SU7x_-EPH8vPBlkKEuLmRAeXC2heqksmWcwe_DA06yhVaTmZXka4W23Zeh1pMptl8IOaMDrkjuZ0B_XF36uoloBO2CpguYUTjWfxs5FkExPQlX73q-vnzsIUJIAhjMXaUfifAm6bWnQJPYdJIvkVIJZq-dLo7xSRpTJh2h7CSAQsaZcySnGOr16v0DTo3Ynto7cBGshqJqZOQ4Us-NBrLk0XPNzLMJrimtLjwJOinh8ZsnO2mhWKo77rlzH3ufvBl-__C3matTiwKZ6LTeO0mVn7s9JGQeleeIaylcbgtXz5yqL5VZvPzYSFZXY55tb5saGczcYbwzKONUfO_ZpeRitNW900yrnnhSsFys6YOIHrlnHcNlRZpEMoW3gFZtJGpeU9OH9iWXln_fa_0DsBGhS5WkuNiHQ1j1WH9ZHnhUDgsCqrScAMqLmPaohMdgw1kh0GSAkDbLTI1s-9O142TYmEgjvjwy39-WzuvSjbHdHJpOxV8aM8CX7rOYwa6edDWqMbfY4NZnz2_EzvaVbLHsvK0TCgLU9-U0NVMc2mumMoWA45Ox4xesG-KHp_ZKCidRM1aaW2WoxoW77Jhv0fkrC90MmXHKVC24PAyh7fTtgRsBCNTNo6ZRjObHtdeupdtxkmikNA", "width": 2992}], "place_id": "ChIJB3CTxdszQg0RiCSYKWuNOJQ", "plus_code": {"compound_code": "GF4F+72 Paracuellos de Jarama, Spain", "global_code": "8CGRGF4F+72"}, "reference": "ChIJB3CTxdszQg0RiCSYKWuNOJQ", "scope": "GOOGLE", "types": ["transit_station", "point_of_interest", "establishment"], "vicinity": "Spain"}, {"business_status": "OPERATIONAL", "geometry": {"location": {"lat": 40.5058592, "lng": -3.537776}, "viewport": {"northeast": {"lat": 40.50720028029149, "lng": -3.536477619708498}, "southwest": {"lat": 40.50450231970849, "lng": -3.539175580291502}}}, "icon": "https://maps.gstatic.com/mapfiles/place_api/icons/v1/png_71/generic_business-71.png", "icon_background_color": "#7B9EB0", "icon_mask_base_uri": "https://maps.gstatic.com/mapfiles/place_api/icons/v2/generic_pinlet", "name": "Ctra.M113-Navegación Aérea", "place_id": "ChIJpZlJotMzQg0RQw-9Bvj1qPw", "plus_code": {"compound_code": "GF46+8V Paracuellos de Jarama, Spain", "global_code": "8CGRGF46+8V"}, "reference": "ChIJpZlJotMzQg0RQw-9Bvj1qPw", "scope": "GOOGLE", "types": ["transit_station", "point_of_interest", "establishment"], "vicinity": "Spain"}, {"business_status": "OPERATIONAL", "geometry": {"location": {"lat": 40.50593, "lng": -3.53783}, "viewport": {"northeast": {"lat": 40.50727378029149, "lng": -3.536509819708498}, "southwest": {"lat": 40.50457581970849, "lng": -3.539207780291501}}}, "icon": "https://maps.gstatic.com/mapfiles/place_api/icons/v1/png_71/generic_business-71.png", "icon_background_color": "#7B9EB0", "icon_mask_base_uri": "https://maps.gstatic.com/mapfiles/place_api/icons/v2/generic_pinlet", "name": "Ctra.M113-Navegación Aérea", "place_id": "ChIJVyX1otMzQg0R1l8iWNSrf2s", "plus_code": {"compound_code": "GF46+9V Paracuellos de Jarama, Spain", "global_code": "8CGRGF46+9V"}, "reference": "ChIJVyX1otMzQg0R1l8iWNSrf2s", "scope": "GOOGLE", "types": ["transit_station", "point_of_interest", "establishment"], "vicinity": "Spain"}, {"business_status": "OPERATIONAL", "geometry": {"location": {"lat": 40.50671, "lng": -3.538049999999999}, "viewport": {"northeast": {"lat": 40.5080465302915, "lng": -3.536665819708497}, "southwest": {"lat": 40.5053485697085, "lng": -3.539363780291501}}}, "icon": "https://maps.gstatic.com/mapfiles/place_api/icons/v1/png_71/generic_business-71.png", "icon_background_color": "#7B9EB0", "icon_mask_base_uri": "https://maps.gstatic.com/mapfiles/place_api/icons/v2/generic_pinlet", "name": "Ctra.M113-Navegación Aérea", "place_id": "ChIJt0BiqdMzQg0RIRvBwnR0EXo", "plus_code": {"compound_code": "GF46+MQ Paracuellos de Jarama, Spain", "global_code": "8CGRGF46+MQ"}, "reference": "ChIJt0BiqdMzQg0RIRvBwnR0EXo", "scope": "GOOGLE", "types": ["transit_station", "point_of_interest", "establishment"], "vicinity": "Spain"}, {"business_status": "OPERATIONAL", "geometry": {"location": {"lat": 40.5068224, "lng": -3.5380201}, "viewport": {"northeast": {"lat": 40.5081469802915, "lng": -3.536619119708498}, "southwest": {"lat": 40.5054490197085, "lng": -3.539317080291501}}}, "icon": "https://maps.gstatic.com/mapfiles/place_api/icons/v1/png_71/generic_business-71.png", "icon_background_color": "#7B9EB0", "icon_mask_base_uri": "https://maps.gstatic.com/mapfiles/place_api/icons/v2/generic_pinlet", "name": "Ctra.M113-Navegación Aérea", "place_id": "ChIJzYHuq9MzQg0R8MpK6_auvC4", "plus_code": {"compound_code": "GF46+PQ Paracuellos de Jarama, Spain", "global_code": "8CGRGF46+PQ"}, "reference": "ChIJzYHuq9MzQg0R8MpK6_auvC4", "scope": "GOOGLE", "types": ["transit_station", "point_of_interest", "establishment"], "vicinity": "Spain"}, {"business_status": "OPERATIONAL", "geometry": {"location": {"lat": 40.50296460000001, "lng": -3.5264086}, "viewport": {"northeast": {"lat": 40.5043184802915, "lng": -3.525067069708498}, "southwest": {"lat": 40.5016205197085, "lng": -3.527765030291502}}}, "icon": "https://maps.gstatic.com/mapfiles/place_api/icons/v1/png_71/generic_business-71.png", "icon_background_color": "#7B9EB0", "icon_mask_base_uri": "https://maps.gstatic.com/mapfiles/place_api/icons/v2/generic_pinlet", "name": "Paracuellos - Extremadura 15", "place_id": "ChIJbRvWOtkzQg0Rp0wz38Cynqg", "plus_code": {"compound_code": "GF3F+5C Paracuellos de Jarama, Spain", "global_code": "8CGRGF3F+5C"}, "reference": "ChIJbRvWOtkzQg0Rp0wz38Cynqg", "scope": "GOOGLE", "types": ["transit_station", "point_of_interest", "establishment"], "vicinity": "Spain"}, {"business_status": "OPERATIONAL", "geometry": {"location": {"lat": 40.5036682, "lng": -3.5257731}, "viewport": {"northeast": {"lat": 40.5050101302915, "lng": -3.524408269708498}, "southwest": {"lat": 40.5023121697085, "lng": -3.527106230291501}}}, "icon": "https://maps.gstatic.com/mapfiles/place_api/icons/v1/png_71/generic_business-71.png", "icon_background_color": "#7B9EB0", "icon_mask_base_uri": "https://maps.gstatic.com/mapfiles/place_api/icons/v2/generic_pinlet", "name": "Paracuellos - Extremadura 20", "place_id": "ChIJTY2KStkzQg0R4jaMJvUS5GU", "plus_code": {"compound_code": "GF3F+FM Paracuellos de Jarama, Spain", "global_code": "8CGRGF3F+FM"}, "reference": "ChIJTY2KStkzQg0R4jaMJvUS5GU", "scope": "GOOGLE", "types": ["transit_station", "point_of_interest", "establishment"], "vicinity": "Spain"}]