[{"geometry": {"location": {"lat": 40.989823, "lng": -3.6383114}, "viewport": {"northeast": {"lat": 40.99770633988297, "lng": -3.63283493983927}, "southwest": {"lat": 40.97687056985072, "lng": -3.6419665675271}}}, "icon": "https://maps.gstatic.com/mapfiles/place_api/icons/v1/png_71/geocode-71.png", "icon_background_color": "#7B9EB0", "icon_mask_base_uri": "https://maps.gstatic.com/mapfiles/place_api/icons/v2/generic_pinlet", "name": "Buitrago del Lozoya", "photos": [{"height": 2228, "html_attributions": ["<a href=\"https://maps.google.com/maps/contrib/104330350775907272564\">Jesús Fernández Mercado</a>"], "photo_reference": "AWn5SU5ToESTXDPPCAmYs--u48lXn2bmglwN8sVVgfCbbZIDWKxLqTIhU9DAu_2DJEWOgU1TuvkX0y8VXbmgcQMck8QviI-_3zsdMem6HDpj1iHe8s7h0MWQCYuhhDvw8uOiuV4xyNLZeTf3vH85vZ1-BGEfdvTGYRVeyx-QBo560MMXaZO4IkB0NoTmE4FbagmR0-NSZsc9BQxh76HH2Pv8yDCQ4UTK9UbZA-nBBSRb6hOziIunFsc8BoDcNjkFjomfPctdhPQl6y6yXmGfEqViSQX1k7_jEqBHH5wmCalBYd9MBMrrZLM-gM0PVIOKrOdQ7iifs1G_WVpj9zPrP9v6THxcdoXRR96MOHfZrJQV2_cFVdgFkjtZqDzWMT12NPNVlfeCXtbPPdTeuRW1TQim3pjNDqx7Rv6Fxw45nQYIJhtIHrkIMLd74jnjfH06LghgD_4gEuJKXolKuZsnZzHJKoAod1tEVcUzzqw-l3wzetgFfUTBul-Fp072lU8cWqHnKL-ZJRfOm5TZfYmwAR3TfSBNjYExOm_XcVdmSJMHTqt1SzQH1OdKfGibHbMvjN-GAc4-MqRKM-3i-AYlia2PRu0nCK6s01WYDteD1wuFJVF4fqWc8sO3KvauUGPilW82Vl6MNA", "width": 3960}], "place_id": "ChIJO5tefiPkQw0RlexuRtmPmTM", "reference": "ChIJO5tefiPkQw0RlexuRtmPmTM", "scope": "GOOGLE", "types": ["locality", "political"], "vicinity": "Buitrago del Lozoya"}, {"business_status": "OPERATIONAL", "geometry": {"location": {"lat": 40.99459219999999, "lng": -3.634145799999999}, "viewport": {"northeast": {"lat": 40.99611038029149, "lng": -3.632747319708497}, "southwest": {"lat": 40.9934124197085, "lng": -3.635445280291502}}}, "icon": "https://maps.gstatic.com/mapfiles/place_api/icons/v1/png_71/generic_business-71.png", "icon_background_color": "#13B5C7", "icon_mask_base_uri": "https://maps.gstatic.com/mapfiles/place_api/icons/v2/generic_pinlet", "international_phone_number": "+34 674 38 12 44", "name": "Castle of Buitrago", "opening_hours": {"open_now": false}, "photos": [{"height": 4024, "html_attributions": ["<a href=\"https://maps.google.com/maps/contrib/115819089349087120354\">manuel creus</a>"], "photo_reference": "AWn5SU4-dl0p4GKsVmIXgs922G81hv6VBNBjmZlWNTs78797ZSMSccMaZAk2B_tbA_f_hos7th9BFEOtGJRQWhm5YjwkKT9xe0yqAf7rpdx1sbpxmtBKRsYpnrB-lNg3qIGh4md6ET_NqTavOvKxtFE3_qzHsdUMGuJVtvoMRHwIlD0KNehwJwhp6NQnjuL8yBFoMF558PExTJ6hSk04c9tR1rqeTviXRfd6RfJKyXPa_lXibs__Xn4pfhaJSKnu0AJ8BxKkag7t_-iLF6I3ncBXUB7MnWmy7ISZ7WUKZWVNgjHrzPMtrtlCfBygFTT5nlTms3eoA7KLWfkJWtewEJER_wxRDbtZe__Hq_DNyP3uT2yAmpbeR8sV3edvEIswIXX3uR6pe0IqPjg-_cwFUBX--sX6veBk-XIcv8JG70wsffT14oWSa2WRCyyL5vNvMIv2FDHBs08m4SGJRJiJsQA7CS5K9EbPRvPGboCqMJ9Lq0sYSUiDrZ-eotIQGSYo4ohE8DQXqd9clzUW2UpUiv3Qm01H7q15DJKMEWQ7SmExAOvIQSa91N1YG2CpvkKh5PgS_VsEYjBAwiXJIwv4unVw_QxbiOs3mxV5hWyfx_D0_xFauPcH18tL4HMG1dN1OwXR", "width": 6048}], "place_id": "ChIJbSPgVzrkQw0ReDwpTpcfq-w", "plus_code": {"compound_code": "X9V8+R8 Buitrago del Lozoya, Spain", "global_code": "8CGRX9V8+R8"}, "rating": 4.3, "reference": "ChIJbSPgVzrkQw0ReDwpTpcfq-w", "scope": "GOOGLE", "types": ["tourist_attraction", "point_of_interest", "establishment"], "user_ratings_total": 5497, "vicinity": "Plaza del Castillo, s/n, Buitrago del Lozoya"}, {"business_status": "CLOSED_TEMPORARILY", "geometry": {"location": {"lat": 41.0066667, "lng": -3.6708333}, "viewport": {"northeast": {"lat": 41.0080330302915, "lng": -3.669570619708498}, "southwest": {"lat": 41.0053350697085, "lng": -3.672268580291502}}}, "icon": "https://maps.gstatic.com/mapfiles/place_api/icons/v1/png_71/lodging-71.png", "icon_background_color": "#909CE1", "icon_mask_base_uri": "https://maps.gstatic.com/mapfiles/place_api/icons/v2/hotel_pinlet", "international_phone_number": "+34 616 95 18 17", "name": "Hospedería El Arco", "permanently_closed": true, "photos": [{"height": 1800, "html_attributions": ["<a href=\"https://maps.google.com/maps/contrib/114943337192452412659\">Ivan Madrid</a>"], "photo_reference": "AWn5SU7oEjDW9iIH_pOQoqyI9ViB_U9R556ZyVoJLEDFBYCoxH2jDd1A4QJf-fg4nvTIUNnNdJIeH4_SYRaPM7G03r72DSbGgE6Pk0F9dW4Hyn6XsDn1djNTxW_5KDBgUQODmFKS0zAkYgnSW-WAc3IPFN62eU6INB5MKT-TrTlD3pi2YXRIlyTMhZJl8Hal35f2AhM-aifGYdCM6EiRNG7O931CFmlXzNFIM7hhEzoqjOUdObdCUNeyHwPG9O7bkBVUKz5M4MivVyNoDHGiZX8RJROVs1hdVez6LzBO8fwOKhLelW2OdK_xIPmWULQm8ut1DN4_h3OqphcIuSkxo6dxx4EnIurY22d1UpnBVTX_yPYPiqoBiQ8UBv9fyh1Vn4i2vS5u7K20MCo09ZwaHL25Gj3_hs5qTAg5zZedBlaTkCj4cWnNjgT6zegSV607bKoteisUSbFwmSgQ7QaYotlkj1X-N3I-6PhbVukA9ofC0e1qnSTF5FoUne0C-RydLDR8r9buwE1YNDnWGxHdGnsatC_Z-BXg4L5y4qI4WrpTpc5ZUuLsbrCtY-ebNAkQlLOITyi9VSmOT40muNGwRTIPJEPbgkU6RtMlVefiTXizhIW3jiYOdOhjmUbb_XjFENTQ", "width": 4000}], "place_id": "ChIJsWVXco7jQw0RnOJa397eizA", "plus_code": {"compound_code": "284H+MM Villavieja del Lozoya, Spain", "global_code": "8CHR284H+MM"}, "rating": 4.5, "reference": "ChIJsWVXco7jQw0RnOJa397eizA", "scope": "GOOGLE", "types": ["lodging", "restaurant", "point_of_interest", "food", "establishment"], "user_ratings_total": 317, "vicinity": "Calle del Arco, 6, Villavieja del Lozoya"}, {"business_status": "OPERATIONAL", "geometry": {"location": {"lat": 40.9947818, "lng": -3.6356614}, "viewport": {"northeast": {"lat": 40.9960996302915, "lng": -3.634383519708499}, "southwest": {"lat": 40.9934016697085, "lng": -3.637081480291503}}}, "icon": "https://maps.gstatic.com/mapfiles/place_api/icons/v1/png_71/lodging-71.png", "icon_background_color": "#909CE1", "icon_mask_base_uri": "https://maps.gstatic.com/mapfiles/place_api/icons/v2/hotel_pinlet", "international_phone_number": "+34 918 68 03 31", "name": "La Beltraneja", "photos": [{"height": 1365, "html_attributions": ["<a href=\"https://maps.google.com/maps/contrib/116415705250702191323\">Hotel La Beltraneja</a>"], "photo_reference": "AWn5SU7_8VYVKeTtbDIoOGvfO34ov2q8TiZN8DTfKomIL8y9RXYhCKByIqVdA-DrmPQ7bqxXkMXQDe3gnCglUcWmHn6-e8G8ilOZWWF9EjGhhZKdPxvIBc0wlRJ0z2yxAWNzBBkkHPeE_vPtszvbBzvUSJt-XFzSMPGdDLxQQvpTjBjSo2uTUj1__69guh2am79aFJz4chsHxM9SL4aCffmekDRWFazbCB6KVxQigX-OAgPNIEHvUfG7VSGuOg5dxsqKyvCjQ8qH_yAiIg3W1GZTAzzsd_C8Ybg55lPmYz0nBHK_4tY3EiyFs4pote6iPTtps6W1AlmBwYg", "width": 1024}], "place_id": "ChIJn19woDvkQw0RqMvcDmFZhNY", "plus_code": {"compound_code": "X9V7+WP Buitrago del Lozoya, Spain", "global_code": "8CGRX9V7+WP"}, "rating": 4.7, "reference": "ChIJn19woDvkQw0RqMvcDmFZhNY", "scope": "GOOGLE", "types": ["lodging", "point_of_interest", "establishment"], "user_ratings_total": 393, "vicinity": "Calle del Arco, 10, Buitrago del Lozoya"}, {"business_status": "OPERATIONAL", "geometry": {"location": {"lat": 41.02983999999999, "lng": -3.6260892}, "viewport": {"northeast": {"lat": 41.0311507802915, "lng": -3.624604319708498}, "southwest": {"lat": 41.0284528197085, "lng": -3.627302280291503}}}, "icon": "https://maps.gstatic.com/mapfiles/place_api/icons/v1/png_71/lodging-71.png", "icon_background_color": "#909CE1", "icon_mask_base_uri": "https://maps.gstatic.com/mapfiles/place_api/icons/v2/hotel_pinlet", "international_phone_number": "+34 658 15 90 56", "name": "Casa rural La Cárcava", "photos": [{"height": 1365, "html_attributions": ["<a href=\"https://maps.google.com/maps/contrib/103610072834939969121\">Casa rural La Cárcava</a>"], "photo_reference": "AWn5SU5GkMReedpkQOBd_DnNzABcdh_eCs96wvsItrxuJEdLiJNArK16zQiXKQC2oD9KHtA8JrIXj0xgdKykQTA82JKLS97MYjAIF5uXkGpYyucWkjCT5px9IJ8F-yppgucZdc64pMqLOn8DE-SsxtZ6pKryi48ylGQaM_Tif6TJi5S0-rNKG8rIUvSa9KemZ4-626DUfTaUZQnIDb2zeWFj5Pxozr0hJVaJu_Z7B2EO6jf9v9QREtl3mpw1rbcI2OvhkDvKjhcoIl0IefX-0C2qOoezO-TiEm7KON58CN3BL19msOLNmJ0nSDQZc6zLoBn5p1xT3JHPqDk", "width": 2048}], "place_id": "ChIJJTxqb_zkQw0RK2rSAVibv2k", "plus_code": {"compound_code": "29HF+WH La Serna del Monte, Spain", "global_code": "8CHR29HF+WH"}, "rating": 4.6, "reference": "ChIJJTxqb_zkQw0RK2rSAVibv2k", "scope": "GOOGLE", "types": ["lodging", "point_of_interest", "establishment"], "user_ratings_total": 80, "vicinity": "Calle del Arroyo, 12, La Serna del Monte"}, {"business_status": "OPERATIONAL", "geometry": {"location": {"lat": 40.9939041, "lng": -3.636131}, "viewport": {"northeast": {"lat": 40.9952270802915, "lng": -3.634739669708497}, "southwest": {"lat": 40.9925291197085, "lng": -3.637437630291502}}}, "icon": "https://maps.gstatic.com/mapfiles/place_api/icons/v1/png_71/shopping-71.png", "icon_background_color": "#4B96F3", "icon_mask_base_uri": "https://maps.gstatic.com/mapfiles/place_api/icons/v2/shopping_pinlet", "international_phone_number": "+34 918 68 08 20", "name": "Churrería Ricks", "opening_hours": {"open_now": false}, "photos": [{"height": 1200, "html_attributions": ["<a href=\"https://maps.google.com/maps/contrib/108825515896368036351\">Mari Carmen Gallardo</a>"], "photo_reference": "AWn5SU5qF2jqK5_ctQ-z0SZ4mioC0fg5_7msZonbaIcVmDVWz_6jHgzqHLZtjlDssPUSldH6MZKOCbqKupR9gUhs4jRuCrT_tEDQXWN1R_HOMCslmMLcGQ529uvXZ7G4xKQEfuLdSo-6ELteGZdReJKJ3kBu8cEPjrRAja6gdxtHGIFv8iqRNwX5m8c_Cxr53DGTdBqmKXT5AqhdjJPIWi2tpaY9bmidmEytllNOOwtc_6W-2_iwj6t8fuhayggHYF_qwXrwWDF1O4q0BRDK0w1jq7Tmdrb2TNncjArOivTauSYvqhg0Y-qSH6kLaIyd8OMKC32i173K-0zxrS9TyL-z-X_vIlklt0pR0hebu2QlRQtjBQe8bm4LwwO6TLKxNuUqP27y-zAQ0gctRRJaRzNFyybadY7oKBxPMw5BwUnsBs_z6312O7Kw2hxmXkwPbqIsGz6s60cTozZKfaLwSDfEufyp0zTXlOXW4APGFXzXU_yvh1p9MfuTv0JNeTr0cHYhUlchjhUGZopRe2oQFLRpuJwg_PV6aZ3hDhV79y6enLVLWAC6JAiQUauLFpCo2N6utdSVjtzV4lPzpTn7mL0FZCexQyG5jVu9CqzALiV5OTVUJ7cRvObrJIZMmK2A1N6rh4yXsv8d", "width": 1600}], "place_id": "ChIJzxqwbjvkQw0ROdUggQbJ5Eg", "plus_code": {"compound_code": "X9V7+HG Buitrago del Lozoya, Spain", "global_code": "8CGRX9V7+HG"}, "price_level": 1, "rating": 4.3, "reference": "ChIJzxqwbjvkQw0ROdUggQbJ5Eg", "scope": "GOOGLE", "types": ["cafe", "store", "restaurant", "point_of_interest", "food", "establishment"], "user_ratings_total": 686, "vicinity": "Calle de la Tahona, 14, Buitrago del Lozoya"}, {"business_status": "CLOSED_TEMPORARILY", "geometry": {"location": {"lat": 40.9788539, "lng": -3.647927400000001}, "viewport": {"northeast": {"lat": 40.9810048, "lng": -3.645970469708498}, "southwest": {"lat": 40.97802239999999, "lng": -3.648668430291503}}}, "icon": "https://maps.gstatic.com/mapfiles/place_api/icons/v1/png_71/generic_business-71.png", "icon_background_color": "#7B9EB0", "icon_mask_base_uri": "https://maps.gstatic.com/mapfiles/place_api/icons/v2/generic_pinlet", "name": "Riosequillo Recreation Area", "permanently_closed": true, "photos": [{"height": 281, "html_attributions": ["<a href=\"https://maps.google.com/maps/contrib/106206245291683011027\">Piscinas Buitrago del Lozoya / Área Recreativa Riosequillo</a>"], "photo_reference": "AWn5SU7NEEgFS0CSida3ABWhm3ngC-s5_ZVkBldsRkdvhIKKZ8UIPFgyGcpymIIqM3lPu8I3Q9tmpg1KzKGuBp_CgpDglCmjfC27a5EuV7lCjy1cZpxBp8TcN-ncgbv5mYOCe76DBZKCmJfv5LuFU8z6DuuAN0Zlrp2YxtxRmO0TkzbPltKvz3yG8oU-Ai8M6a_XduBJv8rlWreg0goNElps0s2R7g0gzS9KSunrIwAVdhEWhVcL3X5zlcOKxwuq6zqIiHqa8HV5dw5zT5jTTfcspJOvWsjzMM7srDfp80LHVGg-HUrIxIJYOaxISSpEX2r82j18_Sn1qTg", "width": 499}], "place_id": "ChIJx2fQ5abmQw0R1vf_dvue5ko", "plus_code": {"compound_code": "X9H2+GR Buitrago del Lozoya, Spain", "global_code": "8CGRX9H2+GR"}, "rating": 4.2, "reference": "ChIJx2fQ5abmQw0R1vf_dvue5ko", "scope": "GOOGLE", "types": ["point_of_interest", "establishment"], "user_ratings_total": 3046, "vicinity": "A-1, 74, Buitrago del Lozoya"}, {"business_status": "OPERATIONAL", "geometry": {"location": {"lat": 41.0059815, "lng": -3.670773700000001}, "viewport": {"northeast": {"lat": 41.0073828302915, "lng": -3.669473019708498}, "southwest": {"lat": 41.0046848697085, "lng": -3.672170980291503}}}, "icon": "https://maps.gstatic.com/mapfiles/place_api/icons/v1/png_71/worship_general-71.png", "icon_background_color": "#7B9EB0", "icon_mask_base_uri": "https://maps.gstatic.com/mapfiles/place_api/icons/v2/worship_christian_pinlet", "international_phone_number": "+34 918 68 00 85", "name": "Parroquia de la Inmaculada Concepción", "photos": [{"height": 4008, "html_attributions": ["<a href=\"https://maps.google.com/maps/contrib/116522339215122585058\">Juan Rubio</a>"], "photo_reference": "AWn5SU5DLelV9wKk0WqYhFNj1TCdPW10tGInUVnFTjApNYLpvcq33zB-pDe-qEBtZ7Kps8omqnOQsv1ZZLwHnpH9nSoWk7QEMVA3ivf4bITCPJMZEsLxvrRDhjcsVjBGlXZWqmfogHvInIW04uC9lYR3ytS6F7X1iefFORl0M-QF0EfMLVz9dteICw_q7zTJeEvk1iMy6kT2ySnEP55cb6LVyK_BAwHYYnKH20nqic3HAr3jekNhJVt1zCTg9JsemNPPoiZXrkFbIJTgYcEiBhwxzLnORbZJyyGtU1G58BaTXUMhuAfOUVGN4aGe5gGv0RiwGeOaneG_C2kyDJMQWeWNiOcEgrlGvw_jUKyhXnlgQRsPb932VAZAJDiLgaIPBrKQYpg5Jqlkgke6vxgF7iMRQdvxvWPdjuDBVGMdoDWbvu0MZZVnyo80JSRdKcnn5MVUWaxrcJ-0KXA1HvsluJ9IJ4V9eyURcKEoi3txjcRjp0K2UMkm7HqHo4U1issfcs5R6iROzDMme7QmTtMNyQFKhwHhaNCPegsxR_BL9cmagR8Z-juplYvm57L25MbM2MgCz09xP0fYIbMGy4E6nAIkAGSkszSUuddNEgdFGziJTuq-u0u9QaJgApd9IjEQvtepr9tSzw", "width": 6008}], "place_id": "ChIJF71iWEjiQw0RLfq4lxayy1o", "plus_code": {"compound_code": "284H+9M Villavieja del Lozoya, Spain", "global_code": "8CHR284H+9M"}, "rating": 4, "reference": "ChIJF71iWEjiQw0RLfq4lxayy1o", "scope": "GOOGLE", "types": ["church", "place_of_worship", "point_of_interest", "establishment"], "user_ratings_total": 3, "vicinity": "Calle de la Iglesia, 8, Villavieja del Lozoya"}, {"business_status": "OPERATIONAL", "geometry": {"location": {"lat": 41.00650279999999, "lng": -3.6716086}, "viewport": {"northeast": {"lat": 41.0077639302915, "lng": -3.670260819708498}, "southwest": {"lat": 41.0050659697085, "lng": -3.672958780291502}}}, "icon": "https://maps.gstatic.com/mapfiles/place_api/icons/v1/png_71/civic_building-71.png", "icon_background_color": "#7B9EB0", "icon_mask_base_uri": "https://maps.gstatic.com/mapfiles/place_api/icons/v2/civic-bldg_pinlet", "international_phone_number": "+34 918 68 03 41", "name": "Villavieja del Lozoya Town Hall", "opening_hours": {"open_now": false}, "photos": [{"height": 2282, "html_attributions": ["<a href=\"https://maps.google.com/maps/contrib/103644858766260406648\">Un opinante delirante</a>"], "photo_reference": "AWn5SU5icn1D4sNBylA3_pQJPEUA3Z5XGBzH9FjXzJD4R7lZTj4OXhQ0KFtho12qjTp5akcWIyh-7ORYuVWOGUJi55NjR9IHFtVM-05xcEmhtJRT9J78f4DUBLNPykHPdoezvTxiQ91wnDvVNf14EiYarCXEi0jxoWiZmcME5EEZ4Q7xmhK92M_9V86u1_A-KbOcb89DIsw1_MJkKeXLL-56eY3YwIFRjZnUjCrzkKRpMhHSWqhhYf7aDVPrw1sXQ0aX1GTmw_mCvTO-gqwC04cB7oxES_hJYpOmCMn1wMDJZVrQfno1IJTzPiWXAH87BPPZCdx3N7EobDFNjIZKkIbNIcGoAvU4O0rDpMNRQPuxHqNpm4jdDpDCsDYyUEMUUfhz2EyMs_cVURj4JXqYrt-zSm3Qm6lDStTVFYwZRBYQln0yoJZ4vN6DHj7ebIhG90XsKVYu8D05eN8o19sFUSL9Yuzddrwi3YEGOJpcy9yRwgk8sUqiDavVgSt7gHHnYBflS_xT38_sOA9RmAdQGZ_na709RMTPTGVIeGkI2eOy_l1HQFLcbz_sn-YLu3VRazNFGUN65v93bOUwP7-aujRKQDvI1VG2UeJqMxIJZBWSmCf-el-9BqaWuwUWjwl85qPP", "width": 3384}], "place_id": "ChIJH2S8CY7jQw0RNfKIl9x_cMQ", "plus_code": {"compound_code": "284H+J9 Villavieja del Lozoya, Spain", "global_code": "8CHR284H+J9"}, "rating": 3.5, "reference": "ChIJH2S8CY7jQw0RNfKIl9x_cMQ", "scope": "GOOGLE", "types": ["city_hall", "local_government_office", "point_of_interest", "establishment"], "user_ratings_total": 46, "vicinity": "Plaza Mayor, 3, Villavieja del Lozoya"}, {"business_status": "OPERATIONAL", "geometry": {"location": {"lat": 40.9920868, "lng": -3.6403377}, "viewport": {"northeast": {"lat": 40.9933164802915, "lng": -3.639144969708498}, "southwest": {"lat": 40.99061851970851, "lng": -3.641842930291503}}}, "icon": "https://maps.gstatic.com/mapfiles/place_api/icons/v1/png_71/school-71.png", "icon_background_color": "#7B9EB0", "icon_mask_base_uri": "https://maps.gstatic.com/mapfiles/place_api/icons/v2/school_pinlet", "international_phone_number": "+34 918 68 01 07", "name": "Public school Peñalta", "place_id": "ChIJzxsc1SLkQw0RMZPVsfcN50Q", "plus_code": {"compound_code": "X9R5+RV Buitrago del Lozoya, Spain", "global_code": "8CGRX9R5+RV"}, "reference": "ChIJzxsc1SLkQw0RMZPVsfcN50Q", "scope": "GOOGLE", "types": ["point_of_interest", "school", "establishment"], "vicinity": "Calle Peñalta, Buitrago del Lozoya"}, {"business_status": "OPERATIONAL", "geometry": {"location": {"lat": 41.0393402, "lng": -3.6422779}, "viewport": {"northeast": {"lat": 41.0406861802915, "lng": -3.640979119708498}, "southwest": {"lat": 41.0379882197085, "lng": -3.643677080291502}}}, "icon": "https://maps.gstatic.com/mapfiles/place_api/icons/v1/png_71/civic_building-71.png", "icon_background_color": "#7B9EB0", "icon_mask_base_uri": "https://maps.gstatic.com/mapfiles/place_api/icons/v2/civic-bldg_pinlet", "international_phone_number": "+34 918 68 04 27", "name": "Braojos Town Hall", "opening_hours": {"open_now": false}, "photos": [{"height": 1080, "html_attributions": ["<a href=\"https://maps.google.com/maps/contrib/108991065925202119120\">Jesus</a>"], "photo_reference": "AWn5SU5UNn4EbO81UatGvIbz5JHEnXfiUyA17qAmWWnmvRGNPJ-PYpnSQKCzxSk8xEBU9QOlop0qrErIAFnpkyy27SK3Fxd0s61TTmIdRmDBZwoSDR3AErm0tPD1sXNJhittcK5ZdUEbzj6bt8X2HuAVL_Ir8a2IRSzmBIdTjcLAVNVojGKk6zozV_9QjIa5x3EnAnPLbz2fR83tgRwWt-vItg7qNss2rEC0BXm4RI9bTr-pEK7tLWZOAH7nf9vIL0gUqjVBwxs44xCLI8XxH7Dn8KcmWOVYRcVP0VEc2YyEtjApKFL30I-d_25Ki-cVRgrVR7--uk-5535Tv7YWjS1W2U2C-eU4L62OpT9K0RsrkdDhnMKFGZvI8wHc3ElQMlqWq876QnDiuDUM5sK3fCcPo5WzmHNIqQ8peraNWzT6qiL_bLHaKVcw1htguUVkcrRuShae8sATYQoXGwXfO_rtJ1iT8W8WqRGSGi6uIiRxzsv09m04P_XT7KyCSsv6RgrJ9E9-z3QHucmuH2BD8QxhHJ4juVOkTcZLeClW9YUnZa9ve06o9axBb4fJiRFGF7h8JPsAa3JXCLsH5HekxLWpKWMY2bZWzIZ1lAaalL3XClGyc8lbttesq6PATFZoLdM9I2ivS_PT", "width": 1920}], "place_id": "ChIJYfj_0ZTkQw0RsyrPrEHn85E", "plus_code": {"compound_code": "29Q5+P3 Braojos, Spain", "global_code": "8CHR29Q5+P3"}, "rating": 4.4, "reference": "ChIJYfj_0ZTkQw0RsyrPrEHn85E", "scope": "GOOGLE", "types": ["city_hall", "local_government_office", "point_of_interest", "establishment"], "user_ratings_total": 25, "vicinity": "Plaza del Sol, 1, Braojos de la Sierra"}, {"business_status": "OPERATIONAL", "geometry": {"location": {"lat": 40.9958011, "lng": -3.634703999999999}, "viewport": {"northeast": {"lat": 40.9971849302915, "lng": -3.633347519708497}, "southwest": {"lat": 40.9944869697085, "lng": -3.636045480291502}}}, "icon": "https://maps.gstatic.com/mapfiles/place_api/icons/v1/png_71/generic_business-71.png", "icon_background_color": "#7B9EB0", "icon_mask_base_uri": "https://maps.gstatic.com/mapfiles/place_api/icons/v2/generic_pinlet", "name": "Sima Promociones S.L.", "place_id": "ChIJBzKGtDvkQw0Rg1DXRgpNo_k", "plus_code": {"compound_code": "X9W8+84 Buitrago del Lozoya, Spain", "global_code": "8CGRX9W8+84"}, "reference": "ChIJBzKGtDvkQw0Rg1DXRgpNo_k", "scope": "GOOGLE", "types": ["point_of_interest", "establishment"], "vicinity": "Travesía de la Villa, 4, Buitrago del Lozoya"}, {"business_status": "OPERATIONAL", "geometry": {"location": {"lat": 40.9929898, "lng": -3.6384081}, "viewport": {"northeast": {"lat": 40.99439153029149, "lng": -3.637054469708498}, "southwest": {"lat": 40.9916935697085, "lng": -3.639752430291503}}}, "icon": "https://maps.gstatic.com/mapfiles/place_api/icons/v1/png_71/shopping-71.png", "icon_background_color": "#4B96F3", "icon_mask_base_uri": "https://maps.gstatic.com/mapfiles/place_api/icons/v2/shopping_pinlet", "international_phone_number": "+34 918 68 08 51", "name": "Capi de Buitrago", "place_id": "ChIJD7AUxzzkQw0RY7E1WQElSLk", "plus_code": {"compound_code": "X9V6+5J Buitrago del Lozoya, Spain", "global_code": "8CGRX9V6+5J"}, "rating": 1, "reference": "ChIJD7AUxzzkQw0RY7E1WQElSLk", "scope": "GOOGLE", "types": ["electronics_store", "store", "point_of_interest", "establishment"], "user_ratings_total": 1, "vicinity": "Calle de la Fuente de Arriba, 1, Buitrago del Lozoya"}, {"business_status": "OPERATIONAL", "geometry": {"location": {"lat": 40.9738251, "lng": -3.713715}, "viewport": {"northeast": {"lat": 40.9750827802915, "lng": -3.712090419708497}, "southwest": {"lat": 40.9723848197085, "lng": -3.714788380291501}}}, "icon": "https://maps.gstatic.com/mapfiles/place_api/icons/v1/png_71/lodging-71.png", "icon_background_color": "#909CE1", "icon_mask_base_uri": "https://maps.gstatic.com/mapfiles/place_api/icons/v2/hotel_pinlet", "international_phone_number": "+34 608 20 52 25", "name": "Posada SPA & Granja La Tejera de Lozoya", "opening_hours": {"open_now": true}, "photos": [{"height": 900, "html_attributions": ["<a href=\"https://maps.google.com/maps/contrib/113698115063861027948\">Posada SPA &amp; Granja La Tejera de Lozoya</a>"], "photo_reference": "AWn5SU7sUkuR2xSB6NnydeIokIh2D80LODK_mNlOfNfBYGiDw2MViwFPiHXey_2NwPN1IaT9RsJDFuJMs8qSME6lmlvifgtOjVkslef2oyxpcUneJg1ILAp-F_fuFqV0VPOoXb17puKR13DBz-sqjBEe4b8k9d3_7aNaEXbxu7Xhe_wjyB9b8iF3XVwID2MCaipyUQ_KCfdZSncXfViDY-8pQxz5PGsIGqHDZ8r_G7yEJnM5Rf-L4FOERIrpFjnhmIm7zZbzv_etRFnR6SAWQidIy-mZSKfL3dkKhlqddc_FYn7OwWRsLN7A1Rr-O0lj7gbuPXvS2QxQ-IM", "width": 1600}], "place_id": "ChIJB8ZJtYfhQw0RQjNKiSlVYE4", "plus_code": {"compound_code": "X7FP+GG Gargantilla del Lozoya, Spain", "global_code": "8CGRX7FP+GG"}, "rating": 4.2, "reference": "ChIJB8ZJtYfhQw0RQjNKiSlVYE4", "scope": "GOOGLE", "types": ["travel_agency", "real_estate_agency", "lodging", "point_of_interest", "establishment"], "user_ratings_total": 443, "vicinity": "CARRETERA M-635 de Gargantilla del Lozoya Km. 0, 800, Gargantilla del Lozoya"}, {"business_status": "OPERATIONAL", "geometry": {"location": {"lat": 40.9822297, "lng": -3.6354484}, "viewport": {"northeast": {"lat": 40.9836248302915, "lng": -3.634176269708498}, "southwest": {"lat": 40.9809268697085, "lng": -3.636874230291502}}}, "icon": "https://maps.gstatic.com/mapfiles/place_api/icons/v1/png_71/civic_building-71.png", "icon_background_color": "#7B9EB0", "icon_mask_base_uri": "https://maps.gstatic.com/mapfiles/place_api/icons/v2/civic-bldg_pinlet", "international_phone_number": "+34 913 60 95 92", "name": "Asamblea Comarcal Sierra Norte - Cruz Roja Española", "opening_hours": {"open_now": false}, "place_id": "ChIJ4x-vJiHkQw0Rtiovgh0pwbo", "plus_code": {"compound_code": "X9J7+VR Buitrago del Lozoya, Spain", "global_code": "8CGRX9J7+VR"}, "rating": 4.9, "reference": "ChIJ4x-vJiHkQw0Rtiovgh0pwbo", "scope": "GOOGLE", "types": ["local_government_office", "point_of_interest", "establishment"], "user_ratings_total": 17, "vicinity": "Carretera de Manjirón, 5, Buitrago del Lozoya"}, {"business_status": "OPERATIONAL", "geometry": {"location": {"lat": 41.0178975, "lng": -3.641632299999999}, "viewport": {"northeast": {"lat": 41.0192598802915, "lng": -3.640357719708498}, "southwest": {"lat": 41.0165619197085, "lng": -3.643055680291502}}}, "icon": "https://maps.gstatic.com/mapfiles/place_api/icons/v1/png_71/civic_building-71.png", "icon_background_color": "#7B9EB0", "icon_mask_base_uri": "https://maps.gstatic.com/mapfiles/place_api/icons/v2/civic-bldg_pinlet", "international_phone_number": "+34 918 68 05 72", "name": "Gascones Town Hall", "opening_hours": {"open_now": false}, "photos": [{"height": 4008, "html_attributions": ["<a href=\"https://maps.google.com/maps/contrib/116522339215122585058\">Juan Rubio</a>"], "photo_reference": "AWn5SU5I09atajCwQq2P1o1kcuVgqIaVSvQyxTELQVDjZhE_ujdgDx3PZP55rmyqUHJRC03wgTYiDVAIBhukTNtG-NXQydmCE6h1bx3Rg3kKEs4H_jJRBY4WLcCaYQfq8YTkthF1jECgN9RlnMLkz6suuTabHR4vnDDiifR3RJYC3f1A84V0KWszn621vvtMNbMAlMQVr6yLDWomc6zLOmfse1XNFKnSeCaxS5oFnrqLmhD32e4CJ9mHxCveVi99vTgTzBfgAKvd2ZK7XYR3VlBrcpZGflrtgKitx0KrJvAM-vouk78dj3WxWoiIDHAGJSAp6IDplg1GgRMLfXnSxErsP8pz2Db1MV3SmJegVxVj5bhZtwiNN-x4bNG_uinUo9y169BMfnnFLdZA6RSzGGWob3YSirtA0p4OrqH4Wpl2mAGdNfWeFyFC9LK3xIRi8kVLrlRe7Kb5zwZZY7Ybo-jE_AOrnulY1r4Tr9foCkxp1gV_B_DaJrWOtpoxtjKJOex-POQva_VKtfoL90scSbnjgVrr6QVimoVKkvq9cISWUvMDUaD5d8oeHsneiPRhx_JsddFx-0IOovph8ORm9yoRE0oPYYlk8mVXQ3QaWGjlQod4PrAqQpDFDkk4Gypiv-FkU-HuhSCmm02x6PTj20c98Q", "width": 6008}], "place_id": "ChIJ3bGfmWDkQw0R1H6nH-9CWvE", "plus_code": {"compound_code": "2995+58 Gascones, Spain", "global_code": "8CHR2995+58"}, "rating": 4.4, "reference": "ChIJ3bGfmWDkQw0R1H6nH-9CWvE", "scope": "GOOGLE", "types": ["city_hall", "local_government_office", "point_of_interest", "establishment"], "user_ratings_total": 9, "vicinity": "Plaza de la Constitución, 1, Gascones"}, {"business_status": "OPERATIONAL", "geometry": {"location": {"lat": 40.99380370000001, "lng": -3.6356786}, "viewport": {"northeast": {"lat": 40.99512878029149, "lng": -3.634336719708498}, "southwest": {"lat": 40.9924308197085, "lng": -3.637034680291502}}}, "icon": "https://maps.gstatic.com/mapfiles/place_api/icons/v1/png_71/generic_business-71.png", "icon_background_color": "#7B9EB0", "icon_mask_base_uri": "https://maps.gstatic.com/mapfiles/place_api/icons/v2/generic_pinlet", "international_phone_number": "+34 659 87 85 41", "name": "TAXIBUITRAGO", "place_id": "ChIJ4b0sazvkQw0RNC_YtUXZkuc", "plus_code": {"compound_code": "X9V7+GP Buitrago del Lozoya, Spain", "global_code": "8CGRX9V7+GP"}, "rating": 4.3, "reference": "ChIJ4b0sazvkQw0RNC_YtUXZkuc", "scope": "GOOGLE", "types": ["point_of_interest", "establishment"], "user_ratings_total": 23, "vicinity": "Calle del Matadero, 5, Buitrago del Lozoya"}, {"business_status": "OPERATIONAL", "geometry": {"location": {"lat": 41.0191113, "lng": -3.6410094}, "viewport": {"northeast": {"lat": 41.0203846302915, "lng": -3.639617569708497}, "southwest": {"lat": 41.0176866697085, "lng": -3.642315530291501}}}, "icon": "https://maps.gstatic.com/mapfiles/place_api/icons/v1/png_71/bar-71.png", "icon_background_color": "#FF9E67", "icon_mask_base_uri": "https://maps.gstatic.com/mapfiles/place_api/icons/v2/bar_pinlet", "international_phone_number": "+34 915 55 48 12", "name": "Bar Canopus", "opening_hours": {"open_now": false}, "photos": [{"height": 2268, "html_attributions": ["<a href=\"https://maps.google.com/maps/contrib/108991065925202119120\">Jesus</a>"], "photo_reference": "AWn5SU5Bly2Wo2sl6RBYeQ9YT9d0saDF_eVYVy_jIHczpo0avbeLbRYARtBAGSvkX3H1g5FTy2N02XjJR0Y__R9BQhq893Z5e96jca7tzX-Qyo32kp3_hVylrSAdydGPVCjogKrHpDLpqPOo2g4T2wBlu_mBcDd1CHQRxNpwBxWdBaxYwe18npzalfL22qdQpGUInvEx-yO9_5YRS5X11Xx6hNP2REwkifC_GOvcIoqdOpHqhMjUua8TePz3ZwgQPPY_6SoK2HpxTsTXauKfizhPmltL6HbLV1gsho8YBWIgtBjHIxGbOuUTbahN6wXKDx4YFH4aXxlDjePIs58u5OV8MSfobq8T0VJqBQh4AeCmcHjyjYJ6fTV5GcSwFFixYuUo_VMGcBo5h-wVLwkanEVQseG2NZFwbbfKb4pI1rT6MqKFKqiB9-t9N2BzQ0KPWOA8cxh3RjQKl-_etH1wGPhHrm04q-b-HZbaO90Cf9g0btnJeTouPkyeVNEK1GF49aHY8u9rKzTnXP8Lb1MY9dWsMzp1kqrVIRnyupFmucbIJrjBv5skDzyudLZGmUemJkdCVu08NauZiqjk4Q4-1FPPczQJO_jlt5zgwxdJRXsigUpQFK02ZfrbNK5ibI85LnFivuq2NA", "width": 4032}], "place_id": "ChIJ9R5OOF7kQw0RdAp1shGuDfc", "plus_code": {"compound_code": "2995+JH Gascones, Spain", "global_code": "8CHR2995+JH"}, "price_level": 1, "rating": 4.3, "reference": "ChIJ9R5OOF7kQw0RdAp1shGuDfc", "scope": "GOOGLE", "types": ["bar", "point_of_interest", "establishment"], "user_ratings_total": 140, "vicinity": "Calle Carretera, 11, Gascones"}, {"business_status": "OPERATIONAL", "geometry": {"location": {"lat": 40.9926435, "lng": -3.6363237}, "viewport": {"northeast": {"lat": 40.9940095802915, "lng": -3.634941419708497}, "southwest": {"lat": 40.9913116197085, "lng": -3.637639380291502}}}, "icon": "https://maps.gstatic.com/mapfiles/place_api/icons/v1/png_71/generic_business-71.png", "icon_background_color": "#7B9EB0", "icon_mask_base_uri": "https://maps.gstatic.com/mapfiles/place_api/icons/v2/generic_pinlet", "international_phone_number": "+34 918 69 11 67", "name": "Mapfre", "opening_hours": {"open_now": false}, "photos": [{"height": 2447, "html_attributions": ["<a href=\"https://maps.google.com/maps/contrib/106883819770157263228\">MAPFRE</a>"], "photo_reference": "AWn5SU4TehaBy6WmvcBNT3yUMZx5AZsktaqkc9uHAK5-63MjiKQqD9H8EUTQ0XrkOwDt6St8oV35tTASb8iJIfm3E3YqOrR7Rz_xej6k1TkkdRK5UVmqRzpwt5Xdy-y3AzVcv5ZrfYZK5lLHmHWHbAd4aaRoZSMToKrV1V3l-QDxj05NTJOZvCCoDZWG_mAKMoVoqkMCGg9qsYfVGARgLVqy4xW9dFP36pUkZs4yVUIWdIq6-qCvxylF_NzkgP3SiaTgxK7wzIygp24v_w9m9CWOp4CoNBjsUz5DkpbwXrR3EabNNytf_SN1VcrYrfoqE7KU2OrIqu7zb8E", "width": 3837}], "place_id": "ChIJoXHxZW9dQQ0RoR9kWHDPbPk", "plus_code": {"compound_code": "X9V7+3F Buitrago del Lozoya, Spain", "global_code": "8CGRX9V7+3F"}, "rating": 1, "reference": "ChIJoXHxZW9dQQ0RoR9kWHDPbPk", "scope": "GOOGLE", "types": ["insurance_agency", "accounting", "finance", "health", "point_of_interest", "establishment"], "user_ratings_total": 1, "vicinity": "Calle de la Tahona, 36, Buitrago del Lozoya"}, {"geometry": {"location": {"lat": 41.0402585, "lng": -3.6429982}, "viewport": {"northeast": {"lat": 41.04311824039203, "lng": -3.639650563972629}, "southwest": {"lat": 41.03794863484634, "lng": -3.645325928505545}}}, "icon": "https://maps.gstatic.com/mapfiles/place_api/icons/v1/png_71/geocode-71.png", "icon_background_color": "#7B9EB0", "icon_mask_base_uri": "https://maps.gstatic.com/mapfiles/place_api/icons/v2/generic_pinlet", "name": "Braojos", "photos": [{"height": 1350, "html_attributions": ["<a href=\"https://maps.google.com/maps/contrib/111555293008555316714\">Fernando Marco Perez</a>"], "photo_reference": "AWn5SU7BJgGW39RI_YDWpwpk7RtApNqLmscegjs83srdtPFXdIVJkSFOhnl-FTn6YGrgexMRzjPbawTZtjwN910JGsfImDKVyh1PPoaoxYYWmS9BmckdrqjU205NBU2r8jWrWBgyrgS3LI5rhFE3-i-FNZip3d4i6DoRWTpyhYOt81dwIRknCUa6N6ocsPjMhH43M74XCeneO7w5PR0O6u0QiquJY0B1V7K3l-VZEhAaLzzE6MdzoARxzaHybrItPJrckfu5obsDcsTbBkXLq7nbRblA_I5xEbp0Aam3KkVEwO0EM4buL-DtBsGKGgExEjoBvrQBIFn-boKqra8SqW1mtmDZFTAeCq-o_pFwVeu76A9XC2mRd07k2SBU3dceD5fzodd4WUO66D2WCSMxaePghmUX2qSrIj-aUXxZ3nfkA8-P-lnCDqCHdAINIk_BCtRH1EDfw0_rTapjleKlgyp04ymfteRyFsxvaYSYV3CJpZHsgsX387zjoDeP8jsHgZj2vK_F3nQ9-K8h_y-3GDElF1eQw8KOlNNDUYlEpGumVGmxFfJzjIPs8IphOz-615b_VMhmbJOBoyHp6BT0RW94xES18LpaiOcsDNNVQlRPoeNQ2JJUsVjekTg6-uDDC6pbw7JcLW3l", "width": 1080}], "place_id": "ChIJi-8LLpXkQw0R2PtJQha9v6s", "reference": "ChIJi-8LLpXkQw0R2PtJQha9v6s", "scope": "GOOGLE", "types": ["locality", "political"], "vicinity": "Braojos"}]