[{"geometry": {"location": {"lat": 40.5765326, "lng": -4.0057563}, "viewport": {"northeast": {"lat": 40.58813608893205, "lng": -3.984544878048071}, "southwest": {"lat": 40.56227364358969, "lng": -4.016116257055301}}}, "icon": "https://maps.gstatic.com/mapfiles/place_api/icons/v1/png_71/geocode-71.png", "icon_background_color": "#7B9EB0", "icon_mask_base_uri": "https://maps.gstatic.com/mapfiles/place_api/icons/v2/generic_pinlet", "name": "Galapagar", "photos": [{"height": 1600, "html_attributions": ["<a href=\"https://maps.google.com/maps/contrib/108670579923271960830\">Rocisuss -CT</a>"], "photo_reference": "AWn5SU6UkPnChJ3eLx3mKgj-_GPEBI25s76AYNv4q3kzhPC56vi-0swim-CfssFJZcHqz2wFLeCpx_olqawP4gsHHdJi8vFcuZoBywVKe4dgmIgoPYAE6ZTxy3jXIY9SODlPJEXIotill9FYhI6UX7MpO1-6igToGsV0L7FBsiv0awol7o6wExYeoZkY8ftrJzeWjP7o4bMnaYe0JaL_Bi3x5LHbUpI25utQRGfVZdZHWzTgPU4k44Wj_dOjZEqED0gynDxbmozkRS4qkI2oc8i-FN5Pgby32m7y07v0jXxlxcazPvGeJPUmgabwubTUfp-qAOtljurgsuvBgLevZFzJD2CikFDICcr_R9KcXg9k4LoHQPSTQOfT0oFADNv1aEZfTjVx8A1P0irbY5mYC_sNTAq7VjIw8HkVHXgJTsafOzGf889CzEgRaFIrPi5UdHn5_4nUl2K2BEozEtP-EW_gdnwTWk1Vy_HHiDcAGk_eSaRqM7402H5VXVeemeRpMm2khABuL1pU9hovl0hdTjmfkCZ6lh0ysmjaDidefKv_1Zacj4BoWnCpcuuyKqys98fPamL7I7H-QS-zhtWYTRngUPlfLl2xcr32saU0VLp_7h7KzPJaaXLTAojzaZy-uhnP", "width": 900}], "place_id": "ChIJgc337OV1QQ0Ral3PH51FWwo", "reference": "ChIJgc337OV1QQ0Ral3PH51FWwo", "scope": "GOOGLE", "types": ["locality", "political"], "vicinity": "Galapagar"}, {"business_status": "OPERATIONAL", "geometry": {"location": {"lat": 40.5771518, "lng": -4.0044927}, "viewport": {"northeast": {"lat": 40.5785405302915, "lng": -4.003218669708498}, "southwest": {"lat": 40.57584256970851, "lng": -4.005916630291503}}}, "icon": "https://maps.gstatic.com/mapfiles/place_api/icons/v1/png_71/bank-71.png", "icon_background_color": "#909CE1", "icon_mask_base_uri": "https://maps.gstatic.com/mapfiles/place_api/icons/v2/bank-intl_pinlet", "international_phone_number": "+34 918 58 00 21", "name": "BBVA", "opening_hours": {"open_now": false}, "photos": [{"height": 720, "html_attributions": ["<a href=\"https://maps.google.com/maps/contrib/108330438163501704246\">BBVA</a>"], "photo_reference": "AWn5SU6wAvwOgfAFGCiOGbGbrKWEfBFgk9Y6F4ZalyjYrdh35UtBfFz_5-L-delX7RZz94W2PUDJu0CWLNG_G-NBQQC_ThTPzm6_Btk7l_j_k-yFE0Ydg6C9tu6EwRzeIdpncvJC7MjnrvrmREj7-OVh7-h2cpX_kaqwTBh_200cNd5Uj9x0GsLHaFgPin3WRJP734LXo3HhAIBxnwIgqBzmjUvqBSaw35611ncOxNptzeVGbFJtqSc3H1UzwG6G31xijFuWf8kF7qxrsEoi1-ebawW4Q2jvBtYetp-WbbMSF0hUrQxxupYDcO_mg0m8PveE4t3BaE9Z", "width": 1280}], "place_id": "ChIJK4Mque11QQ0Rp5PfH7JuRL4", "plus_code": {"compound_code": "HXGW+V6 Galapagar, Spain", "global_code": "8CGQHXGW+V6"}, "rating": 4.4, "reference": "ChIJK4Mque11QQ0Rp5PfH7JuRL4", "scope": "GOOGLE", "types": ["bank", "atm", "accounting", "finance", "point_of_interest", "establishment"], "user_ratings_total": 247, "vicinity": "Calle Concejo, 14, Galapagar"}, {"business_status": "OPERATIONAL", "geometry": {"location": {"lat": 40.581947, "lng": -4.010666100000001}, "viewport": {"northeast": {"lat": 40.5832771302915, "lng": -4.009504119708499}, "southwest": {"lat": 40.5805791697085, "lng": -4.012202080291503}}}, "icon": "https://maps.gstatic.com/mapfiles/place_api/icons/v1/png_71/generic_business-71.png", "icon_background_color": "#7B9EB0", "icon_mask_base_uri": "https://maps.gstatic.com/mapfiles/place_api/icons/v2/generic_pinlet", "international_phone_number": "+34 913 64 63 51", "name": "Federación Madrileña de Ciclismo", "opening_hours": {"open_now": false}, "photos": [{"height": 2268, "html_attributions": ["<a href=\"https://maps.google.com/maps/contrib/110201466270169621826\">Enrique Estébanez</a>"], "photo_reference": "AWn5SU6Zxdpl6DjExcUDQkDjIGc5ykXlJZtqYfI0TUDh-B2BwXe9A39zc5JlTDDlDIKmIDappUowzTfq41OL25ehXJEylj5Xdrg2df0vGCzwU9PcFjyQRREwdR5zccOHZACsB17OxVF9mnhE7z0_bTXLVUy50WlY_D7Zbpe2eiBYsrvKFp7f25LG1tolN48jYHMGtKGFud3UcXydS-k317gEe2zVmfIpm9wHSaZLms--Dbsp9rtdqkGEhjJSO0eZOktYau9pcR4FSmYsFAz0SDvkEec3mPBrkC3e06iqNKJnDuMnIDvjixRXEzNLiHYhJ3F5LeMGdoqyltsRUcNsOF4u5HsTsqCe2sioCrbXJSDqDgMGxAw6jayyWw_Nsg7qEmkLKi0oVYzSUkEvsyiM4OtZ43Zyz3w0M0ABKNY8s04zxUuEpzLSF5oVFra0J-mzZHLMbBv93vQnGwebWeeUOnzUOL0uqMrg55vx04kMiw7qLqi_JjaIMEGPwx_JrePGK0B_FAKnE8zBhu6QOl1xPqyibgErF-gNUCbxHmkICifunwXBqWerDzNGD1jjbA6wN5cXZO-nvSws-ZjOLq3G8UA-zhyTQKaQtntAdNVOMCk0bcyIfrLCH9qpWxDqDqXFHlisr_3czA", "width": 4032}], "place_id": "ChIJke8TaWcpQg0RX2TeGA5Anr8", "plus_code": {"compound_code": "HXJQ+QP Galapagar, Spain", "global_code": "8CGQHXJQ+QP"}, "rating": 4.4, "reference": "ChIJke8TaWcpQg0RX2TeGA5Anr8", "scope": "GOOGLE", "types": ["point_of_interest", "establishment"], "user_ratings_total": 44, "vicinity": "Calle Guadarrama, 72, Galapagar"}, {"business_status": "OPERATIONAL", "geometry": {"location": {"lat": 40.5749963, "lng": -4.0066817}, "viewport": {"northeast": {"lat": 40.5763218302915, "lng": -4.005299319708498}, "southwest": {"lat": 40.5736238697085, "lng": -4.007997280291502}}}, "icon": "https://maps.gstatic.com/mapfiles/place_api/icons/v1/png_71/school-71.png", "icon_background_color": "#7B9EB0", "icon_mask_base_uri": "https://maps.gstatic.com/mapfiles/place_api/icons/v2/school_pinlet", "international_phone_number": "+34 918 58 70 15", "name": "CEIP Carlos Ruiz", "photos": [{"height": 340, "html_attributions": ["<a href=\"https://maps.google.com/maps/contrib/111900416729827904464\">Ricardo Serrano Soria</a>"], "photo_reference": "AWn5SU4_NsZNke4cHuPc3wto0A-BPNT2uu9gOnkI1MtsuXsFExg7u8djoAV-RzD7h3hhmbgA7IIW4NWENV0-2d59l9QqJ30DxBB-w2CHQI6BCCKgEHXBplECxDw88ZEo_gM5fYnjGRFgEl2G477x2H6lDVdAS1mvDIOyoR-0HQ2v0oBQkLX6GnKNzw63_nC3yj2HWw_mM7xVEihDe5HTaBsE73hNS5CtaPWGZy7GBCHJKGYKa9CzDAQ3qk8JcDiYM-xoCPxLpUllzD7FhnyozoUF5RdUpzPF8BUURS__AvKBXKoeLe9Bk8xt-RdGxfe97p6NUrPo41-StFN8OrxJWGPWkxHYCq41ErfLb5uYUX0Ljq1i6hK6o_eglifzhhexyFtBWxuZP05GjNnLO3SQnn9cOy8oZ_gXvan5wtF9rpulE9rzI5BrrFPU1ifkiaYzfc0CUKWkL5z1JVKo8KaDp7YZcgvH3fMQqrFFYcZdCZuZ5Cum_C4aWEgv24EXohP8KOPF1nTfYvwja6obFrIxHn7wMdrH8eBCZFKLUYeaZ4u_rHmpAYXRseQRqBnWmkpaUqOvXWIimPgoggFeQjf8Lvq-ulTOCmv72C_I2-zKMG1VkLVAzrHcOClY-LgUzNipWaMN", "width": 640}], "place_id": "ChIJsfiNhPJ1QQ0RhQZi-E5Yr8A", "plus_code": {"compound_code": "HXFV+X8 Galapagar, Spain", "global_code": "8CGQHXFV+X8"}, "reference": "ChIJsfiNhPJ1QQ0RhQZi-E5Yr8A", "scope": "GOOGLE", "types": ["school", "point_of_interest", "establishment"], "vicinity": "Calle Colmenarejo, 40, Galapagar"}, {"business_status": "OPERATIONAL", "geometry": {"location": {"lat": 40.57214139999999, "lng": -4.026333200000001}, "viewport": {"northeast": {"lat": 40.5737160802915, "lng": -4.024552569708498}, "southwest": {"lat": 40.5710181197085, "lng": -4.027250530291503}}}, "icon": "https://maps.gstatic.com/mapfiles/place_api/icons/v1/png_71/generic_business-71.png", "icon_background_color": "#7B9EB0", "icon_mask_base_uri": "https://maps.gstatic.com/mapfiles/place_api/icons/v2/generic_pinlet", "international_phone_number": "+34 918 58 97 63", "name": "Fundación APASCOVI", "opening_hours": {"open_now": false}, "photos": [{"height": 3060, "html_attributions": ["<a href=\"https://maps.google.com/maps/contrib/113182629869994542174\">Francisco Javier Martin</a>"], "photo_reference": "AWn5SU6MlXtUIlgin2ppJfN1MabDd2hevc1xPUfawvnjZRYFKqSnzk_YrWL52qDH-s-larqyZv8dLj-FQdCzDPKWHCuDOFVFwdR8ss9aOR0HyQ1KiguJfGVMrkRl-IUFnKRwPIi3IeH61GYODzw4oiFghi0z9AsRfppM-McEE7lxNmk5DpertkS2hg0KBNVa3jYuP1r5GmIvNzNgastNum15rq4j9hjjt3Ks_qcFBk4n4DXONrghToniYJY4dWwG-hbmsXaa_BpcU0jv7uU9UJYF0JQsPxDvUlafTIO6f1l9Ut_jiI6OVq_HUo-UGIK0bbAoAxOGN1QNMtFQhS7v0RghTdlbBFga0LA7E5WO64tFxIb2oIjjbC2U20z3Lphjyf2Q98FXSSf1ky-QTGeDYMLCp9D-AyD5BBk3Zv0zjiqEYHaelQRwUD84sS69VlmIoMgfYtquFC357avd1imYJbkHT4v3OGCSDpJmhvnp5QNNHNszWS3_RUvXZnCPVTcfKAa3h_8XJHqGL_9o8O81119CTfj1ktS9uAzCBBa3EDSAHwRiSqU638OwAAl5DucOovxfs0J-fgl-jh0xS2VSBiKJB4N1xOTFGD9-P6PJHZocCYZCbX3Q3xQ-ts7KhPJREnbhWJ-XGw", "width": 4080}], "place_id": "ChIJKycCs4d1QQ0R2MbEZe08yko", "plus_code": {"compound_code": "HXCF+VF Colmenarejo, Spain", "global_code": "8CGQHXCF+VF"}, "rating": 4.7, "reference": "ChIJKycCs4d1QQ0R2MbEZe08yko", "scope": "GOOGLE", "types": ["store", "point_of_interest", "establishment"], "user_ratings_total": 56, "vicinity": "Calle de la Cañada Real, 0, Colmenarejo"}, {"business_status": "OPERATIONAL", "geometry": {"location": {"lat": 40.5573025, "lng": -4.014523899999999}, "viewport": {"northeast": {"lat": 40.5587932802915, "lng": -4.013015969708497}, "southwest": {"lat": 40.5560953197085, "lng": -4.015713930291501}}}, "icon": "https://maps.gstatic.com/mapfiles/place_api/icons/v1/png_71/school-71.png", "icon_background_color": "#7B9EB0", "icon_mask_base_uri": "https://maps.gstatic.com/mapfiles/place_api/icons/v2/school_pinlet", "international_phone_number": "+34 918 58 90 21", "name": "Public School Seis de Diciembre", "photos": [{"height": 4008, "html_attributions": ["<a href=\"https://maps.google.com/maps/contrib/116522339215122585058\">Juan Rubio</a>"], "photo_reference": "AWn5SU4fXAH0s-rIVLsHzwCUYtYB_nV3XQJEWR6nacSO7fcID314cahmbQVPYfE5yaMdaEWh_QiOKDXp6n__C_of2NbfrkNYXf0PAJsBslqfKMw-UjqPV95Tnn_cL7IDZ81mxb0cb6t8-QEvogZcNAgPvjWwVWo9u11OJipcZXhgzw__WJXAHwbce91zT98Q-qFZaCe_1TYvapikfidKUIe8G5IO_ystSKNcoGP-kacy--OCnANKufvxWw282g2IrZIovSgfxL5aGQBqczrp25lSdOrp1kuFXJNLUtMA_hfTOMf_d7IrMz3LF3JpWF6F4C7zHtnlENhJ8-468xwB6z3IWkoYVkyjjOdOgZL-iwxi5nxFQGZDWtoqgmV3tKsMxpihVhQmcttjrdU9n0L53VmtHCz_H4zsfjjxJ3HaYt9YEDtpOXfimmcsKD4neEz2N_PjoQ1R8QeTIe-A7lDb88YPzzn7pRDVeudwaHIt7yr-3djKc5I76n51rjQrJ_iiYpoe-9_RxehcdQPA15z0053_eq9JSU37rDDrE9-bB4nYwT92oMYOvd0_0PEHoyirubHjaB3h-xIB6s1hjbHS3n92oXHY4tl7AjFjenvqrDG9ReM9qgn9u_FdYtsCCyGmwhN5tOhQDgu7aEXZ_zsMLwvXhdyXqw4", "width": 6008}], "place_id": "ChIJp7tWfCSeQQ0RJyBY8hT2SiU", "plus_code": {"compound_code": "HX4P+W5 Colmenarejo, Spain", "global_code": "8CGQHX4P+W5"}, "reference": "ChIJp7tWfCSeQQ0RJyBY8hT2SiU", "scope": "GOOGLE", "types": ["school", "point_of_interest", "establishment"], "vicinity": "Calle Madrid, s/n, Colmenarejo"}, {"business_status": "OPERATIONAL", "geometry": {"location": {"lat": 40.5617671, "lng": -4.0172007}, "viewport": {"northeast": {"lat": 40.56313023029149, "lng": -4.015811269708498}, "southwest": {"lat": 40.56043226970849, "lng": -4.018509230291501}}}, "icon": "https://maps.gstatic.com/mapfiles/place_api/icons/v1/png_71/civic_building-71.png", "icon_background_color": "#7B9EB0", "icon_mask_base_uri": "https://maps.gstatic.com/mapfiles/place_api/icons/v2/civic-bldg_pinlet", "international_phone_number": "+34 918 42 51 38", "name": "Oficina de Correos", "opening_hours": {"open_now": false}, "photos": [{"height": 900, "html_attributions": ["<a href=\"https://maps.google.com/maps/contrib/105614223900862348022\">Oficina de Correos</a>"], "photo_reference": "AWn5SU6PtDTKiJz-fxs3bmdgTvkmibW8jBPJNIBc8ZvXzHgVql8xF16HlHR0bqTAznY7Mx6zVV3Eo6SZJKVoTWbQslzQzmVGMdc7xrMt9me5SztM_0sVSmnsagQ2s7ijs9QbhMj9tLMPMJYSHMFOc4xdQptHW_NvOzbO9kjCeah8MvFfQ2ygg2vshXfxzDaNEmAcMFAxLQ71-rsKpFQhpXSOThsp7ItXDZHv5xGg6JCieIsWPGoM-Bh2TszBXPM3Ko9uhMVrNEuY2XNyfKM6i6L4RD-577ryu2Slj-SdI_gijsoOxwnDu_Byz8TiX3R7pW-cMbZvy02AsKg", "width": 1600}], "place_id": "ChIJfdCaRyaeQQ0RhOjOQ2dolq0", "plus_code": {"compound_code": "HX6M+P4 Colmenarejo, Spain", "global_code": "8CGQHX6M+P4"}, "rating": 3.4, "reference": "ChIJfdCaRyaeQQ0RhOjOQ2dolq0", "scope": "GOOGLE", "types": ["post_office", "finance", "point_of_interest", "establishment"], "user_ratings_total": 86, "vicinity": "Calle Vistalegre, 14, Colmenarejo"}, {"business_status": "OPERATIONAL", "geometry": {"location": {"lat": 40.55899429999999, "lng": -4.0152699}, "viewport": {"northeast": {"lat": 40.5602947802915, "lng": -4.013878169708498}, "southwest": {"lat": 40.5575968197085, "lng": -4.016576130291503}}}, "icon": "https://maps.gstatic.com/mapfiles/place_api/icons/v1/png_71/generic_business-71.png", "icon_background_color": "#7B9EB0", "icon_mask_base_uri": "https://maps.gstatic.com/mapfiles/place_api/icons/v2/generic_pinlet", "international_phone_number": "+34 918 42 35 88", "name": "Omega Dental Center", "opening_hours": {"open_now": false}, "photos": [{"height": 1147, "html_attributions": ["<a href=\"https://maps.google.com/maps/contrib/113178198496485067116\">Centro Odontologico Omega</a>"], "photo_reference": "AWn5SU5xqwwYU_NA4W6XHmrrt2hmXmjfs_l-QVE3ImbbV_gqFPlm_FlGm4keNu8jso8TFrleWmi3IPoxWtlwCE_FhxuzUsaD-fjm4Hia7j2gEfJSQj7ZHUmEohLW2FmtaNEvnjI1QfTcUBeG2wAV-qAJJKWCNsroLI-G0eagjk6mC4rHXSaEhtfm7RAKEOZf60uwDXgmo6AfQm370P4AzcfXaGaxa1aMyXr3nKGxqzzS9ra96S0MtYvdYTzw5I-TN-HXu1Q5nRwrYROplO8afDCbecrGQsaxlUWIEK8lKsRDTGou3iCBmK3aS-qHgVu99oUclimWu0Ytluc", "width": 1121}], "place_id": "ChIJn6HfOSSeQQ0R1ACSXXdmbZ0", "plus_code": {"compound_code": "HX5M+HV Colmenarejo, Spain", "global_code": "8CGQHX5M+HV"}, "rating": 3.9, "reference": "ChIJn6HfOSSeQQ0R1ACSXXdmbZ0", "scope": "GOOGLE", "types": ["point_of_interest", "health", "establishment"], "user_ratings_total": 31, "vicinity": "Calle Madrid, 28, Colmenarejo"}, {"business_status": "OPERATIONAL", "geometry": {"location": {"lat": 40.5536977, "lng": -4.011027899999999}, "viewport": {"northeast": {"lat": 40.5550210302915, "lng": -4.009618719708497}, "southwest": {"lat": 40.5523230697085, "lng": -4.012316680291502}}}, "icon": "https://maps.gstatic.com/mapfiles/place_api/icons/v1/png_71/generic_business-71.png", "icon_background_color": "#7B9EB0", "icon_mask_base_uri": "https://maps.gstatic.com/mapfiles/place_api/icons/v2/generic_pinlet", "international_phone_number": "+34 918 42 35 55", "name": "Aisla y Ahorra SL (Oficina)", "opening_hours": {"open_now": false}, "photos": [{"height": 360, "html_attributions": ["<a href=\"https://maps.google.com/maps/contrib/113568353555297915678\">Aisla y Ahorra SL (Oficina)</a>"], "photo_reference": "AWn5SU57s5g1EhQTDNpZhyXsTLb7OKoD5GGD6uHi1SQqByNoR9uxIA2s9VG_pAD451nz_Az5Pb_sLVoiTLfWBG1toLBJzXKoSv1JeeEnQswEuF0B1Zs1J2Ba6ov8HZeqNAsnfriVS0IP3z5WXh6CYbwrrWi-wvau7OigVguDD6QPAKnxAbKtpGjLOKhV-FjEUmPK9EFIvod7dvbtBwn3JxIyLk-VRGj0_B57PXOpch0uoIPfTz1E1k_LnNM5V8wnltUZci72LUtHMmw_QC0VfxnySK5e6uk6Xj2RSJEMll5L2NtZCg94d0D-NNpDXdYfbavwG3CsF8cP", "width": 1000}], "place_id": "ChIJi3oE4TyeQQ0R4dce9NYapMI", "plus_code": {"compound_code": "HX3Q+FH Colmenarejo, Spain", "global_code": "8CGQHX3Q+FH"}, "rating": 4.6, "reference": "ChIJi3oE4TyeQQ0R4dce9NYapMI", "scope": "GOOGLE", "types": ["general_contractor", "store", "point_of_interest", "establishment"], "user_ratings_total": 83, "vicinity": "Calle de las Colmenas, 14, Colmenarejo"}, {"business_status": "OPERATIONAL", "geometry": {"location": {"lat": 40.5609725, "lng": -4.0156465}, "viewport": {"northeast": {"lat": 40.5623328802915, "lng": -4.014284969708498}, "southwest": {"lat": 40.5596349197085, "lng": -4.016982930291503}}}, "icon": "https://maps.gstatic.com/mapfiles/place_api/icons/v1/png_71/generic_business-71.png", "icon_background_color": "#7B9EB0", "icon_mask_base_uri": "https://maps.gstatic.com/mapfiles/place_api/icons/v2/generic_pinlet", "international_phone_number": "+34 919 91 30 97", "name": "Centro Residencial de Mayores Colmenarejo.", "opening_hours": {"open_now": true}, "photos": [{"height": 573, "html_attributions": ["<a href=\"https://maps.google.com/maps/contrib/107536278053251709851\">Centro Residencial de Mayores Colmenarejo.</a>"], "photo_reference": "AWn5SU4xqQoOjz_lPb_Cyo8-hzs3B_-I_YZqUKxXQwrtSaDSTdTX1ErKQDs8GD-V9g4SjcEDgo7ZT650YF291O3_0y_iXeKml3q_4obsUGBHdm_l12uE07QfxZ2mGR1xkJ61wYHGNonZIeglGRfcjvoquR3Dc5Yf_AwCWpp81Oamui4upiRXE6EHgU8gYhP8nkHsp-dJjix-EPOA1CZtWMlnJcbQflvBfjGODIvnPB08WDy85w1zPByS5Zt9dSCQNZmJzd_b2ZXLVUO-97TkvKlR67vyhQZIbrF8BcYGM_WxFX4Qnk-l2s1qqF1JkCcaybF49K_c7xi07EE", "width": 910}], "place_id": "ChIJtSTiiyaeQQ0RhPNd-BOwXeM", "plus_code": {"compound_code": "HX6M+9P Colmenarejo, Spain", "global_code": "8CGQHX6M+9P"}, "rating": 4.1, "reference": "ChIJtSTiiyaeQQ0RhPNd-BOwXeM", "scope": "GOOGLE", "types": ["point_of_interest", "health", "establishment"], "user_ratings_total": 29, "vicinity": "Calle Maravillas, 12, BAJO, Colmenarejo"}, {"business_status": "OPERATIONAL", "geometry": {"location": {"lat": 40.5570373, "lng": -4.013902600000001}, "viewport": {"northeast": {"lat": 40.5585110302915, "lng": -4.012439319708498}, "southwest": {"lat": 40.5558130697085, "lng": -4.015137280291502}}}, "icon": "https://maps.gstatic.com/mapfiles/place_api/icons/v1/png_71/school-71.png", "icon_background_color": "#7B9EB0", "icon_mask_base_uri": "https://maps.gstatic.com/mapfiles/place_api/icons/v2/school_pinlet", "international_phone_number": "+34 918 58 90 72 ext. 190", "name": "Escuela Municipal de Música y Danza de Colmenarejo Ruperto Chapí", "opening_hours": {"open_now": false}, "photos": [{"height": 3456, "html_attributions": ["<a href=\"https://maps.google.com/maps/contrib/113289566653681896154\">Javier Cano cuesta</a>"], "photo_reference": "AWn5SU5TQsaPaEMP6JtLH68vEWS4iJWZzTLGwce2c6xrj7rqjyv_-v1lVe-kb1bTcKLCZY_Wo4RIYwU7rV3WedXsZTDsoJ7tF94xaAlrvmiIp3ZWzp2ldVbstO0Xp8SgT2mQFy4c7fv23jdYSzgKjJBz53TZfa3r0duhqh0dUBPRnZzhNYYv6FnAZIof9fCC5dcDxNNodPkFLe-_h4pWoGRx7tZIP7uISwi4QcTxCs6ScghZM9Am2sFpdTf6g8qmqCa0Nhz5g6ena1RFQk4dvpUgLZZVYfvBgheGhi1mXf2e5j_euZP3aqzPAV4nUtQfxM5Jg7o--e5JcDfNdOCWYtKYc4eE8hSDKknb83yO3SOpEWK2hvuzCKbNsCL7RsRrVAVbAXoHfSQIzxBlqJeRb6umoXgwUeRUVPkJLuERIjbj4U-GqR-lLfY3L4MsLWOe95IM06DbVNzhx2uR3Iu23NrF2B9P_CT_-su0-iX03RP8WPOd0fTwL2CswS0vgrxcgamsryFM8E0vjb6DhDEFBU0JmZEmVsKbvPQ_ii9IeQo9sHNGgYHKsWadArjGDtjewlevD8pWVsF8ofz1IufahYfnLlHDKN_qG3Iz-Z1h9OCVhNwMXIxy0YrIiTzGUR4i4DGYyyZAFA", "width": 4608}], "place_id": "ChIJGc7dgySeQQ0RtEQYWr49vkM", "plus_code": {"compound_code": "HX4P+RC Colmenarejo, Spain", "global_code": "8CGQHX4P+RC"}, "rating": 4.8, "reference": "ChIJGc7dgySeQQ0RtEQYWr49vkM", "scope": "GOOGLE", "types": ["point_of_interest", "establishment"], "user_ratings_total": 18, "vicinity": "Calle Madrid, 38, Colmenarejo"}, {"business_status": "OPERATIONAL", "geometry": {"location": {"lat": 40.5604188, "lng": -4.016751099999999}, "viewport": {"northeast": {"lat": 40.5617656802915, "lng": -4.015480719708497}, "southwest": {"lat": 40.5590677197085, "lng": -4.018178680291501}}}, "icon": "https://maps.gstatic.com/mapfiles/place_api/icons/v1/png_71/generic_business-71.png", "icon_background_color": "#7B9EB0", "icon_mask_base_uri": "https://maps.gstatic.com/mapfiles/place_api/icons/v2/generic_pinlet", "international_phone_number": "+34 918 42 50 15", "name": "Despacho Lopez & Elvira", "opening_hours": {"open_now": false}, "place_id": "ChIJdadCcSaeQQ0R2jHcmYuw57Y", "plus_code": {"compound_code": "HX6M+57 Colmenarejo, Spain", "global_code": "8CGQHX6M+57"}, "rating": 3, "reference": "ChIJdadCcSaeQQ0R2jHcmYuw57Y", "scope": "GOOGLE", "types": ["accounting", "finance", "lawyer", "point_of_interest", "establishment"], "user_ratings_total": 2, "vicinity": "Calle Peligros, 3, Colmenarejo"}, {"business_status": "OPERATIONAL", "geometry": {"location": {"lat": 40.56031459999999, "lng": -4.017468999999999}, "viewport": {"northeast": {"lat": 40.56165133029149, "lng": -4.016203919708497}, "southwest": {"lat": 40.5589533697085, "lng": -4.018901880291502}}}, "icon": "https://maps.gstatic.com/mapfiles/place_api/icons/v1/png_71/generic_business-71.png", "icon_background_color": "#7B9EB0", "icon_mask_base_uri": "https://maps.gstatic.com/mapfiles/place_api/icons/v2/generic_pinlet", "international_phone_number": "+34 659 65 94 88", "name": "Unicol, C.B.", "place_id": "ChIJ-x2hDiaeQQ0RxhC87t67PVc", "plus_code": {"compound_code": "HX6M+42 Colmenarejo, Spain", "global_code": "8CGQHX6M+42"}, "rating": 3, "reference": "ChIJ-x2hDiaeQQ0RxhC87t67PVc", "scope": "GOOGLE", "types": ["general_contractor", "point_of_interest", "establishment"], "user_ratings_total": 2, "vicinity": "Calle Campana, nº1, Colmenarejo"}, {"business_status": "OPERATIONAL", "geometry": {"location": {"lat": 40.5686913, "lng": -4.011636}, "viewport": {"northeast": {"lat": 40.57007058029149, "lng": -4.010249819708497}, "southwest": {"lat": 40.56737261970849, "lng": -4.012947780291502}}}, "icon": "https://maps.gstatic.com/mapfiles/place_api/icons/v1/png_71/generic_business-71.png", "icon_background_color": "#7B9EB0", "icon_mask_base_uri": "https://maps.gstatic.com/mapfiles/place_api/icons/v2/generic_pinlet", "international_phone_number": "+34 651 85 37 23", "name": "Garbi Madrid Conservación Y Restauración S.L.", "opening_hours": {"open_now": false}, "photos": [{"height": 633, "html_attributions": ["<a href=\"https://maps.google.com/maps/contrib/110156163219815835674\">Angel Panizo Coleto</a>"], "photo_reference": "AWn5SU77IP1kzQx8xqeB0phZeAK4FP1W9gIMKRtZLDYsmCykZt7x7OweGSrSzogDjd2-pbhiEjC5VZdXs2Qwo4oDfv8gDin4178eQM3f5ohDEu4Mrok4Ddz0mDkVzurZS1cszVDfhwF8BYbnreltndz5eNsWi0I9yWJz5Xjuqm_tvwe7lTy-ej707FMKySEvuMbomr4rA6UP2gbzRoRYtcgF4QdOwyPi5emRcqGgoGEFXZFT8bSkvawLZPR8nzCxnWJ6TToBXLV8Nft6hmB7-Dc9lVTjdLF0n1RLTeSQ-e9TPlWJ5C02NOw43Lnb_UQ55WkoTYoFuYEZYELQJ3OGsadon2SVDC-6wWxwZrSneZiE9aX4f8OPmHPBf2M81H4KUNqldM74rnIeOLu8RU_xrQnK4HzKjAMLiqMeP4y7vIU8g2yJqFdRLAJ3wNk9Ku273li7gchIDQ5BnVPNRiWKVOQFEXxJZ7_pUTPLB1cJ-zRhNaRkTLoSrwE1d93ahoSReBjqiUsHMDhh0wc5Z6thRSZM3jZsq1nYvWwlqEfIxJGCgunmOrF8cl_HLRIvCIxkGe8t3Zx2VxZ0bM2SECQMFNO6zLAERc3Ach6zpC_csCz9OWU98_D41HztDlBTDmoineC959bU-iMp", "width": 886}], "place_id": "ChIJx6owvIt1QQ0R4q1WjDeOE0M", "plus_code": {"compound_code": "HX9Q+F8 Galapagar, Spain", "global_code": "8CGQHX9Q+F8"}, "rating": 5, "reference": "ChIJx6owvIt1QQ0R4q1WjDeOE0M", "scope": "GOOGLE", "types": ["point_of_interest", "establishment"], "user_ratings_total": 3, "vicinity": "Calle Aulaga, 2, Galapagar"}, {"business_status": "OPERATIONAL", "geometry": {"location": {"lat": 40.5616006, "lng": -4.0186855}, "viewport": {"northeast": {"lat": 40.5628957302915, "lng": -4.017296969708498}, "southwest": {"lat": 40.56019776970851, "lng": -4.019994930291503}}}, "icon": "https://maps.gstatic.com/mapfiles/place_api/icons/v1/png_71/generic_business-71.png", "icon_background_color": "#7B9EB0", "icon_mask_base_uri": "https://maps.gstatic.com/mapfiles/place_api/icons/v2/generic_pinlet", "international_phone_number": "+34 918 42 45 28", "name": "Arentia Consultores", "opening_hours": {"open_now": false}, "photos": [{"height": 410, "html_attributions": ["<a href=\"https://maps.google.com/maps/contrib/117489225038605012003\">Arentia Consultores</a>"], "photo_reference": "AWn5SU6BMZYyqM1aaxWZAlZfNVor8jq5UJgRWg4V-myB5D3k0ogFj0VyPlGmuIzoocweQgVTUfkYM4hQGO_byp8G3qCzQWI-EkOf45NuqYx010MnV6lR3RbvUanNPvWY2ILfyv4ZgNj0lT5zHSqvkoOn0G9bc1Ske_d5HolI1_15inQy_NiBcoLx7MCoCPzA1OXZh3q1iMBsDHPevG9jvUogURfJVeXLfdcpmPPN2kMormOvucleCQ6xAMZlyJMlafPT68GWw7KnWKyT0OJbINhwilaUuMysSm_TegiNZ0qR69zuhem6O7KPSjgZ2dDYj7E8SNt0vxmpKDc", "width": 683}], "place_id": "ChIJ63_YnSieQQ0RvweOEIavGjU", "plus_code": {"compound_code": "HX6J+JG Colmenarejo, Spain", "global_code": "8CGQHX6J+JG"}, "rating": 5, "reference": "ChIJ63_YnSieQQ0RvweOEIavGjU", "scope": "GOOGLE", "types": ["point_of_interest", "establishment"], "user_ratings_total": 2, "vicinity": "Calle Vistalegre, 46, Colmenarejo"}, {"business_status": "OPERATIONAL", "geometry": {"location": {"lat": 40.56147239999999, "lng": -4.016666199999999}, "viewport": {"northeast": {"lat": 40.5627640302915, "lng": -4.015268869708497}, "southwest": {"lat": 40.5600660697085, "lng": -4.017966830291502}}}, "icon": "https://maps.gstatic.com/mapfiles/place_api/icons/v1/png_71/generic_business-71.png", "icon_background_color": "#7B9EB0", "icon_mask_base_uri": "https://maps.gstatic.com/mapfiles/place_api/icons/v2/generic_pinlet", "international_phone_number": "+34 918 58 94 40", "name": "Francar Instalaciones", "opening_hours": {"open_now": false}, "place_id": "ChIJka7vQiaeQQ0RLnIug-NjuZE", "plus_code": {"compound_code": "HX6M+H8 Colmenarejo, Spain", "global_code": "8CGQHX6M+H8"}, "rating": 4.6, "reference": "ChIJka7vQiaeQQ0RLnIug-NjuZE", "scope": "GOOGLE", "types": ["plumber", "point_of_interest", "establishment"], "user_ratings_total": 43, "vicinity": "Carretera de Galapagar, 1, Colmenarejo"}, {"business_status": "OPERATIONAL", "geometry": {"location": {"lat": 40.5648169, "lng": -4.013979099999999}, "viewport": {"northeast": {"lat": 40.56616088029151, "lng": -4.012553119708497}, "southwest": {"lat": 40.56346291970851, "lng": -4.015251080291502}}}, "icon": "https://maps.gstatic.com/mapfiles/place_api/icons/v1/png_71/generic_business-71.png", "icon_background_color": "#7B9EB0", "icon_mask_base_uri": "https://maps.gstatic.com/mapfiles/place_api/icons/v2/generic_pinlet", "international_phone_number": "+34 918 42 34 09", "name": "Grupo inprexsersys", "place_id": "ChIJN7bYUCeeQQ0RKFTz6br19hY", "plus_code": {"compound_code": "HX7P+WC Colmenarejo, Spain", "global_code": "8CGQHX7P+WC"}, "reference": "ChIJN7bYUCeeQQ0RKFTz6br19hY", "scope": "GOOGLE", "types": ["point_of_interest", "establishment"], "vicinity": "Carretera de Galapagar, 41, LocalA, Colmenarejo"}, {"business_status": "OPERATIONAL", "geometry": {"location": {"lat": 40.5552452, "lng": -4.016713000000001}, "viewport": {"northeast": {"lat": 40.5566385302915, "lng": -4.015354319708499}, "southwest": {"lat": 40.5539405697085, "lng": -4.018052280291504}}}, "icon": "https://maps.gstatic.com/mapfiles/place_api/icons/v1/png_71/generic_business-71.png", "icon_background_color": "#7B9EB0", "icon_mask_base_uri": "https://maps.gstatic.com/mapfiles/place_api/icons/v2/generic_pinlet", "international_phone_number": "+34 911 26 21 58", "name": "Aeja global services", "opening_hours": {"open_now": false}, "place_id": "ChIJIYwzqiieQQ0R69miOGS6O5o", "plus_code": {"compound_code": "HX4M+38 Colmenarejo, Spain", "global_code": "8CGQHX4M+38"}, "rating": 4.1, "reference": "ChIJIYwzqiieQQ0R69miOGS6O5o", "scope": "GOOGLE", "types": ["point_of_interest", "establishment"], "user_ratings_total": 9, "vicinity": "Calle de la Encina, 3, Colmenarejo"}, {"business_status": "OPERATIONAL", "geometry": {"location": {"lat": 40.562193, "lng": -4.014156}, "viewport": {"northeast": {"lat": 40.5635737802915, "lng": -4.012788969708498}, "southwest": {"lat": 40.5608758197085, "lng": -4.015486930291502}}}, "icon": "https://maps.gstatic.com/mapfiles/place_api/icons/v1/png_71/shopping-71.png", "icon_background_color": "#4B96F3", "icon_mask_base_uri": "https://maps.gstatic.com/mapfiles/place_api/icons/v2/shopping_pinlet", "international_phone_number": "+34 918 42 57 67", "name": "Ecosierra", "opening_hours": {"open_now": false}, "photos": [{"height": 4160, "html_attributions": ["<a href=\"https://maps.google.com/maps/contrib/104852686769098017723\">Ecosierra</a>"], "photo_reference": "AWn5SU43QnDbSYc-xBboBqOPejBks2cH-HriJ-4RN86pS7m5Zv_LG84hmA_rFGBCj0gPeSEpRD7A4VdPpyoWBc4KFfD_0bNnLUZ3Caw_R3lWc9VicUFDVLUpL_j1wUXDnsswP2HOq1IqElaDnIetk6p5Uo9LBB3wlPtGS4NAyBdGLwH1Z5OQBoxu3pV1aDa2hxVs6u62fztruUBGyfKvkmvP461jS_zj7fqJMEI0nRN-jCjcRMKW6gcAuSnMy4QEELUmbBs5bUFeZBqr-j_Z_1SBcpXhsDagM1y6L-j3pxseBipvK2VluIymOcH8RQKV5mOrX9TjCtJyafg", "width": 3120}], "place_id": "ChIJL7JO2iaeQQ0Re3zI3IGC4a8", "plus_code": {"compound_code": "HX6P+V8 Colmenarejo, Spain", "global_code": "8CGQHX6P+V8"}, "rating": 4.7, "reference": "ChIJL7JO2iaeQQ0Re3zI3IGC4a8", "scope": "GOOGLE", "types": ["store", "point_of_interest", "establishment"], "user_ratings_total": 40, "vicinity": "Calle Cañada de las Merinas, 22, Colmenarejo"}, {"geometry": {"location": {"lat": 40.5607261, "lng": -4.0177635}, "viewport": {"northeast": {"lat": 40.56773599756313, "lng": -4.002048220142658}, "southwest": {"lat": 40.53858637566817, "lng": -4.028925354087509}}}, "icon": "https://maps.gstatic.com/mapfiles/place_api/icons/v1/png_71/geocode-71.png", "icon_background_color": "#7B9EB0", "icon_mask_base_uri": "https://maps.gstatic.com/mapfiles/place_api/icons/v2/generic_pinlet", "name": "Colmenarejo", "photos": [{"height": 3120, "html_attributions": ["<a href=\"https://maps.google.com/maps/contrib/104045023260655513416\">jose luis cabestrero</a>"], "photo_reference": "AWn5SU5Kkc3RMfvALizHFBE0KWm91geYweEFHfOBE9JXIBBQJcUxZAl2IXvJNkQqudiRD7cjrA18rTHDj4dMuYkAOz8M-ZAITx5mxaJ1xIlQt47vvAuEsKXY6QYRb14jbrQYMnOo7aBXnVAyI732-i6rgy1Vgln_aWFmSqls4eraDc8XguqgsryV8uTR4dgdxLmxGJYnIkbB0QU1a-7r58qgAo0fYxrFQfOlWDktrSuBvB5Z1RrmpbNpmsdpMCWIB-DED5FxFMyZrvdGbvygxC9lBA6jwIgVEgH06k6xKwce9l429DpiY2X67ON5HY3a2hxZUpOCkDlk-LJj72jBzhC-waF4zZjHghvva7E7O68fWfRmHnvLTJ2IPGoBbQG_nyOGgriQhwFFScqpbHOf_tF8ptlHBD7vvB4JdLWJreH2SCS8MxfOVE1009KftQ-LrMuxnsVfQ0NW1agysp2pWuLYzOjIJFtN_zQstqfhnD1xd2GRXbkUL1sS637cNVULGIAdKsnxxCoDV-6KBlo7CLm9eL760AOSZL5HuDc__roi3ZBD2QGLBhL7bAxvH99EX68-D9wEFXYVl7uQYepUs2TteqWyKkIfl1Zkcokhwa_oDCxGFtHSJtj2Wd271CWHk6Z0Q_D81g", "width": 4160}], "place_id": "ChIJv6xwkiaeQQ0REUJMTOAdfY0", "reference": "ChIJv6xwkiaeQQ0REUJMTOAdfY0", "scope": "GOOGLE", "types": ["locality", "political"], "vicinity": "Colmenarejo"}]