[{"geometry": {"location": {"lat": 40.3015944, "lng": -4.4426499}, "viewport": {"northeast": {"lat": 40.31428411452327, "lng": -4.424653541609475}, "southwest": {"lat": 40.2934555954428, "lng": -4.458899798774559}}}, "icon": "https://maps.gstatic.com/mapfiles/place_api/icons/v1/png_71/geocode-71.png", "icon_background_color": "#7B9EB0", "icon_mask_base_uri": "https://maps.gstatic.com/mapfiles/place_api/icons/v2/generic_pinlet", "name": "Cadalso de los Vidrios", "photos": [{"height": 1080, "html_attributions": ["<a href=\"https://maps.google.com/maps/contrib/103480316147472641636\">Jose DOMINGUEZ NUÑEZ HERRADOR</a>"], "photo_reference": "AWn5SU7MpTVgQMoZKgmT8dPyJtWm6JBQ5-JgPqPMF4pPYrEvl-NABUx4sfYwuw6yAbA3YiS8fS8GMQbNyLVR8p1En0YRmKdsgfW4glnhg0jdiJTwnQEp5o_3u6TYV14At-XL_-FeZjzif0TA9Idsf0WBixFct3T1qrjZWib9VXBhfimJ1dFgDvnB-7kPRyAZCT90uqZt2d6q3jGIwnaoDUlpenvt68kC1A-aXxzKtR_ziDyEmVh7WZj8jASI1HujPp7Srg-0j0iApBcsc2qqOdH6gRGlz1lqCVsR3wB2yA_BZQ8dOMMTNrydZr73a1TrC7rDaDNBEHOKtnE5tBWkBEWrMpbwtU75TRAAAQ8f0393IpJLMIBgTHsPYjJeJE2tr_j5YCti4HyMAN0F12FT5oBIFi3FFF5EkQtAXFu0-JdT1W79UE8gL502vAAl7O9W2tC8xnqK43D6-_jsKiXjYsL_d-2UA92MyCkpHp1B_XOmCbHPmJO6WZLsbQwL9aZq2MCWLjBpNPwieP9KbYUPj9W1l6c5J5PlJEeOMk_CW9hrDWDhxu1Vd96q7DC-oTmZp5CWy9j-jS_kfajbsRIZ1yTB0kSPc3ZXwpEQC1BEco8o8K4GD6-yxM2BNCJT-0CsizKTYnA_Fg", "width": 1440}], "place_id": "ChIJkZtF4n9MQA0RTW4QZXOQLd8", "reference": "ChIJkZtF4n9MQA0RTW4QZXOQLd8", "scope": "GOOGLE", "types": ["locality", "political"], "vicinity": "Cadalso de los Vidrios"}, {"business_status": "OPERATIONAL", "geometry": {"location": {"lat": 40.3613908, "lng": -4.3996645}, "viewport": {"northeast": {"lat": 40.3627926302915, "lng": -4.398337269708498}, "southwest": {"lat": 40.3600946697085, "lng": -4.401035230291503}}}, "icon": "https://maps.gstatic.com/mapfiles/place_api/icons/v1/png_71/bank-71.png", "icon_background_color": "#909CE1", "icon_mask_base_uri": "https://maps.gstatic.com/mapfiles/place_api/icons/v2/bank-intl_pinlet", "international_phone_number": "+34 918 61 00 11", "name": "BBVA", "opening_hours": {"open_now": false}, "photos": [{"height": 720, "html_attributions": ["<a href=\"https://maps.google.com/maps/contrib/111478040960961375533\">BBVA</a>"], "photo_reference": "AWn5SU57spD3uYQ2R9_TTKhYjCVdTVBxLE4QAWstt_qvBiD9V4oNl5ZAq4gy0f5tTMFR2wGhRQpb72gGQ1BxYKQvbWWhdvafsjXaxOFgqWCEuZrO8Xq0und2jiIAbIuH1skeNNt0tMbsZgxVlKNe_IUQC98vkAMqvQaLXf26G3niDftQgN1gMdvTshzs0wqtUf-BBxcXhgwpP5TVoLPf96PCinDzWl_vZIzo8Ecc21DbCvnb0t3gklnGvIJ6ECC1SabXpPmv_gx4Q5VY8bgyxO_vF9L8VCTJ8r_DR2XXdcCWBZcy5cCitwtbsgtx4YuWXMMaWwzWjCPKL54", "width": 1280}], "place_id": "ChIJ9eMQDjNNQA0Rs6UF4RJ2RUE", "plus_code": {"compound_code": "9J62+H4 San Martín de Valdeiglesias, Spain", "global_code": "8CGQ9J62+H4"}, "rating": 2.3, "reference": "ChIJ9eMQDjNNQA0Rs6UF4RJ2RUE", "scope": "GOOGLE", "types": ["bank", "atm", "accounting", "finance", "point_of_interest", "establishment"], "user_ratings_total": 30, "vicinity": "Calle de la Corredera Baja, 31, San Martín de Valdeiglesias"}, {"business_status": "OPERATIONAL", "geometry": {"location": {"lat": 40.36171079999999, "lng": -4.3977349}, "viewport": {"northeast": {"lat": 40.36307203029151, "lng": -4.396546569708498}, "southwest": {"lat": 40.36037406970851, "lng": -4.399244530291503}}}, "icon": "https://maps.gstatic.com/mapfiles/place_api/icons/v1/png_71/lodging-71.png", "icon_background_color": "#909CE1", "icon_mask_base_uri": "https://maps.gstatic.com/mapfiles/place_api/icons/v2/hotel_pinlet", "international_phone_number": "+34 677 75 94 95", "name": "Hotel Labranza", "opening_hours": {"open_now": false}, "photos": [{"height": 1232, "html_attributions": ["<a href=\"https://maps.google.com/maps/contrib/109714663826500609275\">Hotel Labranza</a>"], "photo_reference": "AWn5SU5PvnWSempq23TZMYzFgebvzfN4W23BIry9YD_VNJPa5cBBCbrKzbqHbm73NDGyyq8zheaL6Pzh426fb5aLOncoVh4XRG1IPn_pM36IAPs6QgTQkyxm-y-hWwHUJ_4Bm5AOjO3Nr2JH3o0DX54AgX_vVhJDdYIZnShv5mA62_n7jW38m8SIlBv_yIf7UTs8QAHvTZbUvQifqn8lDusaYJEOd8l7S5NRXwvTHGEgQ307uQ9oGomGuSl0fRWJIUyTZycClTH6vQ7rm0_5zNCDHKiqMzWn2ujWEaOm-itvCflWVgns23EANWFMfgBYsXFsRfJ7TSKGjsk", "width": 1840}], "place_id": "ChIJWdD-NDNNQA0RLBRw5L8cdKQ", "plus_code": {"compound_code": "9J62+MW San Martín de Valdeiglesias, Spain", "global_code": "8CGQ9J62+MW"}, "rating": 4.2, "reference": "ChIJWdD-NDNNQA0RLBRw5L8cdKQ", "scope": "GOOGLE", "types": ["lodging", "point_of_interest", "establishment"], "user_ratings_total": 253, "vicinity": "Calle del Arco, 3, San Martín de Valdeiglesias"}, {"business_status": "OPERATIONAL", "geometry": {"location": {"lat": 40.36221839999999, "lng": -4.3991064}, "viewport": {"northeast": {"lat": 40.36356208029149, "lng": -4.397754469708498}, "southwest": {"lat": 40.36086411970849, "lng": -4.400452430291502}}}, "icon": "https://maps.gstatic.com/mapfiles/place_api/icons/v1/png_71/shopping-71.png", "icon_background_color": "#4B96F3", "icon_mask_base_uri": "https://maps.gstatic.com/mapfiles/place_api/icons/v2/shopping_pinlet", "international_phone_number": "+34 667 75 65 49", "name": "Valdeisabella", "opening_hours": {"open_now": false}, "photos": [{"height": 2268, "html_attributions": ["<a href=\"https://maps.google.com/maps/contrib/113980451591032360638\">Nuria Penélope</a>"], "photo_reference": "AWn5SU4cyUFw8HJbe5MQ4fvkYoOBsdCYZEPtr2xZwjEwJRskLeSlWN_YZ1XtkQSO2OpHIF_WRIYiTJSIwAujWrwQBvwjG5Wu_E8C-mGuIJkvTdP8jhpf7mOCvfKk2t5Z0QqqjXW2TZH-HMFxb5Ozj2hzLZhhus01syW-05lfRXF7ZB0HfoVQo3UjbIB1v0dvw4igShFussUWRzEpGN_aL1wqjYQxcpLHdfsic1VCIf-4H-wf--hdkrWJXL6c0FTRC2fleisfiRylngIoK-r3vkxB-qepadFz9kTgQ_vl0sm6dEpx-rULNc0Pqc_jlm3qJ8yff8EO53cR1vQ5zyuRQO5KiTI6iqIkT1DpKpo8mDo5SmSvtge5zybVVMQFf77sphB42blt2zRS7APVN3ZK6VHmmy0f1ChRaaw7C-a3VPJGIOw6oMGiKpauvFy8FyWGHyflBI67LqXpSyj_EkjNJ5peM3v4xzk6JeSRd50i8Cy-lFgq6DGzRjt7qWh3EzNVAlk8_OGPEZZThTlKcNhfywld6fqBuJHWkdJ1RNP1ftdYhPndYS44-YAKMfkT86Lx7KR8gXOMTaPB8IteTQAenfaIJ4Y6fhow7PIzLr9yBHhSFfcSfePLwT7mfsrCfCDzW8WN", "width": 4032}], "place_id": "ChIJrY7HOHkoQg0R8ZeX2WW1-94", "plus_code": {"compound_code": "9J62+V9 San Martín de Valdeiglesias, Spain", "global_code": "8CGQ9J62+V9"}, "rating": 4.5, "reference": "ChIJrY7HOHkoQg0R8ZeX2WW1-94", "scope": "GOOGLE", "types": ["point_of_interest", "store", "food", "establishment"], "user_ratings_total": 441, "vicinity": "Calle Doctor Mampaso, 2, San Martín de Valdeiglesias"}, {"business_status": "OPERATIONAL", "geometry": {"location": {"lat": 40.3737015, "lng": -4.3220899}, "viewport": {"northeast": {"lat": 40.3750554302915, "lng": -4.320716819708498}, "southwest": {"lat": 40.3723574697085, "lng": -4.323414780291502}}}, "icon": "https://maps.gstatic.com/mapfiles/place_api/icons/v1/png_71/generic_business-71.png", "icon_background_color": "#7B9EB0", "icon_mask_base_uri": "https://maps.gstatic.com/mapfiles/place_api/icons/v2/generic_pinlet", "international_phone_number": "+34 660 34 55 78", "name": "Real Club Náutico de Madrid | Navegar en Madrid | Escuela de vela", "opening_hours": {"open_now": false}, "photos": [{"height": 619, "html_attributions": ["<a href=\"https://maps.google.com/maps/contrib/117283539104650750505\">Real Club Náutico de Madrid | Navegar en Madrid | Escuela de vela</a>"], "photo_reference": "AWn5SU7vKBgbnWhyeV1h8a9CDfpZDk77cquAzD86M174kDanDf9JaES66cL4YzrkUxYMSBCU7RJsOB1gfgFWaQHZACQECo3RtgyUd9tGOPiLtCmZhbZDzNMJhWyEQ02p2YBzPxuNnnJCreN2QoUYUsIMv-ZzmtS9vLtZGWBgOLb06V8qxt2SR8r5YQtuDieQMRAgusPmQRz7GCC84Xl2xwvntWxd2QnfHr61nnMRVFKErGvE8mEC4gB5SrrhiumOTAnTnYa1JLTd-6VWl1GztDA4JwnWIsj6uHiS-MKQv-gp2ei1PWfLDBnMJChdkYQuPZ_udoQ26QX_", "width": 925}], "place_id": "ChIJUYZzcuwoQg0RIyYfmsfytgU", "plus_code": {"compound_code": "9MFH+F5 Pelayos de la Presa, Spain", "global_code": "8CGQ9MFH+F5"}, "rating": 4.2, "reference": "ChIJUYZzcuwoQg0RIyYfmsfytgU", "scope": "GOOGLE", "types": ["point_of_interest", "establishment"], "user_ratings_total": 153, "vicinity": "Camino del Embalse de San juan 0, s/n, Madrid"}, {"business_status": "OPERATIONAL", "geometry": {"location": {"lat": 40.3635959, "lng": -4.398187200000001}, "viewport": {"northeast": {"lat": 40.3649436302915, "lng": -4.396942719708499}, "southwest": {"lat": 40.3622456697085, "lng": -4.399640680291504}}}, "icon": "https://maps.gstatic.com/mapfiles/place_api/icons/v1/png_71/civic_building-71.png", "icon_background_color": "#7B9EB0", "icon_mask_base_uri": "https://maps.gstatic.com/mapfiles/place_api/icons/v2/civic-bldg_pinlet", "international_phone_number": "+34 918 61 29 41", "name": "Biblioteca Municipal", "opening_hours": {"open_now": false}, "photos": [{"height": 5760, "html_attributions": ["<a href=\"https://maps.google.com/maps/contrib/105797583258563976148\">Juan Carlos Romano Bajo</a>"], "photo_reference": "AWn5SU5xIrwDfoUAfhIbav9CRzFWz0a_k4EBkK4ym-HBcKMzLqm9x-8QMyMf4xrCJdrZ-I6L2mx-Jt-VjKrLzM1GEsMoqrUeA-5XwCkNCAz9OhlUDrVd2x_IhtUzbvNaDQimzbCT4y0xLXGiWZkbLlDLoOeHjTuGwEdU0aiozJNeQbR3DtKHhSTUSkDfoCBXJsts43e3qqzPCuH_R_KCvCtfi4RVYfE_YMIaOnnPGtykCa6xFa8wShfbQvfU-DiTXuUvKl8KEoxR6XfiVUIR51_yZz96XpjrvJeJ8shGPtvjwiq5Cin-UyyeEFXRUq9nexTRlWOYI2x9koyKFP4W_g8grHBXnXvXxfOChpEG8K6vEWjJ4oc2uwX5gYiZt1QGCyOMpRlSnjrkHogtm5K4tDvoc6CgLnrlshHQWDPoVLFOGejhoiMdWaHRnE_tN6J4wJJ0Y6zGewVg_T5oWzyeqFG53R7C3i9wGLsdfdVqCXI8tEbYq1n40tQv8W-RSomRI8eQdPby-vECI7GiepNb_AhrFo9NGDS3CD_9Kx_-LK9_PHeFP2FkxyjrmGMcBW88tOZAsrU_DSHbf3d6hoXOZ1MuuFXQnzzzAhGpfAq7sJTStLQfFfwBrfZ582dUa0L8lSuSnFItq3TX", "width": 4312}], "place_id": "ChIJ-aWEpTRNQA0RWnDFW6s8hyI", "plus_code": {"compound_code": "9J72+CP San Martín de Valdeiglesias, Spain", "global_code": "8CGQ9J72+CP"}, "rating": 3.4, "reference": "ChIJ-aWEpTRNQA0RWnDFW6s8hyI", "scope": "GOOGLE", "types": ["library", "point_of_interest", "establishment"], "user_ratings_total": 20, "vicinity": "Calle de la Fuente, 4, San Martín de Valdeiglesias"}, {"business_status": "OPERATIONAL", "geometry": {"location": {"lat": 40.3608407, "lng": -4.403058099999999}, "viewport": {"northeast": {"lat": 40.3622804302915, "lng": -4.401677969708498}, "southwest": {"lat": 40.3595824697085, "lng": -4.404375930291502}}}, "icon": "https://maps.gstatic.com/mapfiles/place_api/icons/v1/png_71/civic_building-71.png", "icon_background_color": "#7B9EB0", "icon_mask_base_uri": "https://maps.gstatic.com/mapfiles/place_api/icons/v2/civic-bldg_pinlet", "international_phone_number": "+34 918 61 00 76", "name": "Service and Information Center of Social Security No.13", "opening_hours": {"open_now": false}, "photos": [{"height": 2560, "html_attributions": ["<a href=\"https://maps.google.com/maps/contrib/104194777886847583411\">Juan Pedro Hidalgo</a>"], "photo_reference": "AWn5SU7hunFDVo1RVRq5n3estt92_4vhC2qHXPwjMLR1Lu5WZsH2YPF0kPjqpc8_Z0p9Inq4ICFwjSLd5aCickpxEqgn-MX1vK8VIlLtsxcjaywJh9q-wblnP68FAH5sotRdQilDwTJA3AHMuo1tjiQEt61DizlPYAbaEy5pnH2sQVyK9XLpDLaIzSaKnKij7-SeosFj7s4D3WYMPwOdni5fw6zcFJ272gf9rkHuuTl1LdFS_o7Y4TtZYoPNQ4M57yLT1MVK7t3Fp7sWSCKTlM-3UvTUgk5qh0WA0hycEIFaqiOTuM0-rP7EsLFVgPg3ADdepVxQnnZRn2L0atnr1My_tSB7LQAVqlzQA5JnK_CN1pSA4wQMJuFuRdMUCJbyZEjIfq-EXA-K6KcGFfISc1ULmJPo4_o03yKZ26fM37rlGRmtNnNwhd8jmR4HSKjcfuofHQCHFDNhHmAnA_tLBsOWVp7PBY6pBVcy7OdJkclieldUpHLktCT3_dHXmk9I8RxtzbXOcuVz5Jq7NHzfs8TnVLk5Q-r7MENRs0ndGDjgr_v3H7TKzK52mi556Chx5fEmLCTMAf7pa0Q1WtJ1HLz_CmVWLwfna0S9sbRUwnOzWdZpzbfSUnHUq1O23vMy5QQVXyHoQg", "width": 1440}], "place_id": "ChIJB6awfDFNQA0RYVziA7dCOLQ", "plus_code": {"compound_code": "9H6W+8Q San Martín de Valdeiglesias, Spain", "global_code": "8CGQ9H6W+8Q"}, "rating": 2.7, "reference": "ChIJB6awfDFNQA0RYVziA7dCOLQ", "scope": "GOOGLE", "types": ["local_government_office", "point_of_interest", "establishment"], "user_ratings_total": 28, "vicinity": "Carretera de Ávila, 1, San Martín de Valdeiglesias"}, {"business_status": "OPERATIONAL", "geometry": {"location": {"lat": 40.3611096, "lng": -4.3960689}, "viewport": {"northeast": {"lat": 40.36233388029151, "lng": -4.394790969708497}, "southwest": {"lat": 40.35963591970851, "lng": -4.397488930291502}}}, "icon": "https://maps.gstatic.com/mapfiles/place_api/icons/v1/png_71/generic_business-71.png", "icon_background_color": "#7B9EB0", "icon_mask_base_uri": "https://maps.gstatic.com/mapfiles/place_api/icons/v2/generic_pinlet", "international_phone_number": "+34 918 61 21 80", "name": "Agencia de Santalucía Seguros", "opening_hours": {"open_now": false}, "photos": [{"height": 997, "html_attributions": ["<a href=\"https://maps.google.com/maps/contrib/117600886674074844928\">Agencia de Santalucía Seguros</a>"], "photo_reference": "AWn5SU4kh19NFFm2llOsd8cZacV8fglpGrkNZ_zhImRoYBfmzlzI1-IGLHof9zfotE0dJW8expSHDholv-Ii6Q2hgxxKA9LZnOX7AV1rfkzrwLAtC0ONkea_7mmqctqBoRikMizrg-Wzjn2aw4VBBtoKCZwCp4YyAWnevJInchvDpp2PafL92_rRMmC7044fYebKoQnEt4mfkz_MNuntrA8a1x7WL-0PWpzCEAfMgW2ot_4ui_E1dynS2lvnJBRIg2uG0hmzOBZOWOwL9UO30b_9DZmWXB0bPSQ1U1r6wx_dGgu3eUQkxUTCeUPcShy47gW23QcEOgFVjL4", "width": 1772}], "place_id": "ChIJVyYH3syyQQ0RhaDoGx-5EaQ", "plus_code": {"compound_code": "9J63+CH San Martín de Valdeiglesias, Spain", "global_code": "8CGQ9J63+CH"}, "rating": 4.5, "reference": "ChIJVyYH3syyQQ0RhaDoGx-5EaQ", "scope": "GOOGLE", "types": ["insurance_agency", "accounting", "finance", "health", "point_of_interest", "establishment"], "user_ratings_total": 78, "vicinity": "Avenida Madrid, 23, Bajo 1, San Martín de Valdeiglesias"}, {"business_status": "CLOSED_TEMPORARILY", "geometry": {"location": {"lat": 40.36263719999999, "lng": -4.347610299999999}, "viewport": {"northeast": {"lat": 40.3639854802915, "lng": -4.346238419708498}, "southwest": {"lat": 40.36128751970851, "lng": -4.348936380291502}}}, "icon": "https://maps.gstatic.com/mapfiles/place_api/icons/v1/png_71/shopping-71.png", "icon_background_color": "#4B96F3", "icon_mask_base_uri": "https://maps.gstatic.com/mapfiles/place_api/icons/v2/shopping_pinlet", "international_phone_number": "+34 912 30 69 93", "name": "Bisutería Elsa", "permanently_closed": true, "place_id": "ChIJhSL0RbgoQg0RMOKMOrIVWTA", "plus_code": {"compound_code": "9M72+3X Pelayos de la Presa, Spain", "global_code": "8CGQ9M72+3X"}, "rating": 4, "reference": "ChIJhSL0RbgoQg0RMOKMOrIVWTA", "scope": "GOOGLE", "types": ["jewelry_store", "point_of_interest", "store", "establishment"], "user_ratings_total": 1, "vicinity": "Paseo de los Apartamentos, 33"}, {"business_status": "OPERATIONAL", "geometry": {"location": {"lat": 40.361703, "lng": -4.3951047}, "viewport": {"northeast": {"lat": 40.3630640802915, "lng": -4.393722269708498}, "southwest": {"lat": 40.3603661197085, "lng": -4.396420230291501}}}, "icon": "https://maps.gstatic.com/mapfiles/place_api/icons/v1/png_71/generic_business-71.png", "icon_background_color": "#7B9EB0", "icon_mask_base_uri": "https://maps.gstatic.com/mapfiles/place_api/icons/v2/generic_pinlet", "international_phone_number": "+34 918 61 16 84", "name": "Asociación Vasos de Barro", "place_id": "ChIJp-v-WM6yQQ0R1QGXuiGuh9I", "plus_code": {"compound_code": "9J63+MX San Martín de Valdeiglesias, Spain", "global_code": "8CGQ9J63+MX"}, "rating": 5, "reference": "ChIJp-v-WM6yQQ0R1QGXuiGuh9I", "scope": "GOOGLE", "types": ["point_of_interest", "establishment"], "user_ratings_total": 1, "vicinity": "Calle General Martinez Benito, 1, San Martín de Valdeiglesias"}, {"business_status": "OPERATIONAL", "geometry": {"location": {"lat": 40.3618183, "lng": -4.3981754}, "viewport": {"northeast": {"lat": 40.3631454302915, "lng": -4.396776719708498}, "southwest": {"lat": 40.3604474697085, "lng": -4.399474680291502}}}, "icon": "https://maps.gstatic.com/mapfiles/place_api/icons/v1/png_71/generic_business-71.png", "icon_background_color": "#7B9EB0", "icon_mask_base_uri": "https://maps.gstatic.com/mapfiles/place_api/icons/v2/generic_pinlet", "international_phone_number": "+34 918 61 30 01", "name": "MAPFRE", "opening_hours": {"open_now": false}, "photos": [{"height": 2530, "html_attributions": ["<a href=\"https://maps.google.com/maps/contrib/106043815842999164830\">MAPFRE</a>"], "photo_reference": "AWn5SU6JSsDko5gW74oGtrrJ8RKdOIFs1XhwrMMQt7OuaUuyBCNKY1n5I9XFmUY-ktum5GAKpPy6LBWX8fOBvr8UWWEPIdFsHdYNeIthb90bdlAermw4HQX7dG9k9I0en6WufIQcudJuXMKwY_OmZ-xirG-wmOCJWiISIf0ClnN_KGpKBi1vAQ2tl-RNxHIeVKy_ni41PDjdQFzC0eDlr7DxLEaLSAf3ojuJSTUOAbzb8J48dPFpLJiTFJ54XvLetVlWzvGA4fAyTFiJM4bZWF73xIOGFEXhyFJdD3EDTCnn2geT4_8424k6DPRVZwstcZThHaAaSY2hhB4", "width": 3716}], "place_id": "ChIJR5wzNjNNQA0RxudPCw-nK0I", "plus_code": {"compound_code": "9J62+PP San Martín de Valdeiglesias, Spain", "global_code": "8CGQ9J62+PP"}, "rating": 4.4, "reference": "ChIJR5wzNjNNQA0RxudPCw-nK0I", "scope": "GOOGLE", "types": ["insurance_agency", "accounting", "finance", "health", "point_of_interest", "establishment"], "user_ratings_total": 12, "vicinity": "Calle de Ramón y Cajal, 20, San Martín de Valdeiglesias"}, {"business_status": "OPERATIONAL", "geometry": {"location": {"lat": 40.36329549999999, "lng": -4.4031425}, "viewport": {"northeast": {"lat": 40.36472393029149, "lng": -4.401804069708498}, "southwest": {"lat": 40.36202596970849, "lng": -4.404502030291503}}}, "icon": "https://maps.gstatic.com/mapfiles/place_api/icons/v1/png_71/generic_business-71.png", "icon_background_color": "#7B9EB0", "icon_mask_base_uri": "https://maps.gstatic.com/mapfiles/place_api/icons/v2/generic_pinlet", "international_phone_number": "+34 918 61 14 49", "name": "Lastras & Rodrilas Asesores", "opening_hours": {"open_now": false}, "photos": [{"height": 3456, "html_attributions": ["<a href=\"https://maps.google.com/maps/contrib/104780895635294667797\">Lastras &amp; Rodrilas Asesores</a>"], "photo_reference": "AWn5SU5R0IJFmm8A742ZFED38EvF79iBBkoz3CYjOMGL8pFv49DZgV5YH3ZCcJ5G5y2hEGkbPMqru9DItk2q93KSt7flh4dZhuW0wtpmFZ3glm3PpLH0D4GZqrhw29-tzu63AbpaM2TW5eEQfCWi0Kf-GSPSsuC0Gxfu-_vvtkOcKb01ZMwJVYR6L2bBrAM5ddum1nZVMsOWiNBCOrP8zEKgxm3dZPLKXKK5t_9n3fVmYHuuJWDCiosUyqn2EiwG3DW1y-IasME5GXRfY2aCgUyqFY543tYtXGu-KMnciW53lVf4W7ktDbtF0OvV4ebqrTk-AmWZXcS7bX8", "width": 5184}], "place_id": "ChIJ79QV1zNNQA0RUoU-SsIPGQE", "plus_code": {"compound_code": "9H7W+8P San Martín de Valdeiglesias, Spain", "global_code": "8CGQ9H7W+8P"}, "rating": 4, "reference": "ChIJ79QV1zNNQA0RUoU-SsIPGQE", "scope": "GOOGLE", "types": ["finance", "point_of_interest", "establishment"], "user_ratings_total": 5, "vicinity": "Calle del Doctor Félix Rodríguez de la Fuente, 31, San Martín de Valdeiglesias"}, {"business_status": "OPERATIONAL", "geometry": {"location": {"lat": 40.3643382, "lng": -4.395146399999999}, "viewport": {"northeast": {"lat": 40.36568563029149, "lng": -4.393768819708497}, "southwest": {"lat": 40.3629876697085, "lng": -4.396466780291502}}}, "icon": "https://maps.gstatic.com/mapfiles/place_api/icons/v1/png_71/generic_business-71.png", "icon_background_color": "#7B9EB0", "icon_mask_base_uri": "https://maps.gstatic.com/mapfiles/place_api/icons/v2/generic_pinlet", "name": "Construcciones Sevillano", "photos": [{"height": 960, "html_attributions": ["<a href=\"https://maps.google.com/maps/contrib/105496670022962413652\">Alfonso YUSTE ROSADO APAREJADORESMADRID.ORG</a>"], "photo_reference": "AWn5SU4qWQsy9csesh9IpYEQJje--8eOA92SapcJanwsaWrYVZCZx83P1XnPqEy1iP4B8MYnbZLtf2b0m9aXmNXuont-dXfs3c5fPO3XxL_V-TdwTPvWk5P7zBSl7z-0L2UYtwZb0-Uip8L88QnN5iMqfALJC77XH44zktZc6bJRIDIpSmOUVze_PZXhOJkA6xUSMPoADCfciqlhWNXYljidlZxlzgxQ2GntdxwdqmnNKZq5hiwT3gcwJKV2hfrO_qw6Cll-Pwn_bjYmMdx69Th1kEYJmw5Ja156K2x9WBef3-7AS-kwTtkB9AdTCA1PsvFhxYP68D5i7WeeyPhHozvA-85-_zzea3y1fqkd6AVpvG8NFM7CIoCCVrlYsvjwvRPIrB5OeyCylD4FRQp7WZIXMXH3YEwPCZowQ7ipbSaaeOYZ24825ecI_59veR5FFXAFPv3YqSg6WXXcTuqB538hZh7pzKK4ZrklHA3MH5w5tpt1wailqZnmvzg75hrE0cJ2hVovKJfX-gX5PopH8553mGqsjneTDTHO0hcmKC2CNGnrouKcX11paAhZDgPQIO8GnozyttkEaUYbyrD7-rvAwdHGHOnmYjwY_P6WHEENavsZGhTbgsKRM3lcyWm96VUJeIOYbw", "width": 1280}], "place_id": "ChIJ9yD8dsuyQQ0RHja4o4goLU8", "plus_code": {"compound_code": "9J73+PW San Martín de Valdeiglesias, Spain", "global_code": "8CGQ9J73+PW"}, "rating": 3.8, "reference": "ChIJ9yD8dsuyQQ0RHja4o4goLU8", "scope": "GOOGLE", "types": ["general_contractor", "point_of_interest", "establishment"], "user_ratings_total": 5, "vicinity": "Calle Madroño, 1, San Martín de Valdeiglesias"}, {"business_status": "OPERATIONAL", "geometry": {"location": {"lat": 40.3592786, "lng": -4.406775400000001}, "viewport": {"northeast": {"lat": 40.3607567802915, "lng": -4.405497969708498}, "southwest": {"lat": 40.3580588197085, "lng": -4.408195930291503}}}, "icon": "https://maps.gstatic.com/mapfiles/place_api/icons/v1/png_71/civic_building-71.png", "icon_background_color": "#7B9EB0", "icon_mask_base_uri": "https://maps.gstatic.com/mapfiles/place_api/icons/v2/civic-bldg_pinlet", "international_phone_number": "+34 918 61 06 70", "name": "Registry of Property of San Martin de Valdeiglesias", "opening_hours": {"open_now": false}, "place_id": "ChIJAX9VFTVNQA0RMPXZ7l16IkI", "plus_code": {"compound_code": "9H5V+P7 San Martín de Valdeiglesias, Spain", "global_code": "8CGQ9H5V+P7"}, "rating": 3.5, "reference": "ChIJAX9VFTVNQA0RMPXZ7l16IkI", "scope": "GOOGLE", "types": ["finance", "local_government_office", "point_of_interest", "establishment"], "user_ratings_total": 14, "vicinity": "Carretera de Toledo, 7, 1ª pl - local 5, San Martín de Valdeiglesias"}, {"business_status": "OPERATIONAL", "geometry": {"location": {"lat": 40.3666801, "lng": -4.405698699999999}, "viewport": {"northeast": {"lat": 40.36791778029149, "lng": -4.404277719708498}, "southwest": {"lat": 40.36521981970849, "lng": -4.406975680291502}}}, "icon": "https://maps.gstatic.com/mapfiles/place_api/icons/v1/png_71/school-71.png", "icon_background_color": "#7B9EB0", "icon_mask_base_uri": "https://maps.gstatic.com/mapfiles/place_api/icons/v2/school_pinlet", "international_phone_number": "+34 918 61 19 88", "name": "Colegio Público San Martín de Tours", "place_id": "ChIJbQNZwDdNQA0RVZuouarGRvg", "plus_code": {"compound_code": "9H8V+MP San Martín de Valdeiglesias, Spain", "global_code": "8CGQ9H8V+MP"}, "reference": "ChIJbQNZwDdNQA0RVZuouarGRvg", "scope": "GOOGLE", "types": ["school", "point_of_interest", "establishment"], "vicinity": "Camino de la Aliseda, s/n, San Martín de Valdeiglesias"}, {"business_status": "OPERATIONAL", "geometry": {"location": {"lat": 40.36265509999999, "lng": -4.4025752}, "viewport": {"northeast": {"lat": 40.36397033029149, "lng": -4.401252669708497}, "southwest": {"lat": 40.36127236970849, "lng": -4.403950630291502}}}, "icon": "https://maps.gstatic.com/mapfiles/place_api/icons/v1/png_71/generic_business-71.png", "icon_background_color": "#7B9EB0", "icon_mask_base_uri": "https://maps.gstatic.com/mapfiles/place_api/icons/v2/generic_pinlet", "international_phone_number": "+34 911 26 81 42", "name": "Programación Y Diseño", "opening_hours": {"open_now": false}, "photos": [{"height": 600, "html_attributions": ["<a href=\"https://maps.google.com/maps/contrib/117324282751092245453\">Programación Y Diseño</a>"], "photo_reference": "AWn5SU6szcgjmQbMXHfnpZuRu5-YpAp2Xc3iVXjiOUN7ShDTC3MhXhh4xjYFBHuZCyYWdKtlOhTAf7c7WCEpBH47MPI4KwYywZkpwGXW-omfuMUvKs9MwRQNAv9x6tg2qbhepVtk0CJpx3cO8T_tsFsWVt269Yqt3J81cDaJq4DzgZwtZarL-_dqv99UUwKJF7jaMEFQ7NpTBQNF58CqvdjYZn6aZ_8AlRywny3DZlvXHK9EcDW3j-SjsWA7Q0UzX_Rg7OJAT3091HfFEnseEx-WKq_G6MqCxo2DqknAv7ANkPqUxEVgrStIghrRpH4ItSYDgFz8jzhC5ao", "width": 800}], "place_id": "ChIJHZEh_DNNQA0RoMxRWvuPpao", "plus_code": {"compound_code": "9H7W+3X San Martín de Valdeiglesias, Spain", "global_code": "8CGQ9H7W+3X"}, "rating": 5, "reference": "ChIJHZEh_DNNQA0RoMxRWvuPpao", "scope": "GOOGLE", "types": ["point_of_interest", "establishment"], "user_ratings_total": 1, "vicinity": "Calle de San Martín, 1, San Martín de Valdeiglesias"}, {"business_status": "OPERATIONAL", "geometry": {"location": {"lat": 40.35595899999999, "lng": -4.378901799999999}, "viewport": {"northeast": {"lat": 40.35874885000001, "lng": -4.378153569708497}, "southwest": {"lat": 40.35502904999998, "lng": -4.380851530291501}}}, "icon": "https://maps.gstatic.com/mapfiles/place_api/icons/v1/png_71/school-71.png", "icon_background_color": "#7B9EB0", "icon_mask_base_uri": "https://maps.gstatic.com/mapfiles/place_api/icons/v2/school_pinlet", "international_phone_number": "+34 624 07 10 03", "name": "Centro de Actividades y Granja Escuela Nuestra Tierra", "opening_hours": {"open_now": false}, "photos": [{"height": 1375, "html_attributions": ["<a href=\"https://maps.google.com/maps/contrib/107810339514503415171\">Centro de Actividades y Granja Escuela Nuestra Tierra</a>"], "photo_reference": "AWn5SU503_HCpm6XAwYPpHGcpo5Aw3DCY4YroLMj11muQ_WlWHbfbCJW0ZMfzp3H4t-mJesyaaNdi1BTt-2r-pdXP3Tkf1bxTik0A0Zn4vMhk5p22YftshDeLhgsv6yteXKJgGpLp9DhvyxpQ5AF4V0kmWD0YeFVLUR3bcc4vNFsDHCnyqYdo6BWVsMB2CIo9aYsLjFa9XdSpCnThdMxzHrb5VT4SqJ6byOKkR224CTTadorQvDQb4Bb-tjxySlEBm6SKUckPUYjkq8z0-c6hEORKbpwIi-xGCvNlpWUdkP_1UIZMxzAQ989AwOAch7hzoPhJbz2ihKhEm8", "width": 2048}], "place_id": "ChIJ3eGkqd2yQQ0R2Lz9IJ_Vs8s", "plus_code": {"compound_code": "9J4C+9C San Martín de Valdeiglesias, Spain", "global_code": "8CGQ9J4C+9C"}, "rating": 4.5, "reference": "ChIJ3eGkqd2yQQ0R2Lz9IJ_Vs8s", "scope": "GOOGLE", "types": ["school", "lodging", "point_of_interest", "establishment"], "user_ratings_total": 139, "vicinity": "Camino del Riscadero, S/N, San Martín de Valdeiglesias"}, {"business_status": "OPERATIONAL", "geometry": {"location": {"lat": 40.35974720000001, "lng": -4.394921}, "viewport": {"northeast": {"lat": 40.3611002802915, "lng": -4.393444019708498}, "southwest": {"lat": 40.3584023197085, "lng": -4.396141980291502}}}, "icon": "https://maps.gstatic.com/mapfiles/place_api/icons/v1/png_71/generic_business-71.png", "icon_background_color": "#7B9EB0", "icon_mask_base_uri": "https://maps.gstatic.com/mapfiles/place_api/icons/v2/generic_pinlet", "international_phone_number": "+34 918 61 04 90", "name": "Yuste -Electricidad , Energía Solar ,Ferreteria", "opening_hours": {"open_now": false}, "photos": [{"height": 640, "html_attributions": ["<a href=\"https://maps.google.com/maps/contrib/100017927800917347754\">Yuste -Electricidad , Energía Solar ,Ferreteria</a>"], "photo_reference": "AWn5SU6Sjhg7qYOS0e_H5-xDag-ocRwIWpmhdsFnJq0enaN8m20RohNt3lMpOg2mGZy5N72AvjBOWwveM1jG2mxTsUDfRXO-GSG1cG7OjtG-QojSVd2VanfUpEYte7hs98bsx66ecN--DqhNNnN_TXpBnf4buFGVop97stfrNHyyhrAvl5ZkxVM8dqULn2GELyoWgUeDRxWfeQGsjbo1aQDelP_vfWQeap04_ccAfhc6nIG8ontpmCizxqC4dOipBenIck3eXnBML90zslFIpdpUFOdeJOnhCktLlKBr3OGFAte7q-twDVSJ_8OflL-8J57Kji0cwNqaRUk", "width": 640}], "place_id": "ChIJfTfmps2yQQ0RkzTWc_d_kgc", "plus_code": {"compound_code": "9J54+V2 San Martín de Valdeiglesias, Spain", "global_code": "8CGQ9J54+V2"}, "rating": 3.1, "reference": "ChIJfTfmps2yQQ0RkzTWc_d_kgc", "scope": "GOOGLE", "types": ["point_of_interest", "store", "establishment"], "user_ratings_total": 27, "vicinity": "Avenida Madrid, 30, San Martín de Valdeiglesias"}, {"business_status": "OPERATIONAL", "geometry": {"location": {"lat": 40.36044059999999, "lng": -4.4098655}, "viewport": {"northeast": {"lat": 40.36177043029149, "lng": -4.408626069708498}, "southwest": {"lat": 40.35907246970849, "lng": -4.411324030291502}}}, "icon": "https://maps.gstatic.com/mapfiles/place_api/icons/v1/png_71/generic_business-71.png", "icon_background_color": "#7B9EB0", "icon_mask_base_uri": "https://maps.gstatic.com/mapfiles/place_api/icons/v2/generic_pinlet", "international_phone_number": "+34 918 61 17 93", "name": "Tecnicas Energeticas Yuste", "opening_hours": {"open_now": false}, "photos": [{"height": 510, "html_attributions": ["<a href=\"https://maps.google.com/maps/contrib/106763620868237034301\">Tecnicas Energeticas Yuste</a>"], "photo_reference": "AWn5SU6Olopw3WiV3nE3mgdYBSGC5NIwB4mrDmFNn70cUROR49xqw_q6NRLRm-LW3YBgM9aNC3G-L0QBiieYSUqoZ8YQqq668X2f7gHkzEyMnKFyrrKSfGLg8tzZkXFxC_87kv4dNL8uX81jRYIVrP8516pLF6zTNVUmyUUhoUBRUrdeF3yrUv0lp4lyhHIHtU3NJm8z17KNAbZY_Ad2abgWpw8LP6Zh_UfIe_L6qKDYbpuAYU9apABRFkHezvgPZnHxD7VzYSBUjUSoP1GVT0q3ZpdwwTIBO_z0DWVTzbtj1Nxj09LSgNotfn6lCP93BSi1g7HBun6E_-M", "width": 908}], "place_id": "ChIJC0DMUDpNQA0RXKYZsIwpaN8", "plus_code": {"compound_code": "9H6R+53 San Martín de Valdeiglesias, Spain", "global_code": "8CGQ9H6R+53"}, "rating": 4.7, "reference": "ChIJC0DMUDpNQA0RXKYZsIwpaN8", "scope": "GOOGLE", "types": ["point_of_interest", "establishment"], "user_ratings_total": 59, "vicinity": "POL.IND. LA COLMENA, Calle Cesteros, 9, San Martín de Valdeiglesias"}, {"geometry": {"location": {"lat": 40.3635617, "lng": -4.4035034}, "viewport": {"northeast": {"lat": 40.37304369882106, "lng": -4.389212662682157}, "southwest": {"lat": 40.3562666594986, "lng": -4.41300950832653}}}, "icon": "https://maps.gstatic.com/mapfiles/place_api/icons/v1/png_71/geocode-71.png", "icon_background_color": "#7B9EB0", "icon_mask_base_uri": "https://maps.gstatic.com/mapfiles/place_api/icons/v2/generic_pinlet", "name": "San Martín de Valdeiglesias", "photos": [{"height": 4000, "html_attributions": ["<a href=\"https://maps.google.com/maps/contrib/112960422255849689386\">Agustin Fernandez Lucas</a>"], "photo_reference": "AWn5SU5NR_iydM38YD_WBOrHqLlCBiPIrU8Uy1LxIdqwtdvkdiZJ3Yt1qi17GruiENTbcTR0gj4zJafgKsVABWCOks4x5jn5Hkjt4kKApVzMdWxDkVEumQbUNVzLtzkTbGD2uwGZedQDhpp_6hBuZy9GhRSAQO_vJ8yqnIq_ouwpM1-FFv33qLcDuIWcVYzUOVMN5KpJ0WUcvmtbIwpYRY7W2c_eliw66TBsD6QJedjPvRe9H4akTpshdeJit8J0CDm1c16pd9R9NADVYT7oDaA_JsR22_JWpfKjHOm_NrHpPMpmDgEW9Bhmp3wjt98mPwgS3c3CykNUEJacTgOA79CQ3mgzh6vh-HGxygsH6DM4K82kH4wowQZFNZT8Kv7dnycKqFoYRp3rvqhLL6JN_POlvjfCExm9P0LwAvYxlMMhuEaNrVupMuBTHtoH-4RcpuWuf5R1LZkvpaQcwRtYOz1i0J_gKA8cl0a65jZ0QS9tkM7uCxvA83pbrCXEYPTwfTws3o2GKkeFrRlX6HQFL1QYwP8wFG4CX67DUIUWFfnoYA_SiJPiUTRuPMJXoKaFZ94aP2LgpWN8ubps4w1zHtLwxWlNp8dKwkjDdR5lCGl1JOKCm15kOetlycXXHKf3fOnJ1pAtFG-Z", "width": 3000}], "place_id": "ChIJTT_CSjRNQA0RIdGMdAiq-A0", "reference": "ChIJTT_CSjRNQA0RIdGMdAiq-A0", "scope": "GOOGLE", "types": ["locality", "political"], "vicinity": "San Martín de Valdeiglesias"}]