[{"geometry": {"location": {"lat": 40.3664953, "lng": -3.2435923}, "viewport": {"northeast": {"lat": 40.37235712431802, "lng": -3.240331492680607}, "southwest": {"lat": 40.36290537489167, "lng": -3.250591382419244}}}, "icon": "https://maps.gstatic.com/mapfiles/place_api/icons/v1/png_71/geocode-71.png", "icon_background_color": "#7B9EB0", "icon_mask_base_uri": "https://maps.gstatic.com/mapfiles/place_api/icons/v2/generic_pinlet", "name": "Nuevo Baztán", "photos": [{"height": 1512, "html_attributions": ["<a href=\"https://maps.google.com/maps/contrib/101059091225798024861\">Pilar Cabezon Cercas</a>"], "photo_reference": "AWn5SU7v5lOMuYfVHOYlivIzGndCuK3XqcQ2b_OCQRZS7I4JCoHY8ZiIzRXkCHAl1dIRxWgMWV_wVfV8phqL19c7-FsYX2bEFCOcufuX_y4LDQqiYWk1JxJcxgqsPLKSX-QFWs9avmjHW5_XQEfnYyGjbLbcVS-lsaV0-ioAQLdjs-DlVOLZta2mFeyT9WC3HTAryVS_20YROxNWHajxppJmqmBNvuhHtVketciK536SUg92hYlc1UeM6irprd4T2DIO9sf0dV7SFWBhFcEfxbKofdaZNC1zz-RMzkbMFm43GGHFQJu11Hg-euQ16LF3JZj3UkM-DaWdMNeDCE2wdXt7PScILO0AojqhGLRhi-wEzawVsV6N5XSOp6LJMHxX4eZ6yiiyJlhdAUDH9lhuPYGmAeIJL5IJfKBYlsDx6tV8h4diIBviKlZ_CSBQOjS5_adSFU_pU0-7XleDf-VLaz0XYb0ZitHrmq-wz4v181M5zw1vdtCakWxXTSqvRiMb49sxdsaJZXYtFC3ntMreazl5RX7qGbXlXgcAFFbHQr3Wu7fscRMq1PcTQ1nPz6MJmbMnXdwVZnhLSzZJZIwPWFoU_9SaVdrt8jlJeCc8_zinq15jsJq8ct0CA8ZfHx9OuUAT", "width": 2016}], "place_id": "ChIJu4AewzhbQg0RxjYqoPQwKpI", "reference": "ChIJu4AewzhbQg0RxjYqoPQwKpI", "scope": "GOOGLE", "types": ["locality", "political"], "vicinity": "Nuevo Baztán"}, {"business_status": "OPERATIONAL", "geometry": {"location": {"lat": 40.35385969999999, "lng": -3.272616799999999}, "viewport": {"northeast": {"lat": 40.35520298029149, "lng": -3.271271419708498}, "southwest": {"lat": 40.3525050197085, "lng": -3.273969380291502}}}, "icon": "https://maps.gstatic.com/mapfiles/place_api/icons/v1/png_71/school-71.png", "icon_background_color": "#7B9EB0", "icon_mask_base_uri": "https://maps.gstatic.com/mapfiles/place_api/icons/v2/school_pinlet", "international_phone_number": "+34 918 73 52 82", "name": "Colegio Internacional Eurovillas", "opening_hours": {"open_now": false}, "photos": [{"height": 697, "html_attributions": ["<a href=\"https://maps.google.com/maps/contrib/113197476186002045841\">Colegio Internacional Eurovillas</a>"], "photo_reference": "AWn5SU4v7GGeK_yAD20Xhehw9nvHRSv8s1bqxFGuzDvzS5iZrchEip8weYxCpt_BxUyEbAPFcixYF08PsE_kkbng2SJFfPqgWfea0svAz9QFlk0LXpwD-dPuJ2fQVTgcdM04iJqsYme0LpZ-NtYVneA_lgesgFxIFTomF5aoJbdEfMS8FocQQR-IaK1P81NxpwblfLfQVUrtLt-UA7B5xxVODi-bvwDzO1oYwRYQQWRVjw0LvcneHNKd16qkcONTQ7CXYD121a9DfLyBfM54uv2j3xyHYinW04TSLATc44302oXw703Q9EHTlaFHyyz7bZ_ZrUf6y3Nc", "width": 1600}], "place_id": "ChIJ2UR47qREQg0RIR8QFxsmjRk", "plus_code": {"compound_code": "9P3G+GX Nuevo Baztán, Spain", "global_code": "8CGR9P3G+GX"}, "reference": "ChIJ2UR47qREQg0RIR8QFxsmjRk", "scope": "GOOGLE", "types": ["school", "point_of_interest", "establishment"], "vicinity": "Posada de Castilla b, 107, Nuevo Baztán"}, {"business_status": "OPERATIONAL", "geometry": {"location": {"lat": 40.3715515, "lng": -3.246681199999999}, "viewport": {"northeast": {"lat": 40.3727635802915, "lng": -3.245250469708499}, "southwest": {"lat": 40.37006561970851, "lng": -3.247948430291502}}}, "icon": "https://maps.gstatic.com/mapfiles/place_api/icons/v1/png_71/generic_business-71.png", "icon_background_color": "#7B9EB0", "icon_mask_base_uri": "https://maps.gstatic.com/mapfiles/place_api/icons/v2/generic_pinlet", "international_phone_number": "+34 659 44 64 90", "name": "Sistalumin Techos Moviles", "opening_hours": {"open_now": false}, "photos": [{"height": 900, "html_attributions": ["<a href=\"https://maps.google.com/maps/contrib/117743628579262147612\">Sistalumin Techos Moviles</a>"], "photo_reference": "AWn5SU5mjlwwPs-k4KVqcYWGRIMY6mdCi-_-IIy_uFPc6IlY7hqKtyKqufL7DGAHiaZ0-rP2C5FYyyP7D8Yhc60rynAHXlPHVNCTba9Dem83xQXgpbK7GUjb08TP1p5EQ0zD3_Ngx-W30R71m-v7Aw6Lb3ZXlgnFWKF2jYOf5RK4j6ejgKKbIBPM3B7XaV-83G6fWHd4pyq4LCfnD-AuZ21idIaUQJqX1q21LvjsrezTSq-FpbKItnotqoyxFFuwyJr0SGFjzgS0TScw3HwYYR_g8T5uijq3UedJADfAaJG6vPp1_ubwBMFobMhSaop8d5wMnPRc8LYO1DA", "width": 1600}], "place_id": "ChIJGenPOjpbQg0RSW_BJkBf2aE", "plus_code": {"compound_code": "9QC3+J8 Nuevo Baztán, Spain", "global_code": "8CGR9QC3+J8"}, "rating": 3.8, "reference": "ChIJGenPOjpbQg0RSW_BJkBf2aE", "scope": "GOOGLE", "types": ["point_of_interest", "store", "establishment"], "user_ratings_total": 19, "vicinity": "Las Heras de, Poligono Industrial, 18, Nuevo Baztán"}, {"business_status": "OPERATIONAL", "geometry": {"location": {"lat": 40.3711687, "lng": -3.2463601}, "viewport": {"northeast": {"lat": 40.3725854802915, "lng": -3.245051619708498}, "southwest": {"lat": 40.3698875197085, "lng": -3.247749580291501}}}, "icon": "https://maps.gstatic.com/mapfiles/place_api/icons/v1/png_71/generic_business-71.png", "icon_background_color": "#7B9EB0", "icon_mask_base_uri": "https://maps.gstatic.com/mapfiles/place_api/icons/v2/generic_pinlet", "international_phone_number": "+34 918 73 51 07", "name": "CERRAJERIA CASA S.L.", "opening_hours": {"open_now": false}, "photos": [{"height": 2988, "html_attributions": ["<a href=\"https://maps.google.com/maps/contrib/117447142832144440002\">Sandra Saez</a>"], "photo_reference": "AWn5SU71yOk_sYKzUq8vtAhajUAOV-5EIjK8Zsfb0PYNBqrdXPw0z-1pe5-3flAcz1-RyElBIIaVRGl3oc0q2UvdamjgCT7G2KcGeaW5jBIo5FfhWQA1ku-z68worSoPyUkD5qUbBG9R9rqDCU6VL7XzIwmJKaNW98i6fitEdRBsIHZIkzfyXIOuxzDz3feXo85_qRFy1KHCuKJ9AReuAeeJy9QSSRWNWYDuq62bGNJQZ0T3OB9HORDKWfw-WQf9OFJ1xs6vJT4oPIsjtsha52lBxljmQ4pdL-bvd1R0_Ec1dfa8Jtz4l_6oJFNaBucyTQhIxSQM5Xa1LTbJx5vGkPC1f4tnxL2H5d2eGHYWf8OQEB7LPNPrUAx1xm2IHuY9fAzEfm1oUVt8LPmunq7TiK_w9yZDCyI4WBEsa0T_GyF7RfQIN6XAYTqd43steG820lFjbtWBg8e8bwXQFK1go8KoOlgh0yfDitvbmreWtooSP_iQ2nYSljMM7yuy1L6Kz_vsMioEFnt5n6Lf9wVpHL5I377ld6i2vOtiOsGcl2CeHBxEp8IThXKpyMdQyISHsDG-fNTwwitvzfe3nbKqWHl9jpgR5oyszaVvmnzLwsSGS-E_n4tW8LJCjsgyCJYUEZP-hfiSLA", "width": 5312}], "place_id": "ChIJlaVBeDpbQg0RVyjkvs_vD84", "plus_code": {"compound_code": "9QC3+FF Nuevo Baztán, Spain", "global_code": "8CGR9QC3+FF"}, "rating": 4.1, "reference": "ChIJlaVBeDpbQg0RVyjkvs_vD84", "scope": "GOOGLE", "types": ["locksmith", "point_of_interest", "establishment"], "user_ratings_total": 40, "vicinity": "Pol. Industrial de Nuevo Baztan, Nave 25, Nuevo Baztán"}, {"business_status": "OPERATIONAL", "geometry": {"location": {"lat": 40.3651232, "lng": -3.2420986}, "viewport": {"northeast": {"lat": 40.36651158029151, "lng": -3.240817819708498}, "southwest": {"lat": 40.36381361970851, "lng": -3.243515780291502}}}, "icon": "https://maps.gstatic.com/mapfiles/place_api/icons/v1/png_71/school-71.png", "icon_background_color": "#7B9EB0", "icon_mask_base_uri": "https://maps.gstatic.com/mapfiles/place_api/icons/v2/school_pinlet", "international_phone_number": "+34 660 00 99 10", "name": "POCHOLINES", "opening_hours": {"open_now": false}, "photos": [{"height": 2000, "html_attributions": ["<a href=\"https://maps.google.com/maps/contrib/114931075098500987454\">JUAN MARTIN</a>"], "photo_reference": "AWn5SU4aF-cART37ArEqPtImgucFsVtk6hl1kxS8KccRwtyDSQApRq5j51SwbdcnVqfClai9jXp-XSXG2jNYxIU6nZsNqY4XkdocgJxrT3qEbBErBtrU2owWjPgsM4A0Xo0Sw14dzCVuaRNIcZo6NoSIoWVHVy8MfU2iNPttIpuHayVl8qG60srHN5Gf2Iyl1N2lzrhjbX52zpqVk63cpBh_GMoNEKL3dLRIb34ypal4HbXejzRGiqzSYSvcxvZFwB_suaw5XXGRuOpVW8f-yqANjRQwhOXNj4VR7Xz-2MfmA3oE4BFdfPLtxOV8aCghWUXpc6SP5ZhhHumU3R4FxiKsgiaRNWzZTV36Zze1acyRxxtDTUbCIGy-WEjUgK5PohAgT-e4r2ht7UHLQCeTBFhAZcLtaXVrqe51rVzV-Mib-q7rJ-s-CVZ26DBodhUU-DPJcVp9-8GNHPUtPcj7rfUd64eugEpRhUTPNJgYAAMHBo6tHbJNuYvAbSYwtjSwQgNXsAFx_zFKnp6n3ZhlqvRKk6bLOF0I3Ufdi492QNnLxN7rFLFhyI0Yjfpq2XSsnwztLQVAtZDVqIQhHHuHcKqfPa5D5ayL4FgaNAhthKi8dPvETlCgex9k02n4SEGM8EAyN5JDxA", "width": 4000}], "place_id": "ChIJZ8YSo0BbQg0R9o0br_n_FM0", "plus_code": {"compound_code": "9Q85+25 Nuevo Baztán, Spain", "global_code": "8CGR9Q85+25"}, "rating": 4.5, "reference": "ChIJZ8YSo0BbQg0R9o0br_n_FM0", "scope": "GOOGLE", "types": ["school", "point_of_interest", "establishment"], "user_ratings_total": 16, "vicinity": "Calle de los Jardines, 20, Nuevo Baztán"}, {"business_status": "OPERATIONAL", "geometry": {"location": {"lat": 40.3647481, "lng": -3.2446586}, "viewport": {"northeast": {"lat": 40.36608328029149, "lng": -3.243304719708498}, "southwest": {"lat": 40.36338531970849, "lng": -3.246002680291502}}}, "icon": "https://maps.gstatic.com/mapfiles/place_api/icons/v1/png_71/civic_building-71.png", "icon_background_color": "#7B9EB0", "icon_mask_base_uri": "https://maps.gstatic.com/mapfiles/place_api/icons/v2/civic-bldg_pinlet", "international_phone_number": "+34 918 73 53 75", "name": "Consultorio Nuevo Baztán", "photos": [{"height": 3480, "html_attributions": ["<a href=\"https://maps.google.com/maps/contrib/105940986984607558377\">Lancho</a>"], "photo_reference": "AWn5SU6hsAMSb0-eCXuMLJJl7Q54zu1SrAMHnGLcTMkeyYzE5hQQAhONylGwkbh16kiQYAlq5jLIFPkgHVdaMqIR6jui4rxV0PaTiQ3dNOPESUXJF0idm8Cu2J9QCpGTevBdr_uLmiam7WhqZWjyZ3utHELk4_gXSaJtLmqcZEf25M9gMICI1wutDIlAg880gWaeojmwgqxk1IEnTRumE7hhHDOHAJst4oCvN8wBhd8owzqplq6ITzc0lNMR0wYlpv9CSybVMUjssOcTemIUe-5VUAjQaKRE0C-JMfPv98jXq8XBuvzcb9fjcGJVQitxag9drrRYM3lglVb9OBJYQP-r7hyOAXJCKMp26B9i8aRzqg4Bci_NGaqTjPri9yEDu0SQcL0CtCEdU_md7JexNtkYuCIiAve05BU83VpVXN0PgqExFPdwet1HHi-B4UuR0ZkgVrnFYFZkncQI0r6OsoNZLN_4TdiZqn5DFujN0COvKAZ2ajizdz0cT5N2LO3Uxsx1nVvAIa41OgQmsSGIy2c-vHtspqb3quCqh6JG4VqnfwlSOKaS7cZTzybQUhIy-9DoDUMUripZYk1OvxasdBxuUQJUkR4CyVvlr08yk67nqpxHQ9257TRN4fGT0TcddNXHFlNqzUKv", "width": 4640}], "place_id": "ChIJl6EaQ0dbQg0RBc6ThP5Sx4M", "plus_code": {"compound_code": "9Q74+V4 Nuevo Baztán, Spain", "global_code": "8CGR9Q74+V4"}, "rating": 1.9, "reference": "ChIJl6EaQ0dbQg0RBc6ThP5Sx4M", "scope": "GOOGLE", "types": ["health", "point_of_interest", "establishment"], "user_ratings_total": 63, "vicinity": "Calle Fábrica, s/n, Nuevo Baztán"}, {"business_status": "OPERATIONAL", "geometry": {"location": {"lat": 40.35551359999999, "lng": -3.2634524}, "viewport": {"northeast": {"lat": 40.35690578029149, "lng": -3.262055969708498}, "southwest": {"lat": 40.3542078197085, "lng": -3.264753930291502}}}, "icon": "https://maps.gstatic.com/mapfiles/place_api/icons/v1/png_71/civic_building-71.png", "icon_background_color": "#7B9EB0", "icon_mask_base_uri": "https://maps.gstatic.com/mapfiles/place_api/icons/v2/civic-bldg_pinlet", "international_phone_number": "+34 918 72 55 44", "name": "Post Office", "opening_hours": {"open_now": false}, "photos": [{"height": 900, "html_attributions": ["<a href=\"https://maps.google.com/maps/contrib/103459158211528957841\">Oficina de Correos</a>"], "photo_reference": "AWn5SU5wn7_X1fXFrlXfV4ZNx4YOhdQzJurzbqu7msqtFA33N9ssN5rCXzSjd5KiH4EQGzK6LTLNBsP67zenbQyWl0VlYCuwU2173rocAbnrooo4oIHD0vXrArG5aQu9jfBJqlbxc_yJUqoVwp38BReb5CdwJ_rTjKUmnOOt91O9-nsDnP9htD7EBL0XZL0vzeSmsufsGf8PKy4Jw9xR6-PRdJNxlC9s02dt1tXudUCPqsBvIPha44kBhV0uLhGofc_zbrby-Bby4UFVyVQyVQejCjo4Ab92x2bBEfrxn9APqnkUsaHHb0M-sjMKCvl7psJOxg7nTKguyD8", "width": 1600}], "place_id": "ChIJZ7k4AydFQg0RqYi1F2U0SCE", "plus_code": {"compound_code": "9P4P+6J Nuevo Baztán, Spain", "global_code": "8CGR9P4P+6J"}, "rating": 2.4, "reference": "ChIJZ7k4AydFQg0RqYi1F2U0SCE", "scope": "GOOGLE", "types": ["post_office", "finance", "point_of_interest", "establishment"], "user_ratings_total": 81, "vicinity": "Avenida Jerez, 127, Nuevo Baztán"}, {"business_status": "OPERATIONAL", "geometry": {"location": {"lat": 40.3649838, "lng": -3.242811699999999}, "viewport": {"northeast": {"lat": 40.3663341802915, "lng": -3.241671119708498}, "southwest": {"lat": 40.3636362197085, "lng": -3.244369080291501}}}, "icon": "https://maps.gstatic.com/mapfiles/place_api/icons/v1/png_71/generic_business-71.png", "icon_background_color": "#7B9EB0", "icon_mask_base_uri": "https://maps.gstatic.com/mapfiles/place_api/icons/v2/generic_pinlet", "international_phone_number": "+34 918 72 61 49", "name": "Lau Lagun Cb Veterinary Clinic", "opening_hours": {"open_now": false}, "photos": [{"height": 1500, "html_attributions": ["<a href=\"https://maps.google.com/maps/contrib/107005877447298895057\">Clínica Veterinaria Las mascotas de Tania</a>"], "photo_reference": "AWn5SU5gudbd5jyZgHqRR1Ql4vaZPn86oAyDMTJyHOGNTvMgRJjJiASoncqsMeF9V03K5LXgHc5vTrzGG10ZCBg9Djt7PxNLxaoBu2RedIk7YtdwThJpNKgU4iJFYQOwebBTmkKZ6ssvU_R9hoY1t3aBki62nu0-zG5iVynSBtz9F3E0yFyF1tQgPd0qOCZQKNqYb2gwEC35-JgfbN2RzHlkOppXXd2uVckFpyrqXBPNomDqOPyPZEd0a7HgeI9wikv6DXzqndj_oMX9pFnbKWvnt_jgZ0cwcsq_gQh8C7EPAWX3KyLYY4FJspTuzDp8ekhStR12cml-dmw", "width": 2000}], "place_id": "ChIJEakYrUBbQg0RmTbDP07cfXc", "plus_code": {"compound_code": "9Q74+XV Nuevo Baztán, Spain", "global_code": "8CGR9Q74+XV"}, "rating": 4.5, "reference": "ChIJEakYrUBbQg0RmTbDP07cfXc", "scope": "GOOGLE", "types": ["veterinary_care", "point_of_interest", "establishment"], "user_ratings_total": 252, "vicinity": "Calle de los Jardines, 12, Nuevo Baztán"}, {"business_status": "OPERATIONAL", "geometry": {"location": {"lat": 40.3691154, "lng": -3.2210223}, "viewport": {"northeast": {"lat": 40.3704778802915, "lng": -3.219654569708498}, "southwest": {"lat": 40.3677799197085, "lng": -3.222352530291502}}}, "icon": "https://maps.gstatic.com/mapfiles/place_api/icons/v1/png_71/generic_business-71.png", "icon_background_color": "#7B9EB0", "icon_mask_base_uri": "https://maps.gstatic.com/mapfiles/place_api/icons/v2/generic_pinlet", "international_phone_number": "+34 918 73 42 98", "name": "Rústicas y Rehabilitación Nubacons S.L.", "opening_hours": {"open_now": false}, "photos": [{"height": 768, "html_attributions": ["<a href=\"https://maps.google.com/maps/contrib/110710787260346762887\">Rústicas y Rehabilitación Nubacons S.L.</a>"], "photo_reference": "AWn5SU6CM1xhq5pbYeUGndXhZCq3L6gB6tcC0bm4KVWOSXYB98DgqedwzVyQsICBf1mlPQemlzuYhEt3PMIKwsupCX9MVOayN0P1E8p0APhydF8D2HNLbJutzwk4H_MmaKbpsaDyzfEfThPsqJKCmsRsp83W2L9FNy8FbJR_7lcaxSI5o8brh5hzQs-94CG67ek2WUyfkoVzJ3vW-55cWcYtHOYIVzFN0L3j7okkERvglYaAA3Y4vtNXWYSTLwojJO8Kql1vFZtv7kRUNRMdRSGQNSAA2zElmqnfbNbBBE72dLUfuVlxbgspFaopRtDkFNzlF8BpTwU4OsI", "width": 1024}], "place_id": "ChIJT6qgvQtbQg0RR_k7OpoOU08", "plus_code": {"compound_code": "9Q9H+JH Olmeda de las Fuentes, Spain", "global_code": "8CGR9Q9H+JH"}, "rating": 4.1, "reference": "ChIJT6qgvQtbQg0RR_k7OpoOU08", "scope": "GOOGLE", "types": ["general_contractor", "point_of_interest", "establishment"], "user_ratings_total": 13, "vicinity": "Calle de los Cuatro Caminos, 6, Olmeda de las Fuentes"}, {"business_status": "OPERATIONAL", "geometry": {"location": {"lat": 40.355079, "lng": -3.2635332}, "viewport": {"northeast": {"lat": 40.3563951302915, "lng": -3.262169869708498}, "southwest": {"lat": 40.3536971697085, "lng": -3.264867830291502}}}, "icon": "https://maps.gstatic.com/mapfiles/place_api/icons/v1/png_71/generic_business-71.png", "icon_background_color": "#7B9EB0", "icon_mask_base_uri": "https://maps.gstatic.com/mapfiles/place_api/icons/v2/generic_pinlet", "international_phone_number": "+34 918 73 41 20", "name": "Eurovillas Entidad Urbanistica de Conservacion", "opening_hours": {"open_now": false}, "photos": [{"height": 3000, "html_attributions": ["<a href=\"https://maps.google.com/maps/contrib/103075379508246232749\">Gemma Cabildo</a>"], "photo_reference": "AWn5SU7GHZ60FDN6bDEdBMlxHlO3D0bEVTxsbNGUwieMxPGvLB-NQA628_k0DtHi_ahzLTsjYjC-vCyMoY6bMIfoKk2eDY6Yd6Phk3P2a0_O_iL-dPBCXoVulgWcZi7uFm005YTLN7LiXyVoe6jwg6RP5_U7uauegt_cqUCBysuD1FMtXOU5ISrfAjYzr0cmSAyfwNdbBO16507FRAEiFg7oHYYYGBVGZPdT4PCoAEZybEkmH6QbLA75fKXEC7umfE7XZat3YJL9Njydu7tVyzzODtLcKzFaDOkTJGR30zdvipP6Xz_x-3LB1XNXiUl7z6rPEWbyWyL8_K5fvclL6fiy_uEqKJ7NrVhqiy6uUwQnrcgTR8frHcGTp4XAqAJLS_JFv6FHGZ9pXQP0qytemMr52Z4fSathlYhgg0gd1c0gfmW6A3D3ck-Xmc3n6459A1qDmyGr2NR5y8IdBrWOx5dcqJZnSBySG2WJvj5-RsUSWcaH50rOZ_y9YIxXrek6En71BreC1lKC8RswlCdzeLojNC4RhljGDFoIUZeQpkxUjlmW_IYEJZyxXCfDBRL9CIJIoBzstv2uSj6FslnBCh3eRv21tB_dsiEnmMKu7-R7pSCUJJb111HAGbCqLZtg5CBcXSjBRA", "width": 4000}], "place_id": "ChIJeaSpnqpcQg0RcBf7iCY2Xio", "plus_code": {"compound_code": "9P4P+2H Nuevo Baztán, Spain", "global_code": "8CGR9P4P+2H"}, "rating": 3.4, "reference": "ChIJeaSpnqpcQg0RcBf7iCY2Xio", "scope": "GOOGLE", "types": ["point_of_interest", "establishment"], "user_ratings_total": 176, "vicinity": "Calle 10, s/n, Nuevo Baztán"}, {"business_status": "OPERATIONAL", "geometry": {"location": {"lat": 40.3643411, "lng": -3.2422851}, "viewport": {"northeast": {"lat": 40.3656970802915, "lng": -3.240885619708498}, "southwest": {"lat": 40.3629991197085, "lng": -3.243583580291502}}}, "icon": "https://maps.gstatic.com/mapfiles/place_api/icons/v1/png_71/worship_general-71.png", "icon_background_color": "#7B9EB0", "icon_mask_base_uri": "https://maps.gstatic.com/mapfiles/place_api/icons/v2/worship_christian_pinlet", "international_phone_number": "+34 917 37 77 37", "name": "Iglesia Adventista del Séptimo Día - Nuevo Baztán - Edén", "opening_hours": {"open_now": false}, "photos": [{"height": 3024, "html_attributions": ["<a href=\"https://maps.google.com/maps/contrib/117598819060969487969\">Mica</a>"], "photo_reference": "AWn5SU6WOFi45GER_lmU7yyRCraN4Y26BVSVuq3_w1jB1-MTNOklDdROwR5GTG7yvV2lPRXkXgTt7nyfgf1k2sa2-Ouz6mloPxRZy6Xnq2QzMAMjdPGpB9-cIQnLTCaZA3GdMrHindBFXG4PjfzRQQmx7S5Y4uvWAduFY-MPY84gNFuRnFsLwYUFWN2Hhr9DGZBiyaDWwXA1GgHRo-1QqSHQmv8emdzTtbn7mLyx5GAvJM_PLh5xiocgCXPVjzNWtxbLJtLVPbHY8aQ0JhaEEuqLBWCCN7SronWUS10M96ioqdYjgZ2OtuoUAyZnKDkEIMeYo0c7JEOz6E-o2DuTmm1e2lEPmzYYag9DBS0vcAy6k8zSoBbGzr-S7uTI_-pg4H4irZ8fvXsQstVUI7qr6bk7eX32CwdpinzsA8PhBrMpdtL1U7BJLciIwu5ylp8AqVNt_4DF-5sFRTVVpUCgLtbrUT0nJTIhwYlCPzJJO81TA8-wmgBxQy-SMLDoySe08vmL8wpso9mjnMz3NBLtAmqT0V7xOvtID8VFoqKo5hQGk2fFDnXzy0mvzleC8Dibl0R_ZLEC7uxOBbYqmEs817vNazjgh7cwZiRJibonvkFIzolCSlsI7udmpyuu9gr4TNvBzcD9FuMG", "width": 4032}], "place_id": "ChIJVdRdWjs3Qg0RH3q1ip7PFKs", "plus_code": {"compound_code": "9Q75+P3 Nuevo Baztán, Spain", "global_code": "8CGR9Q75+P3"}, "rating": 4.6, "reference": "ChIJVdRdWjs3Qg0RH3q1ip7PFKs", "scope": "GOOGLE", "types": ["church", "place_of_worship", "point_of_interest", "establishment"], "user_ratings_total": 14, "vicinity": "Calle Prolongación Transformador, 6, Nuevo Baztán"}, {"business_status": "OPERATIONAL", "geometry": {"location": {"lat": 40.360113, "lng": -3.2662703}, "viewport": {"northeast": {"lat": 40.3614498802915, "lng": -3.264928919708499}, "southwest": {"lat": 40.3587519197085, "lng": -3.267626880291502}}}, "icon": "https://maps.gstatic.com/mapfiles/place_api/icons/v1/png_71/generic_business-71.png", "icon_background_color": "#7B9EB0", "icon_mask_base_uri": "https://maps.gstatic.com/mapfiles/place_api/icons/v2/generic_pinlet", "international_phone_number": "+34 902 90 13 27", "name": "Dominicana Tours", "place_id": "ChIJcUUiLLdEQg0RRtLeob2uLqY", "plus_code": {"compound_code": "9P6M+2F Nuevo Baztán, Spain", "global_code": "8CGR9P6M+2F"}, "rating": 3, "reference": "ChIJcUUiLLdEQg0RRtLeob2uLqY", "scope": "GOOGLE", "types": ["travel_agency", "point_of_interest", "establishment"], "user_ratings_total": 2, "vicinity": "Avenida Frankfurt, 92, Nuevo Baztán"}, {"business_status": "OPERATIONAL", "geometry": {"location": {"lat": 40.36191910000001, "lng": -3.261394}, "viewport": {"northeast": {"lat": 40.36331243029151, "lng": -3.260045819708498}, "southwest": {"lat": 40.36061446970851, "lng": -3.262743780291501}}}, "icon": "https://maps.gstatic.com/mapfiles/place_api/icons/v1/png_71/generic_business-71.png", "icon_background_color": "#7B9EB0", "icon_mask_base_uri": "https://maps.gstatic.com/mapfiles/place_api/icons/v2/generic_pinlet", "international_phone_number": "+34 626 57 90 11", "name": "Cometido, S.L", "place_id": "ChIJtxDWT7REQg0RLqkcwsD5bY0", "plus_code": {"compound_code": "9P6Q+QC Nuevo Baztán, Spain", "global_code": "8CGR9P6Q+QC"}, "reference": "ChIJtxDWT7REQg0RLqkcwsD5bY0", "scope": "GOOGLE", "types": ["finance", "point_of_interest", "establishment"], "vicinity": "Avenida Bruselas, 31, Nuevo Baztán"}, {"business_status": "OPERATIONAL", "geometry": {"location": {"lat": 40.3471534, "lng": -3.2733109}, "viewport": {"northeast": {"lat": 40.34853693029149, "lng": -3.271911969708498}, "southwest": {"lat": 40.3458389697085, "lng": -3.274609930291501}}}, "icon": "https://maps.gstatic.com/mapfiles/place_api/icons/v1/png_71/generic_business-71.png", "icon_background_color": "#7B9EB0", "icon_mask_base_uri": "https://maps.gstatic.com/mapfiles/place_api/icons/v2/generic_pinlet", "international_phone_number": "+34 910 82 41 49", "name": "Consultoria Creativa Elite", "opening_hours": {"open_now": false}, "photos": [{"height": 2336, "html_attributions": ["<a href=\"https://maps.google.com/maps/contrib/108632344310090703596\">Carlos Giron</a>"], "photo_reference": "AWn5SU4ecxTePh34y9HekE85JcTvk6jgh0nWeIxLik02GZalAif9p7Z0XQN-afQDwNeIbSg1lppmeUSfpumXiA_JDKj1V4JWS2VqzroP5qT38Br4MvXIg5YxxIiJP3Djg_Xu-ZEKheplTtjDzwIikTPOeYg_jj8GmqNvstobWYmxhceKtJ9AMZorap_1zJaBhWDjj_DtPFHw9sX0aFs8I4zTR92I_R7IlMUU7C3hmRvrKCU0LK91R5TjwYONeQcPtY_zzJMs12G7RkNX3lyUuKL8Wdh4c9orPDl7qRj9EOB4iMmUuj___GM7XqAKSbbFJZaVv0L5JVMr-nebf11ABcojTSxbY4aFncX-N4SHtKf7u9eaU3ateSg9VXtnGS6yMAdQsTj-s3D6ksITLDjpJBpFN1E3QZH0WcBuByRw6R0gHWz-BhOqaPrliBjeSoVyJyXdcyvYiidaMlCLZy3Dv5oYOxn85jtdPdxuZLE_3Y4lp8Wyeg_I8_CXLZA3j0KhKsVOyMo3SqUuQT9RdXmRxY5lvnJ8KI8_VfzkcLSQXlM4ro9bEjZLUQcZrtu7_3tyVQ1oyFGefNNs0zu1U_LOa2PFDoHOz1rP5RHusMsHGbnJsbIoxTVe8L9qUYrOVFQQdtz8", "width": 4160}], "place_id": "ChIJXQRH0aZEQg0RFSemChCQBhk", "plus_code": {"compound_code": "8PWG+VM Nuevo Baztán, Spain", "global_code": "8CGR8PWG+VM"}, "rating": 5, "reference": "ChIJXQRH0aZEQg0RFSemChCQBhk", "scope": "GOOGLE", "types": ["point_of_interest", "establishment"], "user_ratings_total": 1, "vicinity": "Urbanización Eurovillas, Avenida Turín, 3, Nuevo Baztán"}, {"business_status": "OPERATIONAL", "geometry": {"location": {"lat": 40.35461799999999, "lng": -3.264754}, "viewport": {"northeast": {"lat": 40.3563119302915, "lng": -3.263635869708498}, "southwest": {"lat": 40.3536139697085, "lng": -3.266333830291502}}}, "icon": "https://maps.gstatic.com/mapfiles/place_api/icons/v1/png_71/bank-71.png", "icon_background_color": "#909CE1", "icon_mask_base_uri": "https://maps.gstatic.com/mapfiles/place_api/icons/v2/bank-intl_pinlet", "international_phone_number": "+34 600 40 40 90", "name": "CaixaBank", "opening_hours": {"open_now": false}, "photos": [{"height": 1192, "html_attributions": ["<a href=\"https://maps.google.com/maps/contrib/103119966446596126862\">CaixaBank</a>"], "photo_reference": "AWn5SU6NJQBxrlWPRceIbiD3JLc46KJ76Gg2yDGFauFHd1SnjD-QbcNJCcstJTV8mtRoYfKqRbLlXBQApxcSvMCghAEKJH5UVFJ4cXLotu3Q2BAE2EGxnnRzf1pqZJhhJjkYxUy21Pom4h9OeUMqt3rqCmsmwJBSo9Cy_Ydl2QnKMYw4mfvtmW10FLWRoHuRabec_L13_x_-KMYuwMfLfhkgxVHTWSfIVL4TpWbW20XbS6b7ZD3-pTofq6iVHXUyf20SmNPv-vc2GnRtZY_9lFDC4SmDludsz9Z4z7fWmh7sUV5ka9uyuJ8NsTTjscb72voJrFtbzTrGKtM", "width": 2120}], "place_id": "ChIJMY7ZerNEQg0RWx_amxiY5Pc", "plus_code": {"compound_code": "9P3P+R3 Nuevo Baztán, Spain", "global_code": "8CGR9P3P+R3"}, "rating": 2.4, "reference": "ChIJMY7ZerNEQg0RWx_amxiY5Pc", "scope": "GOOGLE", "types": ["bank", "finance", "point_of_interest", "establishment"], "user_ratings_total": 42, "vicinity": "Urb. Eurovillas-com. Europea, S/n, Nuevo Baztán"}, {"business_status": "OPERATIONAL", "geometry": {"location": {"lat": 40.36672759999999, "lng": -3.243827999999999}, "viewport": {"northeast": {"lat": 40.36817168029149, "lng": -3.242510369708498}, "southwest": {"lat": 40.36547371970849, "lng": -3.245208330291501}}}, "icon": "https://maps.gstatic.com/mapfiles/place_api/icons/v1/png_71/generic_business-71.png", "icon_background_color": "#7B9EB0", "icon_mask_base_uri": "https://maps.gstatic.com/mapfiles/place_api/icons/v2/generic_pinlet", "international_phone_number": "+34 659 63 20 02", "name": "Almac Local Mobile Helpers", "place_id": "ChIJma-gUrNEQg0R4u6V-V7MNwQ", "plus_code": {"compound_code": "9Q84+MF Nuevo Baztán, Spain", "global_code": "8CGR9Q84+MF"}, "reference": "ChIJma-gUrNEQg0R4u6V-V7MNwQ", "scope": "GOOGLE", "types": ["point_of_interest", "establishment"], "vicinity": "Avenida Estrasburgo II, 13, Nuevo Baztán"}, {"business_status": "OPERATIONAL", "geometry": {"location": {"lat": 40.3655123, "lng": -3.2431603}, "viewport": {"northeast": {"lat": 40.36691348029149, "lng": -3.241780569708498}, "southwest": {"lat": 40.36421551970849, "lng": -3.244478530291502}}}, "icon": "https://maps.gstatic.com/mapfiles/place_api/icons/v1/png_71/civic_building-71.png", "icon_background_color": "#7B9EB0", "icon_mask_base_uri": "https://maps.gstatic.com/mapfiles/place_api/icons/v2/civic-bldg_pinlet", "name": "Oficina de Información Al Consumidor Nuevo Baztán", "place_id": "ChIJMw6bVT9bQg0RM2PrIQY6yLQ", "plus_code": {"compound_code": "9Q84+6P Nuevo Baztán, Spain", "global_code": "8CGR9Q84+6P"}, "rating": 5, "reference": "ChIJMw6bVT9bQg0RM2PrIQY6yLQ", "scope": "GOOGLE", "types": ["local_government_office", "point_of_interest", "establishment"], "user_ratings_total": 1, "vicinity": "Plaza de la Iglesia, 0, Nuevo Baztán"}, {"business_status": "OPERATIONAL", "geometry": {"location": {"lat": 40.3366025, "lng": -3.2335851}, "viewport": {"northeast": {"lat": 40.33793198029149, "lng": -3.232277119708499}, "southwest": {"lat": 40.3352340197085, "lng": -3.234975080291502}}}, "icon": "https://maps.gstatic.com/mapfiles/place_api/icons/v1/png_71/generic_business-71.png", "icon_background_color": "#7B9EB0", "icon_mask_base_uri": "https://maps.gstatic.com/mapfiles/place_api/icons/v2/generic_pinlet", "international_phone_number": "+34 686 48 19 56", "name": "Particular", "opening_hours": {"open_now": false}, "photos": [{"height": 1672, "html_attributions": ["<a href=\"https://maps.google.com/maps/contrib/111639120499769109667\">Foz Fontanería y Calefacción - Especialistas en el sector de la fontanería en Madrid</a>"], "photo_reference": "AWn5SU5wek6OD81bXHi_cOAB1UvUa6B5qTSU5fX_3ySQg58AGTXHcwyCjmZLUrYknlbbkg72iQsPnh9UXARXSPcJvN85FbMiBUT3J-bJrUJZ7dxWRNN0DTryTwYEY8XdAQJwMaI61LVZnjE1-BcRgqFTqK-CKuNbHDFu_LB9Hk7YMb3EE_iOMXwJygijUJoDQOAofHf944k6UamQhSJ6fQzjz5RgiauyeJeQhSsjvet7G6StQgN2BOGfKO4_UWjgaN6nhkTLzzOsNPZM6PUPvTbnIKH5T0iqetKNbprK4DQ1_AkZg616sQqw8S5Hz60f8ktxyCLFE_-J", "width": 2508}], "place_id": "ChIJu6-d9JlcQg0R5p_dYNamUls", "plus_code": {"compound_code": "8QP8+JH Villar del Olmo, Spain", "global_code": "8CGR8QP8+JH"}, "rating": 3.5, "reference": "ChIJu6-d9JlcQg0R5p_dYNamUls", "scope": "GOOGLE", "types": ["plumber", "point_of_interest", "establishment"], "user_ratings_total": 11, "vicinity": "Calle de la Fuente, 9, Villar del Olmo"}, {"business_status": "OPERATIONAL", "geometry": {"location": {"lat": 40.355471, "lng": -3.2657269}, "viewport": {"northeast": {"lat": 40.35674488029151, "lng": -3.264439819708498}, "southwest": {"lat": 40.35404691970851, "lng": -3.267137780291502}}}, "icon": "https://maps.gstatic.com/mapfiles/place_api/icons/v1/png_71/generic_business-71.png", "icon_background_color": "#7B9EB0", "icon_mask_base_uri": "https://maps.gstatic.com/mapfiles/place_api/icons/v2/generic_pinlet", "international_phone_number": "+34 619 33 54 13", "name": "SALONS Peluqueria unisex", "opening_hours": {"open_now": false}, "photos": [{"height": 810, "html_attributions": ["<a href=\"https://maps.google.com/maps/contrib/117974848828908271295\">SALONS Peluqueria unisex</a>"], "photo_reference": "AWn5SU6HpnfLwMgQFYaNgHbLOfBtVk4RMfg-LdK_OhGnXHiDicOxY6mT0paxKAicPx54rNRXIVeEnHgSg9O2JQmBEOEo5U7QiDEATcAYPpHTuW2u4ERV_hSm_dA0gGV4-v4xeV3ayqzJU4EVR7A9uqCPaYMDjbmMkjdeuoeHJhCRI_SOcaJaVR1YFGO2IdPfBUcJVOyKcdfkASsNhSJczaeK3on2yLFQeADQ1n3-4fF8DLD-aO_ZYw6q_GglJlglwihSUGo3_twxZdfNfxEazhH1332zYK9_r63xrNQbb7p-SuAONAwZLEKcV6R7tRjcyGQhQ2mAjNH1YJc", "width": 1440}], "place_id": "ChIJv9xuP5hcQg0R4Wh-RZH1Gjc", "plus_code": {"compound_code": "9P4M+5P Nuevo Baztán, Spain", "global_code": "8CGR9P4M+5P"}, "rating": 4.7, "reference": "ChIJv9xuP5hcQg0R4Wh-RZH1Gjc", "scope": "GOOGLE", "types": ["hair_care", "point_of_interest", "establishment"], "user_ratings_total": 42, "vicinity": "Calle de la Comunidad Europea, N° 40, Local 1, Nuevo Baztán"}, {"geometry": {"location": {"lat": 40.2937839, "lng": -3.3023856}, "viewport": {"northeast": {"lat": 40.30078574677538, "lng": -3.295430109221897}, "southwest": {"lat": 40.2878345703946, "lng": -3.308924896403841}}}, "icon": "https://maps.gstatic.com/mapfiles/place_api/icons/v1/png_71/geocode-71.png", "icon_background_color": "#7B9EB0", "icon_mask_base_uri": "https://maps.gstatic.com/mapfiles/place_api/icons/v2/generic_pinlet", "name": "Valdilecha", "photos": [{"height": 2448, "html_attributions": ["<a href=\"https://maps.google.com/maps/contrib/101290657350401769031\">Alberto Blázquez Bonilla</a>"], "photo_reference": "AWn5SU5_N0pjyFIiL9OpxpgT-tR2-0CSds4uF2XXmovZGwopWbOroOGKJFm-p2p1ixYRmouIilrZB6GRZVYyPt2vWx9HOuJOOm5yDAIFV9Yf-dlFLkhfDDK8bx7Z43ZfrIqYESpMEVRMp7IdfsdG3vAp4JCYzQPeZdg6B63mIcmcNGT_k_KoeikPmhIluCeI7wOKQUm-60oo9OmECeQnnxGrSCwsdaegPhRUnqoVHd3u_D5eUUfSo2tbhXqksTbFQYGr___W7ygGvFNJtFqp22H3ztbjztU66Dz_ohCfgxBdD5pP48Int1hH1X1-G7yIDeYIUEoPguYeZub3dgMZZ1pm3ThFVpMonluZqEXVhIHHwMvajMk0Hl865Yk9zCseR4uu4MhOGlrZrbC9REJlPRBzC48veLaJCTRh0buEg5eGF5OJGvfWtz7KY6euUR6B9HOPqZoAmdykjPKn4KIsV6DCHhO_JOCevtNLre3NYmX8DrO1BcT2I_U-6Pc7DimzilLTb9EBMvB9nBJQrK5CR9Q9gOI0aH-cV3-Im_vNlGk45GdL5dIBMHrzTbkJAHDzCIasnxFRJix7WfUZOqrD3iK7atvcCZcu8dLN4QrxT8xOlQnuT35GuFbxJRnGxYuO_DL_q61hQA", "width": 3264}], "place_id": "ChIJ7x-qG1dCQg0RKRdiDnXOaKQ", "reference": "ChIJ7x-qG1dCQg0RKRdiDnXOaKQ", "scope": "GOOGLE", "types": ["locality", "political"], "vicinity": "Valdilecha"}]