[{"geometry": {"location": {"lat": 40.068126, "lng": -3.2395077}, "viewport": {"northeast": {"lat": 40.07451272891981, "lng": -3.230813064794486}, "southwest": {"lat": 40.06526198532026, "lng": -3.245847047188695}}}, "icon": "https://maps.gstatic.com/mapfiles/place_api/icons/v1/png_71/geocode-71.png", "icon_background_color": "#7B9EB0", "icon_mask_base_uri": "https://maps.gstatic.com/mapfiles/place_api/icons/v2/generic_pinlet", "name": "Villamanrique de Tajo", "photos": [{"height": 369, "html_attributions": ["<a href=\"https://maps.google.com/maps/contrib/108283965507548059262\">Torpedo Marin</a>"], "photo_reference": "AWn5SU5lzK2Js_S1OGlK8SwYPZY8U2iwANrEMAzAIZqndnVPoN1k2H2q1GqZRdwo0wcQME_deAVxdV0P6lo3hre1A9Cxa9Kg4Ttuyij-MP94Cv5afdKAm_Kc_5s4kWIPmtU5bo4rtDcYxVrEM9IRPuMtl5nnlSHeLSHm1TG_mvH6G6OA6wwujgOSrSozItunpjLrvUuSOOyRKqzcmN7btiKFbkAZsFQoXLnaQrq7NyTqwqBdtkcqjC_PArQtbM_PXthKsb9IkpTL36TLHg00EYLNs7IyIlaRUUS_nVWhFqfijmbV4Y-bNPaB0injBEW-ZLQfeBmzBClFTlYM12y392C6oU__5278gt4sZLOfwWtbe6QN2pxvleve-X2NlJHW159cGCTASTWAUFdrYCpkZQiIluLHETcwqUE6X-ZOXynrivO7rUkQE4ZGQh__Smv1uLLJUAn_WqxydrFYn-hBS_Nl2dzLzOQjJx2oVT_ytRcszwCB7ObceqPdaRhO5oJRPIMNBvYU4kdvw54mqInD4G2-Y-lq8ip4tRG9ndVurOSy1YL4OFNT6KgZ7qoivbHQB1Ue48VfmmhX555uhqiCksYiufanNFHKra_Ayc4mDJeUCEeYjuonvlTztUFWQUaL94tu", "width": 552}], "place_id": "ChIJG1ktYI16Qg0RqFQCLzD7M8k", "reference": "ChIJG1ktYI16Qg0RqFQCLzD7M8k", "scope": "GOOGLE", "types": ["locality", "political"], "vicinity": "Villamanrique de Tajo"}, {"business_status": "OPERATIONAL", "geometry": {"location": {"lat": 40.0710163, "lng": -3.2434402}, "viewport": {"northeast": {"lat": 40.0724167802915, "lng": -3.242027219708498}, "southwest": {"lat": 40.0697188197085, "lng": -3.244725180291502}}}, "icon": "https://maps.gstatic.com/mapfiles/place_api/icons/v1/png_71/school-71.png", "icon_background_color": "#7B9EB0", "icon_mask_base_uri": "https://maps.gstatic.com/mapfiles/place_api/icons/v2/school_pinlet", "international_phone_number": "+34 918 72 73 35", "name": "C.R.A. los Olivos", "place_id": "ChIJTVMndY16Qg0Rg6vrcbwnj3k", "plus_code": {"compound_code": "3QC4+CJ Villamanrique de Tajo, Spain", "global_code": "8CGR3QC4+CJ"}, "rating": 4, "reference": "ChIJTVMndY16Qg0Rg6vrcbwnj3k", "scope": "GOOGLE", "types": ["point_of_interest", "establishment"], "user_ratings_total": 4, "vicinity": "Calle Madrid, 54, Villamanrique de Tajo"}, {"business_status": "OPERATIONAL", "geometry": {"location": {"lat": 40.0688543, "lng": -3.2384429}, "viewport": {"northeast": {"lat": 40.0702109802915, "lng": -3.237074319708498}, "southwest": {"lat": 40.0675130197085, "lng": -3.239772280291502}}}, "icon": "https://maps.gstatic.com/mapfiles/place_api/icons/v1/png_71/generic_business-71.png", "icon_background_color": "#7B9EB0", "icon_mask_base_uri": "https://maps.gstatic.com/mapfiles/place_api/icons/v2/generic_pinlet", "international_phone_number": "+34 665 80 95 36", "name": "Casa rural el callejón", "opening_hours": {"open_now": false}, "photos": [{"height": 3000, "html_attributions": ["<a href=\"https://maps.google.com/maps/contrib/117936566951939194497\">Álvaro Torres Martínez</a>"], "photo_reference": "AWn5SU7uWhkos2NsXQfQ_yfrAn6neaMeIVuaCdW9WyuVA6bJ9miFy1T-K8nl_SmqXgkCBLU0Bym4V2Krhqd0PIuOBWlK6UOHh4TW5c5Zfb4ZiFAOgousTtxQr535qfBiEL2LKocXIe6VehYCJg_RE_2ftqjJIRcOA3RMtt8LWrP-ys_87TFwLNnA-DRrlurmgTcPR8kPdyn7X_oIWuBWM7UOLW90zzoLap3DCe6JmkVdx6gpngRZwFXf2dp6ujPhSCMrwSoDso8GAgXQ363TrdsCuRCvAwsK87hc6Cf_zSeBHPH4Bu_gH7X8t5Bq7GPD6qnSOvfq3Z7GH0YFDIwEwjhG9O8VVDFBCA0H0zh532JvYuJFd02etsy__UI-GuwvnVOvb250HDqTDobdbTToBl8E9kqAT5u1GvqNyE40RWFFZn337QfhRk5t1aH_PQjHTdhEICm4_lDLPStMT8fAGs6xFxC7_MpiF6O-OCCX7tZUfCaX0n_xJlJs_tGsqIFoNtzvXcMbGOKO-ewWPabRHYqoIPaKodbdOGsX_yqWsp2GQDY3z00d2VAYnMajjThbOUbI1aNZ4-5CwMjvQCmdXa3lg5xlm6I1TqZcoC1A_2pPhZXvosouB54bXcV4TaQSeC2_Abuezg", "width": 4000}], "place_id": "ChIJv9s7s_J6Qg0RbkyhsDI75bk", "plus_code": {"compound_code": "3Q96+GJ Villamanrique de Tajo, Spain", "global_code": "8CGR3Q96+GJ"}, "rating": 4.6, "reference": "ChIJv9s7s_J6Qg0RbkyhsDI75bk", "scope": "GOOGLE", "types": ["lodging", "point_of_interest", "establishment"], "user_ratings_total": 49, "vicinity": "Calle Príncipes de España, 7, Villamanrique de Tajo"}, {"business_status": "OPERATIONAL", "geometry": {"location": {"lat": 40.0693758, "lng": -3.2387361}, "viewport": {"northeast": {"lat": 40.0707403802915, "lng": -3.237428019708497}, "southwest": {"lat": 40.06804241970851, "lng": -3.240125980291501}}}, "icon": "https://maps.gstatic.com/mapfiles/place_api/icons/v1/png_71/school-71.png", "icon_background_color": "#7B9EB0", "icon_mask_base_uri": "https://maps.gstatic.com/mapfiles/place_api/icons/v2/school_pinlet", "international_phone_number": "+34 918 72 70 99", "name": "Escuela de Educación Infantil Villamanrique de Tajo", "place_id": "ChIJSX2JV416Qg0RE8_r98VUCc4", "plus_code": {"compound_code": "3Q96+QG Villamanrique de Tajo, Spain", "global_code": "8CGR3Q96+QG"}, "reference": "ChIJSX2JV416Qg0RE8_r98VUCc4", "scope": "GOOGLE", "types": ["school", "point_of_interest", "establishment"], "vicinity": "Calle de la República Dominicana, 6, Villamanrique de Tajo"}, {"business_status": "OPERATIONAL", "geometry": {"location": {"lat": 40.0694097, "lng": -3.2396366}, "viewport": {"northeast": {"lat": 40.0707224302915, "lng": -3.238308319708498}, "southwest": {"lat": 40.0680244697085, "lng": -3.241006280291502}}}, "icon": "https://maps.gstatic.com/mapfiles/place_api/icons/v1/png_71/civic_building-71.png", "icon_background_color": "#7B9EB0", "icon_mask_base_uri": "https://maps.gstatic.com/mapfiles/place_api/icons/v2/civic-bldg_pinlet", "international_phone_number": "+34 918 74 21 82", "name": "Oficina Rural de Correos", "opening_hours": {"open_now": false}, "photos": [{"height": 1211, "html_attributions": ["<a href=\"https://maps.google.com/maps/contrib/118430277790749486521\">Javier García Oliva</a>"], "photo_reference": "AWn5SU73XNEomqzfqHbb8-epOuziM9zOm7Yds30AhN70IcUrj8W2t8IKxF5WgQjLqIr5YmYiQy0hcpByitoIHbwTtT4nXI-isfOBdyFzenPzGrZrB6l8dsFRbtteWEEa0ZzyWB7qvZYjNKKe2PXrhpjw3tljFP_VJG1hHW-WvwLPjgt1H_qmDOU_pleJNyopMkuaEmGzEvuVkeGvVdZCQKVgg9scfQ000J5acYlT4fDXEoh58A4T5oXIt7Blsn6U-Qvvu7_UEBIcjV_rSF-vZB391mqC9mlzbAA64MEbwiCNp1YdxBu6HiWwrjkFJ8KVc5WtgItxHLgc6ntzEsswLhz-gRszu1GZPXibJ_6UlZiHdsjU9I_AwD44E2XZryrYtOTV6UQSain4BTPuM4dZlis4D_IQ9N76z9XfyVMFw2ywB2AAdiDC9m97swKPYdakqukAzEX56z5VHYCV8Fa5XgxKrUj9E1Jso_5k6AyeOHaDvJ2NgOkzIUu4nojsWp9jqSR_QcgBPiCJkKtcnaIBKNaDmaNwS4v-uluAvXK4kFtiYhipoShTdESSBr8qlN8KaSM9CqQoK9eXnZWTTQYuyy0ExO0lEmEjLqNCjDKy3HItrVuuMpfiveLlqHon3KeKYzFzy0jBkgAf", "width": 1033}], "place_id": "ChIJo7rRYY16Qg0R1UFXTFFliNo", "plus_code": {"compound_code": "3Q96+Q4 Villamanrique de Tajo, Spain", "global_code": "8CGR3Q96+Q4"}, "rating": 5, "reference": "ChIJo7rRYY16Qg0R1UFXTFFliNo", "scope": "GOOGLE", "types": ["post_office", "finance", "point_of_interest", "establishment"], "user_ratings_total": 6, "vicinity": "Plaza del Mercado, S, Villamanrique de Tajo"}, {"business_status": "OPERATIONAL", "geometry": {"location": {"lat": 40.0679897, "lng": -3.2386305}, "viewport": {"northeast": {"lat": 40.06934023029149, "lng": -3.237283519708499}, "southwest": {"lat": 40.0666422697085, "lng": -3.239981480291502}}}, "icon": "https://maps.gstatic.com/mapfiles/place_api/icons/v1/png_71/generic_business-71.png", "icon_background_color": "#7B9EB0", "icon_mask_base_uri": "https://maps.gstatic.com/mapfiles/place_api/icons/v2/generic_pinlet", "international_phone_number": "+34 619 20 02 80", "name": "METALFER METALICAS S.L", "opening_hours": {"open_now": false}, "photos": [{"height": 4000, "html_attributions": ["<a href=\"https://maps.google.com/maps/contrib/118202898455881985491\">METALFER METALICAS S.L</a>"], "photo_reference": "AWn5SU6kmDMhezHPbhw4JobEWAW7O4VDNhMMb6q3P4SkXhgGbzuXJyTz3jlZvj-NIE7TT2FrCYCU9mWBjnBfwatiCHDm1wqb2nGTztclhnuAzvuBnb_YiCNyozhxDK7N8hLiBgX0vejZAd4777hKpwpqGJc3dFYQjQ3Ne0Rm8Fvhxk1XHlPgEbf_TMxXtYWBM7ZtQIV_q1lrUJXhkxBXJKMKMbGoZajtrSWk-0IYnk62d1ig0BhL9M2domUz03BUdk0bELHMKus6N0r6XUpmh82vdixE0H0cqnpk9r-2NWIg70h1zk7YT_y7BijAF8tLaEAWsE9Zw9p-4ZA", "width": 3000}], "place_id": "ChIJjXaKNo16Qg0RhoV6uSiSCbk", "plus_code": {"compound_code": "3Q96+5G Villamanrique de Tajo, Spain", "global_code": "8CGR3Q96+5G"}, "rating": 4.9, "reference": "ChIJjXaKNo16Qg0RhoV6uSiSCbk", "scope": "GOOGLE", "types": ["point_of_interest", "establishment"], "user_ratings_total": 12, "vicinity": "Calle del Conde, 26, Villamanrique de Tajo"}, {"business_status": "OPERATIONAL", "geometry": {"location": {"lat": 40.0718001, "lng": -3.2428436}, "viewport": {"northeast": {"lat": 40.0731493802915, "lng": -3.241538219708498}, "southwest": {"lat": 40.0704514197085, "lng": -3.244236180291502}}}, "icon": "https://maps.gstatic.com/mapfiles/place_api/icons/v1/png_71/lodging-71.png", "icon_background_color": "#909CE1", "icon_mask_base_uri": "https://maps.gstatic.com/mapfiles/place_api/icons/v2/hotel_pinlet", "international_phone_number": "+34 659 27 09 92", "name": "Villamanrique de Tajo", "photos": [{"height": 3024, "html_attributions": ["<a href=\"https://maps.google.com/maps/contrib/103223863565589663140\">Estefanía Romero</a>"], "photo_reference": "AWn5SU7jP0ytTmxoUdjfXO4Mu-2Z3HbAII_JlGySNFJ5Eky4QEU9XGtrsvsMM6TG6tr-gMGwn1FvUOo0p2Uhv9paOk5-lPVksH45jDs9r9FNcKOu71CDXYDRXulMDIumpZFZDbSe_-RoIz5xOIod_JeohDxsJDAq1_mGmNiRb2gX4Xso6Td8nvXM1eEl4jWZ5Z2cYdTVieC4rcPMcySqGsn5WEUd4ZzSP4fxluf_LjPOwgj-Uh0cfGnlly0I0ogZ-aVnmhPo-IRg2QMDp6OGMh_r4znNdktSpB3oRTzeZxStooM9lVnFrriDw03BTiKuhsZccozBJ1Ip54n06_YocHcmDRnXrpX_RtAizGSW2NjT2zJ5LaGtNfuhVkQJE57QCJyDzxwdcHw9XBNQ0xv07Lld97yuDrB3DmqMrzqLEZvchKjwMoyVmGeZtTv4hT4GeDZQcbNKWXw7PwPLJcjJRGBOMm83Phx2PLpW9HDYQ4juYSigM7Kdkx41dzUGK66eAtLSlqsBJiIn_0OzoP9zFLt-4Yja8AmiGtRQfOrwi6S5vOK54QzKUbzvgp04dpVs0O72ozmNg-UQtaC1Eb1SK2880vkkvJNkDssSYSD-cNd8omo9spKXpVX4E9FdDwXN6hGp66NH8g", "width": 4032}], "place_id": "ChIJI1G8LJJ6Qg0RKOPTi9QhG8Y", "plus_code": {"compound_code": "3QC4+PV Villamanrique de Tajo, Spain", "global_code": "8CGR3QC4+PV"}, "rating": 4.7, "reference": "ChIJI1G8LJJ6Qg0RKOPTi9QhG8Y", "scope": "GOOGLE", "types": ["lodging", "point_of_interest", "establishment"], "user_ratings_total": 32, "vicinity": "Calle de la Ermita, 17, Villamanrique de Tajo"}, {"business_status": "OPERATIONAL", "geometry": {"location": {"lat": 40.0700097, "lng": -3.2390798}, "viewport": {"northeast": {"lat": 40.07133073029151, "lng": -3.237683369708499}, "southwest": {"lat": 40.06863276970851, "lng": -3.240381330291503}}}, "icon": "https://maps.gstatic.com/mapfiles/place_api/icons/v1/png_71/generic_business-71.png", "icon_background_color": "#7B9EB0", "icon_mask_base_uri": "https://maps.gstatic.com/mapfiles/place_api/icons/v2/generic_pinlet", "international_phone_number": "+34 620 98 78 18", "name": "Casa Rural Madrid “El Cencerro”", "opening_hours": {"open_now": false}, "photos": [{"height": 600, "html_attributions": ["<a href=\"https://maps.google.com/maps/contrib/112544510171448737961\">Casa Rural Madrid “El Cencerro”</a>"], "photo_reference": "AWn5SU7dLrkbkarShoWOexux2Q6_4nPP1HDyHGDJzWY9dYpJHFbPzcg9AaiRvwS1dqx_xDHMijMDvPow6D_tt9Uqsad34ZAclLNQ9id99zbCVThBBmQ3f13gI4BZTKYkz8sTCxWt6TOJb9ckQ6jiMNqktGfgIwJT4mG_0rv1fMAHkfI6LpM1Mcc2E-SY4sE91dUEf4tpFUDb9S5QaTjrNtCHRiJB9oawk-abCeCqaxbAH4zrYylugGbMLhi5XWta39J0gks_Dp6dHl6upLG0SVN33DX4THookLYypbqYW-XnAszg285YmJoSa-5XkLI8Y5jCZbXFWf4LQpQ", "width": 800}], "place_id": "ChIJD3T1X416Qg0RfKbAmAnDHt0", "plus_code": {"compound_code": "3QC6+29 Villamanrique de Tajo, Spain", "global_code": "8CGR3QC6+29"}, "rating": 4.6, "reference": "ChIJD3T1X416Qg0RfKbAmAnDHt0", "scope": "GOOGLE", "types": ["lodging", "point_of_interest", "establishment"], "user_ratings_total": 96, "vicinity": "Calle de San Marcos, 17, Villamanrique de Tajo"}, {"business_status": "OPERATIONAL", "geometry": {"location": {"lat": 40.0682296, "lng": -3.2404263}, "viewport": {"northeast": {"lat": 40.0696761302915, "lng": -3.238996819708498}, "southwest": {"lat": 40.0669781697085, "lng": -3.241694780291502}}}, "icon": "https://maps.gstatic.com/mapfiles/place_api/icons/v1/png_71/pharmacy-71.png", "icon_background_color": "#F88181", "icon_mask_base_uri": "https://maps.gstatic.com/mapfiles/place_api/icons/v2/pharmacy_pinlet", "international_phone_number": "+34 918 72 81 82", "name": "Farmacia Villamanrique de Tajo", "opening_hours": {"open_now": false}, "photos": [{"height": 4000, "html_attributions": ["<a href=\"https://maps.google.com/maps/contrib/100859610073969801880\">Farmacia Villamanrique de Tajo</a>"], "photo_reference": "AWn5SU4VLR_kr9DLYDaKkP2zxECjfvvF1Ily9g7mmOB1rS1DZAGXkihSMAPORIgEJL0BrupFmerf0cGkgpK9QJdtJqRTa6kQoWo68tdAlYT3vmEhMjGf8D5a9AEcF5K9zfOMy55NVckw_LMAmxnc3VTN1X0YBbG3bWFzZIW5x7Hq_bqoz6pGBtE_GbaPnLEvRJcU9aUALTUAoD5EjAxFUlKqBC4I9YN5aw0zSJDR6vDxnQKSVNUiuQWwMBwyYZ1BeSetg5V0QyMCb020cGB_T6xEXldMeM_56fOCSyslUb5ddSIMQsDqL_5MZGQbT2LtICaKvZCwbHuOzZA", "width": 1800}], "place_id": "ChIJBSclbo16Qg0RQOxSTJp5uBo", "plus_code": {"compound_code": "3Q95+7R Villamanrique de Tajo, Spain", "global_code": "8CGR3Q95+7R"}, "rating": 3.7, "reference": "ChIJBSclbo16Qg0RQOxSTJp5uBo", "scope": "GOOGLE", "types": ["pharmacy", "health", "point_of_interest", "store", "establishment"], "user_ratings_total": 17, "vicinity": "Calle Faustina Sáez de Melgar, 2, Villamanrique de Tajo"}, {"business_status": "OPERATIONAL", "geometry": {"location": {"lat": 40.0682024, "lng": -3.2406078}, "viewport": {"northeast": {"lat": 40.0695848302915, "lng": -3.239196519708498}, "southwest": {"lat": 40.0668868697085, "lng": -3.241894480291502}}}, "icon": "https://maps.gstatic.com/mapfiles/place_api/icons/v1/png_71/civic_building-71.png", "icon_background_color": "#7B9EB0", "icon_mask_base_uri": "https://maps.gstatic.com/mapfiles/place_api/icons/v2/civic-bldg_pinlet", "name": "Agencia Informática y Comunicaciones de la Comunidad de Madrid", "place_id": "ChIJz-_edI16Qg0RT89PGPTAkKM", "plus_code": {"compound_code": "3Q95+7Q Villamanrique de Tajo, Spain", "global_code": "8CGR3Q95+7Q"}, "reference": "ChIJz-_edI16Qg0RT89PGPTAkKM", "scope": "GOOGLE", "types": ["local_government_office", "point_of_interest", "establishment"], "vicinity": "Calle Madrid, 0, Villamanrique de Tajo"}, {"business_status": "OPERATIONAL", "geometry": {"location": {"lat": 40.0683251, "lng": -3.2404763}, "viewport": {"northeast": {"lat": 40.06964428029149, "lng": -3.239099219708498}, "southwest": {"lat": 40.0669463197085, "lng": -3.241797180291502}}}, "icon": "https://maps.gstatic.com/mapfiles/place_api/icons/v1/png_71/shopping-71.png", "icon_background_color": "#4B96F3", "icon_mask_base_uri": "https://maps.gstatic.com/mapfiles/place_api/icons/v2/shoppingcart_pinlet", "name": "Charcutería Jarabo", "opening_hours": {"open_now": false}, "photos": [{"height": 1600, "html_attributions": ["<a href=\"https://maps.google.com/maps/contrib/100885360759194524341\">Juan Ramón Fernández Duque</a>"], "photo_reference": "AWn5SU7iupTeyUA-bp7PeWAJ2HTh3I9bz0N8b5nXqJX15ee_Gmvxovx14ce1DRG9boi5Ddm1O7oEz65AVrdKTABXQQllC4L30vkNXCROZV_EXj1cAbORO4fyf4XThT0fM-k6grKa3I-VqznlYU9C5c9UOgxXRKn0dM27GqSwLu2NI5spVjybmF-FudPMiviP_hybYHFsoACWufbN67vmdvnOmvCAyP0l-GZxXkJhhDx4VxbtxrTr52viUf8E0uikegt_X3c_1lDBnda-vVgzGATxRbV2psQyb9pr5TUGb9Gx9BkEeteJLXIYdYVkJhLxcIUwDHIlwtejvuAf3P6Mzg5XKO4YqrN6czl0O2lgthgy8rvum1Nx7LLJBoKr7ssHO3tWjFf-lx_OszlFSxo7chwoHPpUabI2rkAxgL2lsuqm5XghUcGbb7ZrNnYag-pYIncT6rsiAMM1GCASqS4BucGmfdh0MTf18R0T4xWZHeh5Y4TnqwNeMSw2JbkWNwv1PUgwVOLOB5gy8exn08ECjDIcz0QumcPV-sTGJ4-nE2f_ZkNdJsLibfse8A0ka4IvxMQ2xZzEXbOEZcC7HZvH4y_bxDjewuIzo15xsCkGjSoRBg5lKSzaw0hmiCNITzf84iv4HtpIBeg4", "width": 900}], "place_id": "ChIJTxEvqvF7Qg0RG11oj-QePX8", "plus_code": {"compound_code": "3Q95+8R Villamanrique de Tajo, Spain", "global_code": "8CGR3Q95+8R"}, "rating": 5, "reference": "ChIJTxEvqvF7Qg0RG11oj-QePX8", "scope": "GOOGLE", "types": ["supermarket", "grocery_or_supermarket", "point_of_interest", "store", "food", "establishment"], "user_ratings_total": 6, "vicinity": "Calle Faustina Sáez de Melgar, 8, Villamanrique de Tajo"}, {"business_status": "OPERATIONAL", "geometry": {"location": {"lat": 40.0676367, "lng": -3.240480199999999}, "viewport": {"northeast": {"lat": 40.0689689302915, "lng": -3.239172969708498}, "southwest": {"lat": 40.0662709697085, "lng": -3.241870930291502}}}, "icon": "https://maps.gstatic.com/mapfiles/place_api/icons/v1/png_71/generic_business-71.png", "icon_background_color": "#7B9EB0", "icon_mask_base_uri": "https://maps.gstatic.com/mapfiles/place_api/icons/v2/generic_pinlet", "international_phone_number": "+34 665 88 61 89", "name": "Casa vacacional La Mirandita", "photos": [{"height": 900, "html_attributions": ["<a href=\"https://maps.google.com/maps/contrib/101711685077720447549\">Casa vacacional La Mirandita</a>"], "photo_reference": "AWn5SU6lKnNnC2-K4984o_DhwX34fnzi13Jsu27wHuUeKukDWVbBD26gaRfHJB9wu5ll3dxPQ6v3b3cR0bIGAFHSbPLo6oSIENgE4RAfa8CCauAKWhumfGezXZMOLdUK0KZ1Hmm9wwXCfi9-x8z4Ut0MZSDZQH5VsDK_Yz7Se8fC8hWvp5PoEOtKiHHRMW8H6mvMVdraDathC3K6Cyad46T779Q0TVO-Ls-dxORl9PzucP7H9TlLvdRqauQO9CXMZvdip3vN-8hfyzjIY9p4yLVGMh7LO420VFb70-YYGXf5qe78xdkeZOH67L1nmbZKp5FkeZFnRGepyaI", "width": 1600}], "place_id": "ChIJTzryyrgD5ywR2JHBwu_DtH8", "plus_code": {"compound_code": "3Q95+3R Villamanrique de Tajo, Spain", "global_code": "8CGR3Q95+3R"}, "rating": 2.8, "reference": "ChIJTzryyrgD5ywR2JHBwu_DtH8", "scope": "GOOGLE", "types": ["point_of_interest", "establishment"], "user_ratings_total": 4, "vicinity": "Plaza del Cura, 6, Villamanrique de Tajo"}, {"business_status": "OPERATIONAL", "geometry": {"location": {"lat": 40.0676051, "lng": -3.2402034}, "viewport": {"northeast": {"lat": 40.0689323302915, "lng": -3.239020269708498}, "southwest": {"lat": 40.0662343697085, "lng": -3.241718230291502}}}, "icon": "https://maps.gstatic.com/mapfiles/place_api/icons/v1/png_71/bar-71.png", "icon_background_color": "#FF9E67", "icon_mask_base_uri": "https://maps.gstatic.com/mapfiles/place_api/icons/v2/bar_pinlet", "international_phone_number": "+34 918 72 70 08", "name": "Bar Salvi", "opening_hours": {"open_now": false}, "photos": [{"height": 1080, "html_attributions": ["<a href=\"https://maps.google.com/maps/contrib/101540472296561879959\">alfred rivas</a>"], "photo_reference": "AWn5SU6TaustLiANibM-JwloTfBZ24R5C9CA9YFd7V-CEFO2HldKkQXweXWjYLs5XMVqaV5xyO1DYeJRsBdKqQUUo1jxriPSRHtmrmNQoTjIXhCgK2Wtu2Q1bA9FmdV7A24nDYYjDzt6cbzyYkkA9vq2OX7YijqJRqqukmOpBsEKUhXQ_tYWK8peMrep-oWHzN1Y_G0wSZdhnGGaX3a27gJYauPm1Uaut9B0ZBw2iVAoUAUsc10ZjICSYTpU2VYl3dsCkiMclAjJLxH3n_iNLuzu00fD-Ipdhag-wtEndnwtotXYthkmoCmU5-QRQJ-P-JjnQJzpqlajTEZRfkrJe54COEhFDmExK9c4jg84aomwEc8xu4DrPzh88MzLGUuroyBrrGHkaUeebwrDnNGjqL2PERSskw_6Pi5rFueVpsDNX3oPYxqm5WU-twlH5jfnDN-fYdZ6FC75n1BqgaFKa3aURq66i8DQ06qjPcdXLRoxrigdPnBqKju1fo-jLL_WqI81id9pWuU_BTgy3U9fR_JsZ7nBkRWIx7o4nQbPAYw_sfqpxxx9OcZyJvX-lcd51euUXzEsIHGRHtt7jPtt-dFp9-1jZdBSoYxjYz7hYfN7Gf_cHimomejk0xJ_hz7B6AsP", "width": 1920}], "place_id": "ChIJBd-OCI16Qg0R-uPFmFFb9Mk", "plus_code": {"compound_code": "3Q95+2W Villamanrique de Tajo, Spain", "global_code": "8CGR3Q95+2W"}, "price_level": 1, "rating": 4.6, "reference": "ChIJBd-OCI16Qg0R-uPFmFFb9Mk", "scope": "GOOGLE", "types": ["bar", "point_of_interest", "establishment"], "user_ratings_total": 247, "vicinity": "Plaza del Cura, 5, Villamanrique de Tajo"}, {"business_status": "OPERATIONAL", "geometry": {"location": {"lat": 40.06866, "lng": -3.24025}, "viewport": {"northeast": {"lat": 40.0700097302915, "lng": -3.238899619708498}, "southwest": {"lat": 40.0673117697085, "lng": -3.241597580291502}}}, "icon": "https://maps.gstatic.com/mapfiles/place_api/icons/v1/png_71/bus-71.png", "icon_background_color": "#10BDFF", "icon_mask_base_uri": "https://maps.gstatic.com/mapfiles/place_api/icons/v2/bus_share_taxi_pinlet", "name": "Pza.Constitución-Ayuntamiento", "photos": [{"height": 4640, "html_attributions": ["<a href=\"https://maps.google.com/maps/contrib/115830738019532454104\">Javier Albert</a>"], "photo_reference": "AWn5SU6mGAw9eyeMfgvJ-pF4JENH-KcwwiVs30p0D6EheYb6f4DRXqaZcVqy-gBpf2JJIj8E0jB7R5SKnidFSSuh2yodWLS2V5kCzgG2VopZjs-yew1UdzUIXF9_Z0z8r8kbFRj7wFynzHxZl4BqkRB5OXfEG5ZT-eluzARR5sSv1zB2PP1o6aeYGhBIlClxbFnl8jPVZ5UK9TaZTeFCG2V2TIcc6QAKzpjE61pwUb3FHraiqhoytB5pDa-iHFYBjnx7dajIM-djLPe-4R0rrVOoaSG2G2U3CrXFgf4-332DhsVUOKB__36FtX2BNPTz8NFw5LnbNFkUUCATdmEU_8W6BKCzRebV87bSNt8dhnNyw7jnT-lG9S-5koRR4hAhu-5rCoGax2oe_eEGa0XkmD-4gG_VejBj0KrukDPwFZ1gRU_JHXT9SJWPMX-VH7kciGy9dr5pGwJ2bD4JxbRU1Wm2jAPdpHf-ge-gdfcIrH1-8FhPDFkl9mY1WXWabJtNv3wVpjuR0EmmDYyIPm5jzzo42woG1YbAalTeoqYX3n2WW0sbJZIlG4dH2_8ZFUKD2R4n5x1v4zifVYaUJgDoH94nLD58eDZ99Ya4ccEgfv2PGH2RG8KCmvgCEiKJN_h58PAIdYvK8Q", "width": 3480}], "place_id": "ChIJhxRfZY16Qg0RRHo5ZKplWeQ", "plus_code": {"compound_code": "3Q95+FV Villamanrique de Tajo, Spain", "global_code": "8CGR3Q95+FV"}, "reference": "ChIJhxRfZY16Qg0RRHo5ZKplWeQ", "scope": "GOOGLE", "types": ["bus_station", "transit_station", "point_of_interest", "establishment"], "vicinity": "Spain"}, {"business_status": "OPERATIONAL", "geometry": {"location": {"lat": 40.0677864, "lng": -3.239838199999999}, "viewport": {"northeast": {"lat": 40.0691823802915, "lng": -3.238549269708498}, "southwest": {"lat": 40.06648441970851, "lng": -3.241247230291502}}}, "icon": "https://maps.gstatic.com/mapfiles/place_api/icons/v1/png_71/shopping-71.png", "icon_background_color": "#4B96F3", "icon_mask_base_uri": "https://maps.gstatic.com/mapfiles/place_api/icons/v2/shopping_pinlet", "international_phone_number": "+34 918 72 79 43", "name": "José Luis Robleño Morató", "opening_hours": {"open_now": false}, "photos": [{"height": 4640, "html_attributions": ["<a href=\"https://maps.google.com/maps/contrib/115830738019532454104\">Javier Albert</a>"], "photo_reference": "AWn5SU7SKAvzNsRZ2Jr1TmS0-bIVPIZX3fg9DUIt-ups42dz2E8V0chhi3wtNLiK3GAXCpv_euPMGhTR_6cevtHciyJLio0CfJKtBwVVBIgU7feoktz72h0C75XgTF-sBjxhkDlSrv8BpaL1QbNSLs1ligff8lkdy1zW-vgMcj3Vna0wJeqrYoFwf1pbpba31HrvqLXvSZLMjsgOXkKZ8e-6VrGkFOBGjLkOOZhWWWyd_2aAuMVOgCK6sY-t0EqxCnsE4adKPgI-5_7iE4yV6CzUgaX0YZZcP3hQuAS6bDOQ3pt0xhKcfzyovTxftaPRANAoNm3WjrLFWFB0HLV-57rgS2U4eqnSxu-6q4bwdSSVBGlgIq8kvMsO6_ZIk3OHJII3RGdQuH_dF-hg_ZxbCInGzrvs34UZCo45UaKOfbTb8jeKzW1nQVyCwTXm5gBDhpys8qpeSVGYbnLNNFILSEt9SX5INCwocDdzmkzJ8N95osPjF36vPoqYLzSvUC-1EIBiJnUSFqUqPHNVE7RiOsjfNSnFd7jxxrYm_ZusWbC5gK8yzEW7boDF2izkFz80NdqR7Zd9wSSEetQ41fsubdHglMEWUNUL1DTBE-fm5KWOHWZjBJ_v22wvuzvah8xfdu42BtYFs51H", "width": 3480}], "place_id": "ChIJL5QaAo16Qg0RrdfOqQimL-0", "plus_code": {"compound_code": "3Q96+43 Villamanrique de Tajo, Spain", "global_code": "8CGR3Q96+43"}, "rating": 4.4, "reference": "ChIJL5QaAo16Qg0RrdfOqQimL-0", "scope": "GOOGLE", "types": ["point_of_interest", "store", "establishment"], "user_ratings_total": 18, "vicinity": "Calle Mayor, 9, Villamanrique de Tajo"}, {"business_status": "OPERATIONAL", "geometry": {"location": {"lat": 40.0685582, "lng": -3.239950899999999}, "viewport": {"northeast": {"lat": 40.0699212802915, "lng": -3.238630469708498}, "southwest": {"lat": 40.0672233197085, "lng": -3.241328430291501}}}, "icon": "https://maps.gstatic.com/mapfiles/place_api/icons/v1/png_71/bar-71.png", "icon_background_color": "#FF9E67", "icon_mask_base_uri": "https://maps.gstatic.com/mapfiles/place_api/icons/v2/bar_pinlet", "international_phone_number": "+34 696 96 37 97", "name": "Bar Restaurante “El Tapeo Pin-Pol”", "opening_hours": {"open_now": false}, "photos": [{"height": 899, "html_attributions": ["<a href=\"https://maps.google.com/maps/contrib/111614639997799257595\">Bar Restaurante “El Tapeo Pin-Pol”</a>"], "photo_reference": "AWn5SU5HYQxRZUQJZwf8uRM22_z5-z-8gHRCT10Rk2M90cXjOWadv9xj6rktFjbjbfvhUdTAsQOiHRUXX3ws7nPVRNBTwB6Nhn77oPHEBDHKWwQbbGOyRP5msSO4mjMKyC1uT9dTb4gWutnRzM_D3p57QZ0pOIHK9YAGp83honazUdf6jBu75wkz2UpqtiEupGnA8zuf-ePB-3nnXKG-jeNq_8G35g0xv3P1w3w1QukQDhtwfIiUr5hzm3485qikqlIV7ncydMoK6gH-sT2bwuWBN-oGbTjD1vpWgTxsxgCCdrcUiN7kxfZcDXndB3gyPQIb7AjpKHfYPcU", "width": 1599}], "place_id": "ChIJU5ZwcI16Qg0RcCOowchW8pU", "plus_code": {"compound_code": "3Q96+C2 Villamanrique de Tajo, Spain", "global_code": "8CGR3Q96+C2"}, "price_level": 1, "rating": 4.5, "reference": "ChIJU5ZwcI16Qg0RcCOowchW8pU", "scope": "GOOGLE", "types": ["bar", "restaurant", "point_of_interest", "food", "establishment"], "user_ratings_total": 309, "vicinity": "Plaza de la Constitución, 6, Villamanrique de Tajo"}, {"business_status": "OPERATIONAL", "geometry": {"location": {"lat": 40.06812599999999, "lng": -3.2395077}, "viewport": {"northeast": {"lat": 40.0696670802915, "lng": -3.238442219708498}, "southwest": {"lat": 40.0669691197085, "lng": -3.241140180291501}}}, "icon": "https://maps.gstatic.com/mapfiles/place_api/icons/v1/png_71/shopping-71.png", "icon_background_color": "#4B96F3", "icon_mask_base_uri": "https://maps.gstatic.com/mapfiles/place_api/icons/v2/shopping_pinlet", "international_phone_number": "+34 613 97 71 25", "name": "JUANITO TE LO VENDE", "opening_hours": {"open_now": false}, "place_id": "ChIJhXMigaF7Qg0RXyMLXXw-gos", "plus_code": {"compound_code": "3Q96+75 Villamanrique de Tajo, Spain", "global_code": "8CGR3Q96+75"}, "reference": "ChIJhXMigaF7Qg0RXyMLXXw-gos", "scope": "GOOGLE", "types": ["car_dealer", "point_of_interest", "store", "establishment"], "vicinity": "Villamanrique de Tajo"}, {"business_status": "OPERATIONAL", "geometry": {"location": {"lat": 40.06812599999999, "lng": -3.2395077}, "viewport": {"northeast": {"lat": 40.0696670802915, "lng": -3.238442219708498}, "southwest": {"lat": 40.0669691197085, "lng": -3.241140180291501}}}, "icon": "https://maps.gstatic.com/mapfiles/place_api/icons/v1/png_71/bar-71.png", "icon_background_color": "#FF9E67", "icon_mask_base_uri": "https://maps.gstatic.com/mapfiles/place_api/icons/v2/bar_pinlet", "name": "Bar", "place_id": "ChIJ8VX_QQB7Qg0RsSEP5zfVTms", "plus_code": {"compound_code": "3Q96+75 Villamanrique de Tajo, Spain", "global_code": "8CGR3Q96+75"}, "rating": 1, "reference": "ChIJ8VX_QQB7Qg0RsSEP5zfVTms", "scope": "GOOGLE", "types": ["bar", "point_of_interest", "establishment"], "user_ratings_total": 1, "vicinity": "Villamanrique de Tajo"}, {"business_status": "OPERATIONAL", "geometry": {"location": {"lat": 40.06853479999999, "lng": -3.239665699999999}, "viewport": {"northeast": {"lat": 40.0698630302915, "lng": -3.238307669708498}, "southwest": {"lat": 40.0671650697085, "lng": -3.241005630291502}}}, "icon": "https://maps.gstatic.com/mapfiles/place_api/icons/v1/png_71/lodging-71.png", "icon_background_color": "#909CE1", "icon_mask_base_uri": "https://maps.gstatic.com/mapfiles/place_api/icons/v2/hotel_pinlet", "international_phone_number": "+34 609 09 92 65", "name": "La Yaya Casa Rural", "photos": [{"height": 1600, "html_attributions": ["<a href=\"https://maps.google.com/maps/contrib/105776040077802769618\">Arantxa Silva Garcia</a>"], "photo_reference": "AWn5SU58zQrkgcSjD-zHa85QjrydSnx5DMJg1GTqIX0GdCGNxKJGRSx-y5XLBk7JdZsR8VU9SHzumJcABOeC6ot7duK0bvDZiGgkAi8551Lq3tJwLzXHqCxQt_Rtu8NHlMBl8Y5Ssx9abseBDHQVQBqD74SjCMOfcaNdu7e4-CH-O04Agr_Z9gGsYh3FzRq2d0BT8-ZbZn8vSJaua0EndScD5G_APnT3ehKpxBQgD5x_TI3W-jkQW5FHnvO6z-YAWVENqq3IAB_mbC5YBGU3HnlqtqHPUBz0fqa5dtfqjZKOficB_v_Ac2cpDghXDglBAdfBqG1g7r1D2V1PBBGU43b7mwG9WHYB3jl24MTebEa0PiBLukaCIA_TWLZIDg9sWJubFmonVQmf8-zMb1X9GUyunhNAoh777dL8PT4M5WZ5OCcgYzICpyL5utEFj-yeZaOA-aRVTzq-7UEfO1znACt8Bm52-7VVMRFX9LQzu67-xFlP6bsYXUJNr1---mHIMq2dpdeJY4KoyeJ_tdd5wJgZLMROL1YewjDNJVLLJI_lFswm1GS4zabfeHNhj0PsvfHWOuPEDHdiNXBwW9Sokw88B8bJ22tsNciIplfHYlU9Hp590O1AGPCuT11nq2SMKZyoA7CP6w", "width": 1200}], "place_id": "ChIJNaJsHrV7Qg0Ru7eGDN74rT0", "plus_code": {"compound_code": "3Q96+C4 Villamanrique de Tajo, Spain", "global_code": "8CGR3Q96+C4"}, "rating": 5, "reference": "ChIJNaJsHrV7Qg0Ru7eGDN74rT0", "scope": "GOOGLE", "types": ["lodging", "point_of_interest", "establishment"], "user_ratings_total": 25, "vicinity": "Calle de la Iglesia, 7, Villamanrique de Tajo"}, {"business_status": "OPERATIONAL", "geometry": {"location": {"lat": 40.0688732, "lng": -3.2403306}, "viewport": {"northeast": {"lat": 40.0701451302915, "lng": -3.238907169708498}, "southwest": {"lat": 40.0674471697085, "lng": -3.241605130291502}}}, "icon": "https://maps.gstatic.com/mapfiles/place_api/icons/v1/png_71/generic_business-71.png", "icon_background_color": "#7B9EB0", "icon_mask_base_uri": "https://maps.gstatic.com/mapfiles/place_api/icons/v2/generic_pinlet", "name": "La Amistad", "place_id": "ChIJx_5Feo16Qg0RPhNvNaqZC9k", "plus_code": {"compound_code": "3Q95+GV Villamanrique de Tajo, Spain", "global_code": "8CGR3Q95+GV"}, "reference": "ChIJx_5Feo16Qg0RPhNvNaqZC9k", "scope": "GOOGLE", "types": ["point_of_interest", "establishment"], "vicinity": "Plaza de la Constitución, 1, Villamanrique de Tajo"}]