[{"business_status": "OPERATIONAL", "geometry": {"location": {"lat": 40.5710194, "lng": -3.925187299999999}, "viewport": {"northeast": {"lat": 40.57236668029149, "lng": -3.923802369708497}, "southwest": {"lat": 40.5696687197085, "lng": -3.926500330291502}}}, "icon": "https://maps.gstatic.com/mapfiles/place_api/icons/v1/png_71/hospital-71.png", "icon_background_color": "#F88181", "icon_mask_base_uri": "https://maps.gstatic.com/mapfiles/place_api/icons/v2/hospital-H_pinlet", "international_phone_number": "+34 919 37 00 00", "name": "University Hospital HM", "opening_hours": {"open_now": true}, "photos": [{"height": 957, "html_attributions": ["<a href=\"https://maps.google.com/maps/contrib/112751325885279611154\">Hospital Universitario HM Torrelodones</a>"], "photo_reference": "AWn5SU6s_z9IXy8qbKZYNmVNb3LuFgVc1Q9iG-2vHjUFmzl9Ay7WpROvbh7XblHPVTU31nHwcO1-rlEAf-it93ehq1gvQcoSsTX0DZFF0ASpUuH7v_shjOhiJm6JGmkrbsIdgNHX2uawOzpUMkY-j0sqhwYbPr2pw1J-DZzBylPHmsBIHW_CD1A9ycf8WcQaAskLvrCejfIFhNqmRSp-YlETnrSwoPsPNW1GNyTt6FGK9L4vGJFcAXlSapSspnDZaLw6UhiAn22fV1MSD2alJY06y4W9k4QI9Nr4VghR5PZdh4-4YaRQb4cL02dawWcq2fIRvXwVgjC1heg", "width": 1701}], "place_id": "ChIJGccgiOB3QQ0RgihqPMemEnk", "plus_code": {"compound_code": "H3CF+7H Torrelodones, Spain", "global_code": "8CGRH3CF+7H"}, "rating": 2.6, "reference": "ChIJGccgiOB3QQ0RgihqPMemEnk", "scope": "GOOGLE", "types": ["hospital", "doctor", "health", "point_of_interest", "establishment"], "user_ratings_total": 1234, "vicinity": "Avenida Castillo Olivares, s/n, Torrelodones"}, {"business_status": "OPERATIONAL", "geometry": {"location": {"lat": 40.5859047, "lng": -3.9205965}, "viewport": {"northeast": {"lat": 40.5871590302915, "lng": -3.919217069708497}, "southwest": {"lat": 40.5844610697085, "lng": -3.921915030291502}}}, "icon": "https://maps.gstatic.com/mapfiles/place_api/icons/v1/png_71/hospital-71.png", "icon_background_color": "#F88181", "icon_mask_base_uri": "https://maps.gstatic.com/mapfiles/place_api/icons/v2/hospital-H_pinlet", "international_phone_number": "+34 606 97 62 05", "name": "Centro Quantum - Salud & Conciencia", "place_id": "ChIJBQAAADDGcrQRVtRYNNI6dw8", "plus_code": {"compound_code": "H3PH+9Q Madrid, Spain", "global_code": "8CGRH3PH+9Q"}, "reference": "ChIJBQAAADDGcrQRVtRYNNI6dw8", "scope": "GOOGLE", "types": ["hospital", "health", "point_of_interest", "establishment"], "vicinity": "Avenida de los Robles, 4, Madrid"}, {"business_status": "OPERATIONAL", "geometry": {"location": {"lat": 40.5809458, "lng": -3.931304500000001}, "viewport": {"northeast": {"lat": 40.5822995802915, "lng": -3.930057419708498}, "southwest": {"lat": 40.5796016197085, "lng": -3.932755380291503}}}, "icon": "https://maps.gstatic.com/mapfiles/place_api/icons/v1/png_71/generic_business-71.png", "icon_background_color": "#7B9EB0", "icon_mask_base_uri": "https://maps.gstatic.com/mapfiles/place_api/icons/v2/generic_pinlet", "international_phone_number": "+34 685 23 45 05", "name": "Logopeda Mónica Navarro", "opening_hours": {"open_now": false}, "photos": [{"height": 2092, "html_attributions": ["<a href=\"https://maps.google.com/maps/contrib/107213638192846951593\">Logopeda Mónica Navarro</a>"], "photo_reference": "AWn5SU5bIWJlYZpXc6jPLFuNGRCCBLL1S1R3pmvqK7mkcPK9-dqZ-ED9FnZBDwZsj2um179K32f3dU7LhueyMBrA01ij2hq5ENtpuXB0NdyOmNUp8lwFzxJZSdOK9bYdIIx6TUkqMysDgbkmAuQqJF2339UXUgppIw_ZpPbklJ1R7LaID3oRuJXIQ1QGWaqGu_RWyNhQZxmjuiW47-6YnWDfhM5yQniyM8Bxs7Q0ClHo3NTyry5WoQx9pbSC_PaGAISG2R7CDmOLOZv0l9_4KSC_dx5UjE7ll1PdYNBJcHcmoL-AdOGKgGfgDzJt_BFNY11z7KmMW514WOQ", "width": 2790}], "place_id": "ChIJ0TCcMul3QQ0RJjdXldnu3o0", "plus_code": {"compound_code": "H3J9+9F Torrelodones, Spain", "global_code": "8CGRH3J9+9F"}, "reference": "ChIJ0TCcMul3QQ0RJjdXldnu3o0", "scope": "GOOGLE", "types": ["hospital", "health", "point_of_interest", "establishment"], "vicinity": "Calle Señora Sergia, 48c, Torrelodones"}, {"business_status": "OPERATIONAL", "geometry": {"location": {"lat": 40.5775341, "lng": -3.927983100000001}, "viewport": {"northeast": {"lat": 40.57891158029149, "lng": -3.926673869708498}, "southwest": {"lat": 40.57621361970849, "lng": -3.929371830291503}}}, "icon": "https://maps.gstatic.com/mapfiles/place_api/icons/v1/png_71/hospital-71.png", "icon_background_color": "#F88181", "icon_mask_base_uri": "https://maps.gstatic.com/mapfiles/place_api/icons/v2/hospital-H_pinlet", "international_phone_number": "+34 918 59 28 23", "name": "Centro Médico Torrelodones", "opening_hours": {"open_now": false}, "photos": [{"height": 1632, "html_attributions": ["<a href=\"https://maps.google.com/maps/contrib/109538163032485121742\">Centro Médico Torrelodones</a>"], "photo_reference": "AWn5SU6MFgOtwqAt6Rwl04lOwwdc48hctKmwt3RDjl0zyJkx1CSoUMWfb0CzYSF3RQhPV7Vq8kMXw4zXdT9YLoXfoO-BzUtirW2QE37hUQO8rDM2Us31rgkA8TTQtHV1LgVhTuSe-tDYpgihr6FEhgTwng3Hsi008fcG5DOuVk_dRq-0UzS7n7mHAM38DK2ChCYw6Ne-5HyRFirmEIb-4WGjo7E3u4pyuUAe7AWCj9BwCiMqBibEj4XSrUuQc2PxOWa_UL7T_1ybkBhMpLlra7XI6LBTRn4akXvK9mwE9WhGa3oZYJCyu01HuDI2fW2T3UMVF_KH-w9T2SE", "width": 1224}], "place_id": "ChIJoaFsON13QQ0RoErbzojpi4Y", "plus_code": {"compound_code": "H3HC+2R Torrelodones, Spain", "global_code": "8CGRH3HC+2R"}, "rating": 4.1, "reference": "ChIJoaFsON13QQ0RoErbzojpi4Y", "scope": "GOOGLE", "types": ["hospital", "health", "point_of_interest", "establishment"], "user_ratings_total": 9, "vicinity": "Calle de Julio Herrero, 2, Torrelodones"}, {"business_status": "OPERATIONAL", "geometry": {"location": {"lat": 40.5754398, "lng": -3.9306572}, "viewport": {"northeast": {"lat": 40.5767609302915, "lng": -3.929289919708498}, "southwest": {"lat": 40.57406296970851, "lng": -3.931987880291502}}}, "icon": "https://maps.gstatic.com/mapfiles/place_api/icons/v1/png_71/generic_business-71.png", "icon_background_color": "#7B9EB0", "icon_mask_base_uri": "https://maps.gstatic.com/mapfiles/place_api/icons/v2/generic_pinlet", "international_phone_number": "+34 918 59 44 66", "name": "Clínica Cemeco. Centro de Reconocimientos de Conductores", "opening_hours": {"open_now": false}, "photos": [{"height": 402, "html_attributions": ["<a href=\"https://maps.google.com/maps/contrib/116078786878982978281\">Clínica Cemeco. Centro de Reconocimientos de Conductores</a>"], "photo_reference": "AWn5SU4aY5rAwEyQv_5iXfU8ASB1GAfJ-wD3U1WsAJVAS9gC0WKjtz_jf0fwY65_8H4TnCroiG48Y1Lf-CX6EUwHFqE2YS0X77cTrFhF-6WZQVuLvnqFZw7JUuoWsT7V65r_0GUw6iAZRD079wEisZSy2egCTIYq3m5cwVJGe1lCdErHSwz9KDn2OIzVHG_627silC4mJ6BvfoNpsnw1sSfopZK5NgR0i9ZFtqJu-joT75tupTneysbj3u75ndW_iJXe-6iSkrxdJETlZasSjFR3aRhOxPoPtNfl4O6IqvTKo5_7iUl8ZWxYlA7VxrK8pfXQVfZl8gJue6s", "width": 700}], "place_id": "ChIJ5w3litx3QQ0RrsTo8Ab7akI", "plus_code": {"compound_code": "H3G9+5P Torrelodones, Spain", "global_code": "8CGRH3G9+5P"}, "rating": 2.7, "reference": "ChIJ5w3litx3QQ0RrsTo8Ab7akI", "scope": "GOOGLE", "types": ["hospital", "doctor", "health", "point_of_interest", "establishment"], "user_ratings_total": 58, "vicinity": "al lado de la farmacia, Calle el Nogal, 1, local 17B, Torrelodones"}, {"business_status": "OPERATIONAL", "geometry": {"location": {"lat": 40.57074329999999, "lng": -3.9263871}, "viewport": {"northeast": {"lat": 40.57209118029149, "lng": -3.924730819708498}, "southwest": {"lat": 40.56939321970849, "lng": -3.927428780291502}}}, "icon": "https://maps.gstatic.com/mapfiles/place_api/icons/v1/png_71/generic_business-71.png", "icon_background_color": "#7B9EB0", "icon_mask_base_uri": "https://maps.gstatic.com/mapfiles/place_api/icons/v2/generic_pinlet", "international_phone_number": "+34 912 11 01 32", "name": "EGOM Ginecología - HM Torrelodones", "opening_hours": {"open_now": true}, "photos": [{"height": 312, "html_attributions": ["<a href=\"https://maps.google.com/maps/contrib/108686952421791025991\">EGOM Ginecología - HM Torrelodones</a>"], "photo_reference": "AWn5SU6bGsL_3NqleIssszvOqOOdR4_2fcwpW7qKNRLUfjTloOFSwtOEw4PvukzT1chztbnipmdS0Bs8rOd6GwZqSaoJNpxT8wYWdf4SuSWISoiHUJkHi9xOeLcngHQ-2RmNXQPvJVjW-tpW7U8s29xlmxtUhEyjCS-GwLw01e75TwZ_zhpfA96aA_zF9pkIQPy_NF8fs6YOp5YUYJNR-shhSn1z0j_kCk-l6SD76z0eY82rLas-DLxfYeu287xcWCPrqKd0UoIJAu_LqMxNTmBLi8z8HDjXugkWM1hXGCG8ZBmtG63rqEnj939dBozBuEGiLTkFzy_T", "width": 820}], "place_id": "ChIJSVrrfeB3QQ0RGIPus-M75tM", "plus_code": {"compound_code": "H3CF+7C Torrelodones, Spain", "global_code": "8CGRH3CF+7C"}, "rating": 4.8, "reference": "ChIJSVrrfeB3QQ0RGIPus-M75tM", "scope": "GOOGLE", "types": ["hospital", "doctor", "health", "point_of_interest", "establishment"], "user_ratings_total": 129, "vicinity": "Avenida Castillo Olivares, s/n, Torrelodones"}, {"business_status": "OPERATIONAL", "geometry": {"location": {"lat": 40.57552369999999, "lng": -3.9301142}, "viewport": {"northeast": {"lat": 40.57690468029149, "lng": -3.928667119708498}, "southwest": {"lat": 40.57420671970849, "lng": -3.931365080291503}}}, "icon": "https://maps.gstatic.com/mapfiles/place_api/icons/v1/png_71/hospital-71.png", "icon_background_color": "#F88181", "icon_mask_base_uri": "https://maps.gstatic.com/mapfiles/place_api/icons/v2/hospital-H_pinlet", "international_phone_number": "+34 682 93 70 11", "name": "Beauty Center Elena Mendez Torrelodones", "opening_hours": {"open_now": false}, "photos": [{"height": 1005, "html_attributions": ["<a href=\"https://maps.google.com/maps/contrib/112430565240702413353\">Elena Mendez Medicina Estetica</a>"], "photo_reference": "AWn5SU4je01b3JJlBHQfOpBF4YUOG5zZD08qt27IbhdPTJpgrYSTzvDeL0QhKkAgAmrAYkKIXgTQ2KfzgP8ahX9p3uaFm9Jpdozp8M3UuoeOslV9B0_aAGrWDUyDxR-NXH73ZY__uc7eeGHVcp3_Bbj2HciOtUzQ_6-YuxvtHNBSsRXD3cgb4KyapuPgAxMNoKR_nA5IswHb6hfaMMbz-f0E2190Zr5NK9OMM10rq2fHjCGRCjFl4zKbuJuOdXCriz-sxyVKL81lQCgwztzarv3csCF7cC6NJv8OFROjPxHJQfkmzKyJhxQNB0uGPWMdEd6pT3Y5LkvM2i4", "width": 1080}], "place_id": "ChIJxen2idx3QQ0RpuhY0fHJFLI", "plus_code": {"compound_code": "H3G9+6X Torrelodones, Spain", "global_code": "8CGRH3G9+6X"}, "rating": 4.3, "reference": "ChIJxen2idx3QQ0RpuhY0fHJFLI", "scope": "GOOGLE", "types": ["hospital", "health", "point_of_interest", "establishment"], "user_ratings_total": 156, "vicinity": "Camino de Valladolid, 15, Torrelodones"}, {"business_status": "OPERATIONAL", "geometry": {"location": {"lat": 40.5819896, "lng": -3.9298951}, "viewport": {"northeast": {"lat": 40.58338243029149, "lng": -3.928525269708498}, "southwest": {"lat": 40.58068446970849, "lng": -3.931223230291502}}}, "icon": "https://maps.gstatic.com/mapfiles/place_api/icons/v1/png_71/hospital-71.png", "icon_background_color": "#F88181", "icon_mask_base_uri": "https://maps.gstatic.com/mapfiles/place_api/icons/v2/hospital-H_pinlet", "international_phone_number": "+34 918 59 55 53", "name": "Innohealth And Education Sl", "place_id": "ChIJFwDYx8N3QQ0RBUfLlByqbV4", "plus_code": {"compound_code": "H3JC+Q2 Torrelodones, Spain", "global_code": "8CGRH3JC+Q2"}, "reference": "ChIJFwDYx8N3QQ0RBUfLlByqbV4", "scope": "GOOGLE", "types": ["hospital", "health", "point_of_interest", "establishment"], "vicinity": "Calle Canto de la Cueva, 9, Torrelodones"}, {"business_status": "OPERATIONAL", "geometry": {"location": {"lat": 40.579609, "lng": -3.930623}, "viewport": {"northeast": {"lat": 40.58092283029151, "lng": -3.929308469708497}, "southwest": {"lat": 40.57822486970851, "lng": -3.932006430291502}}}, "icon": "https://maps.gstatic.com/mapfiles/place_api/icons/v1/png_71/hospital-71.png", "icon_background_color": "#F88181", "icon_mask_base_uri": "https://maps.gstatic.com/mapfiles/place_api/icons/v2/hospital-H_pinlet", "international_phone_number": "+34 918 59 26 21", "name": "Consulta Médica Torrelodones", "opening_hours": {"open_now": false}, "photos": [{"height": 900, "html_attributions": ["<a href=\"https://maps.google.com/maps/contrib/113146531773280715410\">Consulta Médica Torrelodones</a>"], "photo_reference": "AWn5SU4ZV3aeVG5BmmU6MSBD2s76ULhMpUI_a95_ql1vxikkgvrtYiX5NInlV5eofJ7Ln_zkj4TSo_m9PpD7X3UBiyODEPeOOgGiY0KKgVqxelSAFt8zGSwKg16nlOK1i3jhuV6EQarUIhEXqX99ChK1kUdLReHoM51Be8jSEAYHewe6FrMOjNHQT5p9h9OqcOkp4ohCcRjb8_BLAG1olPaquL_T9MGdsXG4VK7IzKXRc0atloZf2kcWT8pAyneUgMY-zD5zrZRHOG50U4FK_BK9v2Mj_rOIv-gufdCseZvlF36Kwh0WIheShUAQNKXOupeD_FhjdHrDdZ4", "width": 2000}], "place_id": "ChIJZ4ZlasN3QQ0RUbHhufeCTDk", "plus_code": {"compound_code": "H3H9+RQ Torrelodones, Spain", "global_code": "8CGRH3H9+RQ"}, "rating": 4.4, "reference": "ChIJZ4ZlasN3QQ0RUbHhufeCTDk", "scope": "GOOGLE", "types": ["hospital", "physiotherapist", "doctor", "health", "point_of_interest", "establishment"], "user_ratings_total": 52, "vicinity": "Calle los Ángeles, 16, Torrelodones"}, {"business_status": "OPERATIONAL", "geometry": {"location": {"lat": 40.5757096, "lng": -3.9296932}, "viewport": {"northeast": {"lat": 40.5770368302915, "lng": -3.928330269708498}, "southwest": {"lat": 40.5743388697085, "lng": -3.931028230291503}}}, "icon": "https://maps.gstatic.com/mapfiles/place_api/icons/v1/png_71/hospital-71.png", "icon_background_color": "#F88181", "icon_mask_base_uri": "https://maps.gstatic.com/mapfiles/place_api/icons/v2/hospital-H_pinlet", "international_phone_number": "+34 686 75 09 72", "name": "CL clínica medico estetica", "opening_hours": {"open_now": false}, "photos": [{"height": 4032, "html_attributions": ["<a href=\"https://maps.google.com/maps/contrib/111835460272098075771\">CL clínica medico estetica</a>"], "photo_reference": "AWn5SU6sLn1mpndBFjvYwzXW3QYKfK-8KQoUXXm3IOaTox1NwIV2Pyd979mgOJwODBF937OqdMJO6Qh_iiwAEGpsaAUTSnkkzldqxrRIR8XnadRIRoB5YV3yPjXyvtCMh-4-vSY0XKpIvCrpzDfbRuDXrHWaCVxKJJEr26psGV0ivF-ywIxYv4ZRsaK60UMMZ3WRbABA6AIeSKJJcoshdgWhyIZhIhzIjRD-BUfbvGkntjFZB2lUYCw_bLHiWiO1Snm3qaW_c1RU_QP566x-eNdk7o13bnQ6yPalhPD0zmShZ_tdimjTdctTz0RTYKVQw8CTVtevl0k4hfk", "width": 3024}], "place_id": "ChIJi0vD1TF3QQ0R_U80KQpREm8", "plus_code": {"compound_code": "H3GC+74 Torrelodones, Spain", "global_code": "8CGRH3GC+74"}, "rating": 5, "reference": "ChIJi0vD1TF3QQ0R_U80KQpREm8", "scope": "GOOGLE", "types": ["hospital", "health", "point_of_interest", "establishment"], "user_ratings_total": 39, "vicinity": "Camino de Valladolid, 22, Torrelodones"}, {"business_status": "OPERATIONAL", "geometry": {"location": {"lat": 40.595174, "lng": -3.9670457}, "viewport": {"northeast": {"lat": 40.5964931302915, "lng": -3.965615519708498}, "southwest": {"lat": 40.5937951697085, "lng": -3.968313480291502}}}, "icon": "https://maps.gstatic.com/mapfiles/place_api/icons/v1/png_71/hospital-71.png", "icon_background_color": "#F88181", "icon_mask_base_uri": "https://maps.gstatic.com/mapfiles/place_api/icons/v2/hospital-H_pinlet", "international_phone_number": "+34 918 59 00 25", "name": "Doctor Correas Psiquiatras S L", "place_id": "ChIJRwqshUJ2QQ0R7TcunNhOjd4", "plus_code": {"compound_code": "H2WM+35 Parquelagos, Spain", "global_code": "8CGRH2WM+35"}, "reference": "ChIJRwqshUJ2QQ0R7TcunNhOjd4", "scope": "GOOGLE", "types": ["hospital", "health", "point_of_interest", "establishment"], "vicinity": "Avenida Sajonia, 11, Parquelagos"}, {"business_status": "OPERATIONAL", "geometry": {"location": {"lat": 40.5710521, "lng": -3.9253586}, "viewport": {"northeast": {"lat": 40.5724010802915, "lng": -3.924009619708498}, "southwest": {"lat": 40.5697031197085, "lng": -3.926707580291502}}}, "icon": "https://maps.gstatic.com/mapfiles/place_api/icons/v1/png_71/hospital-71.png", "icon_background_color": "#F88181", "icon_mask_base_uri": "https://maps.gstatic.com/mapfiles/place_api/icons/v2/hospital-H_pinlet", "name": "Dr. Claudio Peix Losa", "place_id": "ChIJdcKvdwF3QQ0RvaTuUEr6lEM", "plus_code": {"compound_code": "H3CF+CV Torrelodones, Spain", "global_code": "8CGRH3CF+CV"}, "rating": 5, "reference": "ChIJdcKvdwF3QQ0RvaTuUEr6lEM", "scope": "GOOGLE", "types": ["hospital", "health", "point_of_interest", "establishment"], "user_ratings_total": 1, "vicinity": "Avenida Castillo Olivares, Torrelodones"}, {"business_status": "OPERATIONAL", "geometry": {"location": {"lat": 40.570716, "lng": -3.925917}, "viewport": {"northeast": {"lat": 40.57208258029149, "lng": -3.924495769708498}, "southwest": {"lat": 40.56938461970849, "lng": -3.927193730291503}}}, "icon": "https://maps.gstatic.com/mapfiles/place_api/icons/v1/png_71/hospital-71.png", "icon_background_color": "#F88181", "icon_mask_base_uri": "https://maps.gstatic.com/mapfiles/place_api/icons/v2/hospital-H_pinlet", "international_phone_number": "+34 912 00 10 06", "name": "Dr. Ramón Díaz Conradi", "opening_hours": {"open_now": false}, "place_id": "ChIJ1U6H1hB3QQ0Rrb1eqIKZZAw", "plus_code": {"compound_code": "H3CF+7J Madrid, Spain", "global_code": "8CGRH3CF+7J"}, "rating": 5, "reference": "ChIJ1U6H1hB3QQ0Rrb1eqIKZZAw", "scope": "GOOGLE", "types": ["hospital", "health", "point_of_interest", "establishment"], "user_ratings_total": 1, "vicinity": "Avenida Castillo Olivares, s/n, Madrid"}]