[{"business_status": "OPERATIONAL", "geometry": {"location": {"lat": 40.7382852, "lng": -4.058195799999999}, "viewport": {"northeast": {"lat": 40.7395896802915, "lng": -4.056987269708498}, "southwest": {"lat": 40.7368917197085, "lng": -4.059685230291502}}}, "icon": "https://maps.gstatic.com/mapfiles/place_api/icons/v1/png_71/school-71.png", "icon_background_color": "#7B9EB0", "icon_mask_base_uri": "https://maps.gstatic.com/mapfiles/place_api/icons/v2/school_pinlet", "international_phone_number": "+34 918 52 03 13", "name": "Madres Escolapias", "place_id": "ChIJKXX4vUVtQQ0RBeywYjhVTGI", "plus_code": {"compound_code": "PWQR+8P Cercedilla, Spain", "global_code": "8CGQPWQR+8P"}, "reference": "ChIJKXX4vUVtQQ0RBeywYjhVTGI", "scope": "GOOGLE", "types": ["point_of_interest", "school", "establishment"], "vicinity": "Calle de San Andrés, 9, Cercedilla"}, {"business_status": "OPERATIONAL", "geometry": {"location": {"lat": 40.7410678, "lng": -4.057636899999999}, "viewport": {"northeast": {"lat": 40.7424212802915, "lng": -4.056283269708497}, "southwest": {"lat": 40.7397233197085, "lng": -4.058981230291502}}}, "icon": "https://maps.gstatic.com/mapfiles/place_api/icons/v1/png_71/generic_business-71.png", "icon_background_color": "#7B9EB0", "icon_mask_base_uri": "https://maps.gstatic.com/mapfiles/place_api/icons/v2/generic_pinlet", "name": "Sin actividad", "opening_hours": {"open_now": false}, "photos": [{"height": 600, "html_attributions": ["<a href=\"https://maps.google.com/maps/contrib/105611972413831975609\">La Titiriteka</a>"], "photo_reference": "AWn5SU5yTQZQ8peagzMV3lN8HGPddLZXA3dhoQsj4jeSyku97eD9Q6xB7BeCmDstssZttBvaxl5ihKwQ-4EvVjr5jgGB9Y9zv3XSlFKA2VeDN9BzdluQ3Fg8Adjbiwc3p5nNHfjlkTrtpSFJgfEmx8U-zaFKfbOnhvMwH19cIOsQ219Oiy5uWUzedlcHPzmwMIuo6SS8SqitGSipRbYNLLsqAXonJL2LsHW6nLYIjSX0vmqObbOAz1Jt-jNCHr2A5pgzsDfdc8PE2UvcF7nRL7PsrnaFxEoZCq2mRSQO05gsPGAgl8U1kcxGVYI031suUB5V4p5biSOb7Ak", "width": 900}], "place_id": "ChIJW2NddkZtQQ0RLpDNrVR9i0g", "plus_code": {"compound_code": "PWRR+CW Cercedilla, Spain", "global_code": "8CGQPWRR+CW"}, "reference": "ChIJW2NddkZtQQ0RLpDNrVR9i0g", "scope": "GOOGLE", "types": ["park", "point_of_interest", "school", "establishment"], "vicinity": "Calle de los Registros, 29, Cercedilla"}, {"business_status": "OPERATIONAL", "geometry": {"location": {"lat": 40.738276, "lng": -4.058199600000001}, "viewport": {"northeast": {"lat": 40.7395850802915, "lng": -4.056989169708499}, "southwest": {"lat": 40.7368871197085, "lng": -4.059687130291503}}}, "icon": "https://maps.gstatic.com/mapfiles/place_api/icons/v1/png_71/school-71.png", "icon_background_color": "#7B9EB0", "icon_mask_base_uri": "https://maps.gstatic.com/mapfiles/place_api/icons/v2/school_pinlet", "international_phone_number": "+34 918 52 03 13", "name": "F.E.M Colegio Regina Assumpta", "opening_hours": {"open_now": false}, "photos": [{"height": 3673, "html_attributions": ["<a href=\"https://maps.google.com/maps/contrib/114677786778305114433\">F.E.M Colegio Regina Assumpta</a>"], "photo_reference": "AWn5SU6d9k7m6TnuVJDU5fxkggiO0Up6lR1zeUL1rz_jx3NAfRYGHsT-vrl9sMVnfGLKnXj6xNJxD5B80P3OZhpmjDFUNBxZMe02zIYESmmdC7NXuOeBZn2xtxo9J_McaxfRyWu8yS1syMG1JSCIzA7iCK5Z0cY7Aw3MWXBtB8jZt2uGYNtiVyS5IVMkgqid-y27mRnEFVnTDWESZaPjp8p2785KEGViyy-qpzD7i4nVWz92fXwmGix1Lu5LsQTGkZzeKXjVkgJGzl9t9vZKV3ZuqOH0o5RZob9wwcAB0fDj3l7waQWeRTLxCKfSxBmKvWox6gpvvUitF9k", "width": 5509}], "place_id": "ChIJt7Z8dkVtQQ0RaXV0O1CB1W8", "plus_code": {"compound_code": "PWQR+8P Cercedilla, Spain", "global_code": "8CGQPWQR+8P"}, "reference": "ChIJt7Z8dkVtQQ0RaXV0O1CB1W8", "scope": "GOOGLE", "types": ["point_of_interest", "school", "establishment"], "vicinity": "Calle de San Andrés, 9, Cercedilla"}, {"business_status": "OPERATIONAL", "geometry": {"location": {"lat": 40.7416824, "lng": -4.049634}, "viewport": {"northeast": {"lat": 40.7430249302915, "lng": -4.048243519708498}, "southwest": {"lat": 40.74032696970851, "lng": -4.050941480291502}}}, "icon": "https://maps.gstatic.com/mapfiles/place_api/icons/v1/png_71/school-71.png", "icon_background_color": "#7B9EB0", "icon_mask_base_uri": "https://maps.gstatic.com/mapfiles/place_api/icons/v2/school_pinlet", "international_phone_number": "+34 608 07 02 83", "name": "Crecemos Juntos, psicopedagogía", "opening_hours": {"open_now": false}, "photos": [{"height": 2160, "html_attributions": ["<a href=\"https://maps.google.com/maps/contrib/109138462018047978174\">Crecemos Juntos, psicopedagogía</a>"], "photo_reference": "AWn5SU6COUWAYs1jR4ty0p1BuHpMOvswhJvffTUC_JlrrkrYD7t_SrDBcyms3bWBiTZZwmznqCvkFVNe6PW9DG--w67R-mAtrIsJJa7Fs42ICr0JGStcfKUiKWLT_ZTSk_CuB8txfuoVK3yKKTuC2aFRX4duotxgJYU0UmR9oQxBl2VvltztknKrG_O1J6tkRqFnT7WvF7N0hSpjDl7Jm8XAez6LOJFJjTUE_EMe64DvDLuzpZOUOQM81xwAMLSk1pnbc7yplmewIB-CNNGgjeediDDIi_N72EYHRojWnsXXTpZPvGWr4T4RxbzIs6EIm0l6JSCeqN29xds", "width": 3840}], "place_id": "ChIJ-cCtT9sTQQ0Rq33SB0XOjzs", "plus_code": {"compound_code": "PXR2+M4 Cercedilla, Spain", "global_code": "8CGQPXR2+M4"}, "reference": "ChIJ-cCtT9sTQQ0Rq33SB0XOjzs", "scope": "GOOGLE", "types": ["point_of_interest", "school", "establishment"], "vicinity": "Calle Almacenes entre, N°1 y 3, Cercedilla"}, {"business_status": "OPERATIONAL", "geometry": {"location": {"lat": 40.7407749, "lng": -4.0487036}, "viewport": {"northeast": {"lat": 40.7421184802915, "lng": -4.047457669708497}, "southwest": {"lat": 40.7394205197085, "lng": -4.050155630291502}}}, "icon": "https://maps.gstatic.com/mapfiles/place_api/icons/v1/png_71/school-71.png", "icon_background_color": "#7B9EB0", "icon_mask_base_uri": "https://maps.gstatic.com/mapfiles/place_api/icons/v2/school_pinlet", "international_phone_number": "+34 918 52 05 75", "name": "Roman Road Primary School", "photos": [{"height": 3024, "html_attributions": ["<a href=\"https://maps.google.com/maps/contrib/116088700405022731446\">María Ángeles Navarro Girón</a>"], "photo_reference": "AWn5SU5yhXMP3yKrD6Oj15cDrqVBfaCGZLcmU0s4hqg04FK8ajyllgzBAIj-7HcHMsxsFbO8nBteGJtxBYz7dgSrnXEMgJSbt3MzEVAkXtnuXZ9JPwoMPWCReKFaFqFafAWmZJEChtkTSr7t-HieyHvD2v4na_VymYDNQqAP1VtSmaZPUG_AyXsARdjr8nP5-yDiMqhTn-KFFtxmkYzXN66CmJO1T0nDl_E04XstRCBHMd5AqcGqUg1rnzZfYJtcgrOYEWXWK3cGJh0lDwpn8b1nk8qPZI_0nwt0eBfpsCsoeVEdpfgLXKPgaViPyoicWO-6ptCKe_cjkjBNTCKmpZFTFlCPKd5XB-3gCJ695PBa7S-hOBu-Mx_3fXvwjGLYKZctOiDxHiyTqr35emllNXj1u8aIUqZbhe7luxP7NO3niqUdNQvNBFxissDtMdIPm2sQqEaYslndgiNxn5WL9QI-iw7axkFCq32cvlyWn9_nIDbNcxjbAWltrQ1OZWpkjuDFKxP_pCSEXdgDVB8K4KDxlVfwB8PTXtI4LE2TL2AP_iWYwuWXR-jnWXRP3WOq65HM6gITLKnMvCTq8GbsI_ibM-YiitsVnrjHZK4bhi3NIAmiYrmmwAvvMI3ziUXixmrf1fgu9A", "width": 4032}], "place_id": "ChIJS5fA_GltQQ0RznVH7EpJSKs", "plus_code": {"compound_code": "PXR2+8G Cercedilla, Spain", "global_code": "8CGQPXR2+8G"}, "reference": "ChIJS5fA_GltQQ0RznVH7EpJSKs", "scope": "GOOGLE", "types": ["point_of_interest", "school", "establishment"], "vicinity": "Avenida de Blanca Fernández Ochoa, 5, Cercedilla"}, {"business_status": "OPERATIONAL", "geometry": {"location": {"lat": 40.73635029999999, "lng": -4.065402599999999}, "viewport": {"northeast": {"lat": 40.7376724302915, "lng": -4.064088969708497}, "southwest": {"lat": 40.7349744697085, "lng": -4.066786930291501}}}, "icon": "https://maps.gstatic.com/mapfiles/place_api/icons/v1/png_71/school-71.png", "icon_background_color": "#7B9EB0", "icon_mask_base_uri": "https://maps.gstatic.com/mapfiles/place_api/icons/v2/school_pinlet", "international_phone_number": "+49 6503 34554", "name": "Puntadas Nómadas", "place_id": "ChIJ1VTg7U1tQQ0RYgz27MpqqkY", "plus_code": {"compound_code": "PWPM+GR Cercedilla, Spain", "global_code": "8CGQPWPM+GR"}, "reference": "ChIJ1VTg7U1tQQ0RYgz27MpqqkY", "scope": "GOOGLE", "types": ["point_of_interest", "school", "establishment"], "vicinity": "Calle Auroriña, 48, Cercedilla"}, {"business_status": "OPERATIONAL", "geometry": {"location": {"lat": 40.73485900000001, "lng": -4.065826599999999}, "viewport": {"northeast": {"lat": 40.7362451802915, "lng": -4.064594819708497}, "southwest": {"lat": 40.73354721970851, "lng": -4.067292780291501}}}, "icon": "https://maps.gstatic.com/mapfiles/place_api/icons/v1/png_71/school-71.png", "icon_background_color": "#7B9EB0", "icon_mask_base_uri": "https://maps.gstatic.com/mapfiles/place_api/icons/v2/school_pinlet", "international_phone_number": "+34 918 52 39 40", "name": "Escuela Infantil - Casa de Niños Rincón Florido Centro Educativo Público", "opening_hours": {"open_now": false}, "photos": [{"height": 412, "html_attributions": ["<a href=\"https://maps.google.com/maps/contrib/117986500455572407770\">Escuela Infantil - Casa de Niños Rincón Florido Centro Educativo Público</a>"], "photo_reference": "AWn5SU5pZzBJQ1LBpoM_zHLe9Eddq4RzZpxAlwoQXAwd4wC2sz2FpgQQPIGAUzUGyWcOsA-hb5mtnZI9MpuTb0vpN4ek81IOa_ObA9BmsEyJjGAWhgTi_xtJayut70dpip2XkwErQ3Eb1300Zr-71_vJ9y6oQFUbiAnloG8wR9jiBvVwBB1sywA6i1b2CXOIRF_3NAuwICO8dWx3z_FvVHWTWBF7V7IP80RJz0SnAqHcRSsw7_D6qhW0q1-sPmCq-yX2JT-p2tupZXMpc9iIPfCvrG8zmPmfn8qV8mkh8PnrJ6xcxW7qyw4fkOtee8-IT7pRGJQhkKSCYqg", "width": 550}], "place_id": "ChIJjdYR4kxtQQ0RhGH3N6WWYYk", "plus_code": {"compound_code": "PWMM+WM Cercedilla, Spain", "global_code": "8CGQPWMM+WM"}, "rating": 4.2, "reference": "ChIJjdYR4kxtQQ0RhGH3N6WWYYk", "scope": "GOOGLE", "types": ["point_of_interest", "school", "establishment"], "user_ratings_total": 10, "vicinity": "Calle Carretera de los Molinos, 5, Cercedilla"}, {"business_status": "OPERATIONAL", "geometry": {"location": {"lat": 40.73357129999999, "lng": -4.0435431}, "viewport": {"northeast": {"lat": 40.7351402302915, "lng": -4.042572569708498}, "southwest": {"lat": 40.7324422697085, "lng": -4.045270530291503}}}, "icon": "https://maps.gstatic.com/mapfiles/place_api/icons/v1/png_71/school-71.png", "icon_background_color": "#7B9EB0", "icon_mask_base_uri": "https://maps.gstatic.com/mapfiles/place_api/icons/v2/school_pinlet", "international_phone_number": "+34 918 52 17 63", "name": "INSTITUTO La Dehesilla.", "place_id": "ChIJ86Z5NO1tQQ0RQAOkdLdZ97k", "plus_code": {"compound_code": "PXM4+CH Cercedilla, Spain", "global_code": "8CGQPXM4+CH"}, "reference": "ChIJ86Z5NO1tQQ0RQAOkdLdZ97k", "scope": "GOOGLE", "types": ["secondary_school", "point_of_interest", "school", "establishment"], "vicinity": "Camino Dehesilla y Rodeo, s/n, Cercedilla"}, {"business_status": "OPERATIONAL", "geometry": {"location": {"lat": 40.7278508, "lng": -4.054713}, "viewport": {"northeast": {"lat": 40.72910578029149, "lng": -4.053299169708497}, "southwest": {"lat": 40.7264078197085, "lng": -4.055997130291502}}}, "icon": "https://maps.gstatic.com/mapfiles/place_api/icons/v1/png_71/school-71.png", "icon_background_color": "#7B9EB0", "icon_mask_base_uri": "https://maps.gstatic.com/mapfiles/place_api/icons/v2/school_pinlet", "name": "Formación Gestión Y Proyectos", "place_id": "ChIJqVuoLV9tQQ0RO1P1n_87MRg", "plus_code": {"compound_code": "PWHW+44 Cercedilla, Spain", "global_code": "8CGQPWHW+44"}, "reference": "ChIJqVuoLV9tQQ0RO1P1n_87MRg", "scope": "GOOGLE", "types": ["point_of_interest", "school", "establishment"], "vicinity": "Calle de la Alondra, 24, Cercedilla"}, {"business_status": "OPERATIONAL", "geometry": {"location": {"lat": 40.75590259999999, "lng": -4.071043}, "viewport": {"northeast": {"lat": 40.7572988302915, "lng": -4.069697069708496}, "southwest": {"lat": 40.7546008697085, "lng": -4.072395030291501}}}, "icon": "https://maps.gstatic.com/mapfiles/place_api/icons/v1/png_71/school-71.png", "icon_background_color": "#7B9EB0", "icon_mask_base_uri": "https://maps.gstatic.com/mapfiles/place_api/icons/v2/school_pinlet", "international_phone_number": "+34 629 45 07 58", "name": "Granja escuela Arroyo Piñuela", "photos": [{"height": 1080, "html_attributions": ["<a href=\"https://maps.google.com/maps/contrib/101763097864912318807\">Manu Manu Climent</a>"], "photo_reference": "AWn5SU5lNGg0pjrknZx7-VCyGyxG6TZn7UXVR5yAVrFkDrpZb3Y1B9DnF8tDKRzx_1773tOAXcY2kl2UVN4DP3gNBV02PnTa3JGf6nckF2gG64ooUbyQSFOhH1N5izNCXnB1FWhicKvj1_ObSWgunG4tuRX-dB4jyPlbFr8Z9oW-8m3yOqbFQc8JYIVTYqrFyXn1SygSOGxrfEDb4-jFV09vnQ2SL_NQseTwFlUJ8lmwSZZV7qF98gHIx15ISlFp0odsPHczZUL_6F6d3yr8iWf5UgOI49IazN6hLOZaQFqNS92K_3sun_Z8lklHfDxJoii0P0aabXOhs_xgil9RHqWHrd_HA0jFflnxvB7fa7kWBLnHdEd6ZNziJdqDWZzYvc6iM9FKsD1Mllf1Nf93Bisv3MBEBsPONMGp5qOUVbupczIIk8oS4ssEoWBx1UtxFWEQB3h6jGkQ5lYHssT_wQic7cxIi7FIYYXOoJqFofP_cobi1SayaicUA2wIUO0scHZA6ddoAcdCixiaL2VEd90u25NNFdMTLSJyRGBBeIJ42hyEljDXNk31P6HzAb-E9kC1Mm98sUycYvMJMqZ-_VH1iTbIcSSSG37FnOMFMHTsn-3qxaM-gbUD8QZwzZvSx02b", "width": 1920}], "place_id": "ChIJ4aXIntISQQ0RVVHDUElaq0w", "plus_code": {"compound_code": "QW4H+9H Cercedilla, Spain", "global_code": "8CGQQW4H+9H"}, "rating": 4.8, "reference": "ChIJ4aXIntISQQ0RVVHDUElaq0w", "scope": "GOOGLE", "types": ["point_of_interest", "school", "establishment"], "user_ratings_total": 5, "vicinity": "Calle de la Peña del Águila, 1, Cercedilla"}]