[{"business_status": "OPERATIONAL", "geometry": {"location": {"lat": 40.25953209999999, "lng": -3.237721}, "viewport": {"northeast": {"lat": 40.26094483029149, "lng": -3.236217269708498}, "southwest": {"lat": 40.25824686970849, "lng": -3.238915230291502}}}, "icon": "https://maps.gstatic.com/mapfiles/place_api/icons/v1/png_71/park-71.png", "icon_background_color": "#4DB546", "icon_mask_base_uri": "https://maps.gstatic.com/mapfiles/place_api/icons/v2/tree_pinlet", "name": "La dehesilla", "opening_hours": {"open_now": true}, "place_id": "ChIJDbSGaBlnQg0ROydLIxq4la0", "plus_code": {"compound_code": "7Q56+RW Carabaña, Spain", "global_code": "8CGR7Q56+RW"}, "rating": 3, "reference": "ChIJDbSGaBlnQg0ROydLIxq4la0", "scope": "GOOGLE", "types": ["park", "point_of_interest", "establishment"], "user_ratings_total": 1, "vicinity": "Calle del Almendro, 14, Carabaña"}, {"business_status": "OPERATIONAL", "geometry": {"location": {"lat": 40.2528022, "lng": -3.2355035}, "viewport": {"northeast": {"lat": 40.25415263029149, "lng": -3.234105219708498}, "southwest": {"lat": 40.2514546697085, "lng": -3.236803180291502}}}, "icon": "https://maps.gstatic.com/mapfiles/place_api/icons/v1/png_71/park-71.png", "icon_background_color": "#4DB546", "icon_mask_base_uri": "https://maps.gstatic.com/mapfiles/place_api/icons/v2/tree_pinlet", "name": "Parque de las Morera", "opening_hours": {"open_now": true}, "photos": [{"height": 3120, "html_attributions": ["<a href=\"https://maps.google.com/maps/contrib/107200833698828892228\">Pedro M</a>"], "photo_reference": "AWn5SU58eikXzYDbEUoOJZVaume_1b_GUpp9WbYLFICevVc62EcCJfHw4kcj5yPvLnfZNq6k8kJSxMYu-ZaCxAV8vJKzDiGjF4iHxmFkE9wGmXDJE2dXym0r49lUERw9L4c2-6GNwWDCsdEXZqsYlaGknRahxJeVugjBxC9GL17lDOmPBC4yChK5zcxbzIs1coaWFINLtlH5_Bk2ijn8MaiY-JtKiA_W29W-qCjoHkmGZxt7G0txwyScarbUvqzshMlzSd-44zxJkfOUsNABuS9AN-_fYUwgqzCBKmy-7x4DtPGQlBeNJlCaWPUGuqqH5sm2kylQXaVuKuWBRFdjLDvby0iEhEyJckXS7y2p853VHm4Vg902sG1yxQmCg04hY5TRjZae12jDDdRLeAFtf7L6uBr9XnO-H51pg2_-75V2xn8JV9y9ASV4pG4vbYWPRjHGdUK8c3WvYQzCsBOV46e2IitqjTF37_HOoW0PN-4bCU8-MQ94r5iYKwTR5iWTQIvzB6-L3Id4WVXYRzDq9uvhinXx7JXLRO7ovnxG4EZTMB-am-DIEZW__Q4HHK5yMYXr-kbumQYz7z2cYBNlP5FARSYQJFQfR1RD1eVvOVTNU71sRQHmhSK8ZXXaU4G-HgQumthwiA", "width": 4160}], "place_id": "ChIJ6SkNY5JnQg0RyrYR3IDkwnE", "plus_code": {"compound_code": "7Q37+4Q Carabaña, Spain", "global_code": "8CGR7Q37+4Q"}, "rating": 4, "reference": "ChIJ6SkNY5JnQg0RyrYR3IDkwnE", "scope": "GOOGLE", "types": ["park", "point_of_interest", "establishment"], "user_ratings_total": 23, "vicinity": "Avenida de Tielmes, 12, Carabaña"}, {"business_status": "OPERATIONAL", "geometry": {"location": {"lat": 40.2547672, "lng": -3.2296195}, "viewport": {"northeast": {"lat": 40.2561040802915, "lng": -3.228255869708498}, "southwest": {"lat": 40.2534061197085, "lng": -3.230953830291502}}}, "icon": "https://maps.gstatic.com/mapfiles/place_api/icons/v1/png_71/park-71.png", "icon_background_color": "#4DB546", "icon_mask_base_uri": "https://maps.gstatic.com/mapfiles/place_api/icons/v2/tree_pinlet", "name": "Camino de frutas", "place_id": "ChIJ6VXryPZnQg0RzDbK8kgUiuo", "plus_code": {"compound_code": "7Q3C+W5 Carabaña, Spain", "global_code": "8CGR7Q3C+W5"}, "reference": "ChIJ6VXryPZnQg0RzDbK8kgUiuo", "scope": "GOOGLE", "types": ["park", "point_of_interest", "establishment"], "vicinity": "Calle de Ávila, Carabaña"}, {"business_status": "OPERATIONAL", "geometry": {"location": {"lat": 40.2607858, "lng": -3.238964499999999}, "viewport": {"northeast": {"lat": 40.26218533029149, "lng": -3.237629719708498}, "southwest": {"lat": 40.2594873697085, "lng": -3.240327680291502}}}, "icon": "https://maps.gstatic.com/mapfiles/place_api/icons/v1/png_71/park-71.png", "icon_background_color": "#4DB546", "icon_mask_base_uri": "https://maps.gstatic.com/mapfiles/place_api/icons/v2/tree_pinlet", "name": "Ruinas", "opening_hours": {"open_now": true}, "place_id": "ChIJ_25axYZnQg0RdQmQ7l9blNU", "plus_code": {"compound_code": "7Q66+8C Carabaña, Spain", "global_code": "8CGR7Q66+8C"}, "rating": 5, "reference": "ChIJ_25axYZnQg0RdQmQ7l9blNU", "scope": "GOOGLE", "types": ["park", "point_of_interest", "establishment"], "user_ratings_total": 1, "vicinity": "M-221, 18T, Carabaña"}, {"business_status": "OPERATIONAL", "geometry": {"location": {"lat": 40.26430209999999, "lng": -3.235012}, "viewport": {"northeast": {"lat": 40.2655579802915, "lng": -3.233626969708498}, "southwest": {"lat": 40.2628600197085, "lng": -3.236324930291501}}}, "icon": "https://maps.gstatic.com/mapfiles/place_api/icons/v1/png_71/park-71.png", "icon_background_color": "#4DB546", "icon_mask_base_uri": "https://maps.gstatic.com/mapfiles/place_api/icons/v2/tree_pinlet", "name": "Parque Forestal El Pinar", "opening_hours": {"open_now": true}, "photos": [{"height": 2448, "html_attributions": ["<a href=\"https://maps.google.com/maps/contrib/101803453846124571699\">Pablo Alonso</a>"], "photo_reference": "AWn5SU7D-gtGWuAukj09lhExEysSRUhMEmNMNa5e4LVvQNeTrWS6phKuAd4j0nAgOkhiM2vTplnj3g-zB6wNocUjfKThT0fb-MJ8FzYHba6yo7an-brYh-GH9ZRcXA9bu7e6H7iAhCYrHXsKTkoC084m0_p6gbXwW4X42tCE6HdqOW_KlDkXf117vFx-uicyokWO-PU9gLUkOct79n1pIWG_2pHBabaY7CVPD4IVLnM2jvg1uUtp9WHKc2Xm9gAWUySljJaPhczS2HgkwI8DNKdi4m4Sx5f6bPtEcckEesyVuM0ZbK2uDFp7oypaLSGRejeX0xzdIvoRk57WVBA7pfIIVrfW0knTPzWDZUT-Os38n65UebsypkrRq3rMqCTMTn7iY6pqtWqRrj6mHdLPARD1VROt6lKzxJ1nXHahBYLjdW3zn9HzkpQ0PiSxc7SqmizBnETu-3Zxd5M2xsfe9bpC_3p-ZxgCv8ceRJ9HtDJ2lA2xkZv_UA5g3BC81IRQZ3OtY1qt5rOo5_m8E2ajuouSWE1qGl9NS6NCQS74Z2CDCDg9QHI0ZFyS_bEsJuA1RfBp9TFL4Gk54pi7gAEDQDlvh-3A7tje5VuNkLQOb1bCU3AtSeF7OYrjB9NXCW-cBTF8", "width": 3264}], "place_id": "ChIJHyny2mFdQg0RrGaRyJf3vyA", "plus_code": {"compound_code": "7Q77+PX Carabaña, Spain", "global_code": "8CGR7Q77+PX"}, "rating": 4.5, "reference": "ChIJHyny2mFdQg0RrGaRyJf3vyA", "scope": "GOOGLE", "types": ["park", "point_of_interest", "establishment"], "user_ratings_total": 76, "vicinity": "Camino de los Pinos, Carabaña"}, {"business_status": "OPERATIONAL", "geometry": {"location": {"lat": 40.2472234, "lng": -3.2273962}, "viewport": {"northeast": {"lat": 40.24914808029149, "lng": -3.226412869708498}, "southwest": {"lat": 40.24645011970849, "lng": -3.229110830291502}}}, "icon": "https://maps.gstatic.com/mapfiles/place_api/icons/v1/png_71/park-71.png", "icon_background_color": "#4DB546", "icon_mask_base_uri": "https://maps.gstatic.com/mapfiles/place_api/icons/v2/tree_pinlet", "name": "Via Verde del Tren de los 40 Dias", "opening_hours": {"open_now": true}, "photos": [{"height": 4000, "html_attributions": ["<a href=\"https://maps.google.com/maps/contrib/105288184954162100143\">Antonio Montesinos</a>"], "photo_reference": "AWn5SU7YrLparM69elAsX92tc82sBXm4tuvEex3kuzm-uxw67TOhCn6S8FyW_N55ciw8t7JQFWVCnBCg7Cd32QnbXJhX-qFupyhq85Uvy9Air15HQ61o0L0hUTo0OHBA-t-fjBeXe18xxG1Jomx0trnvZ8_oCWrApYMGRQhL1ahCOumCoydpJIe71-Bj2IrNaoWKVbq9YGhgGmS7ZLaBQ_6QShqqnWgdy4u6hqkmddGxseXD-IGXVQvt0D_rdpqKFZOg9c0TsgsHlEl6jL-L83HhIjNPNwgcTXZda3AVLTcdxcc-qAEx5GVRC6SF0ti6JpXL-gDvg76foX_uweCoyQfnpl12SUilc02lTDltkJrnbZx5wBJUOQmJ6l0c2hXr3OegH7Rc3GtQGTA7Js_tMn1OD5bqcbsNvTJFIu_-l1FjDdWZ5mpEAmivet2HK_UdZyGxVx9Lx8mA8s87NOao9SYY3hW72h66wUf0Q_gmWorfZyWX0fv2oKf6FR4AA9YjTWh6sEXu6ZKUhiXC8rW-MYQzIy_091RaNZ8pURQCdT_nP8ypvHDv4D_QJNpkvr7dMb896uFsRhUN98FxqLzvQ4l9QFqHJEVkR737_Pb-WAFsTfacaXqwdFJAPyjsuNB_PnTDjOH73A", "width": 3000}], "place_id": "ChIJZTpXgBtnQg0R5zhd9ftAszU", "plus_code": {"compound_code": "6QWF+V2 Carabaña, Spain", "global_code": "8CGR6QWF+V2"}, "rating": 4.5, "reference": "ChIJZTpXgBtnQg0R5zhd9ftAszU", "scope": "GOOGLE", "types": ["park", "point_of_interest", "establishment"], "user_ratings_total": 19, "vicinity": "Carabaña"}, {"business_status": "OPERATIONAL", "geometry": {"location": {"lat": 40.24608289999999, "lng": -3.238888}, "viewport": {"northeast": {"lat": 40.24735203029149, "lng": -3.237593819708498}, "southwest": {"lat": 40.2446540697085, "lng": -3.240291780291502}}}, "icon": "https://maps.gstatic.com/mapfiles/place_api/icons/v1/png_71/park-71.png", "icon_background_color": "#4DB546", "icon_mask_base_uri": "https://maps.gstatic.com/mapfiles/place_api/icons/v2/tree_pinlet", "name": "Vía Verde , carril bici", "opening_hours": {"open_now": true}, "photos": [{"height": 3472, "html_attributions": ["<a href=\"https://maps.google.com/maps/contrib/103322360241594595399\">Vicente Camarasa</a>"], "photo_reference": "AWn5SU56yZo1RtGptJDi3nTQaAnErvVoCm0v1uY03BUpsaL-yB4AkJZAiyrX6rEkHpoyq3UY_j3ihOxgUpDMIcWzSSPE5htJ3iyjh9ntnxDbo7lK0wADir6l0SdAqA1n0qbj1m4l7it7Hd45cX-sL4YQawfxVAORzmenSYNIXdBYyEuouRkhPau6V8qYMcPv6WPuHErhFpoE-Rfgha6B_A0bP-rEO3uZRGrOUVMQHhqAtiWNG1CC0TAjFj-jFhHNeteAr62JE-gp0Jw9f1fWOxuRqgGsBhK_tNZ0nhSGl47v0cbcq9_Q-mVoL4FMdOYU08M1Ec78T2OhR4BvEIMMZODGVCvaT1SBbWbMR47z0HuUXYXBxxVlurb-gdZnIdBYA_t_kgR8kMdz14Sw4gfT6dTTymsAkB5pU-VqKtc-N4LLKm9UCAlCG9zotXukZ4XCx6wZOKiRqfIsGyciD5CQ0aGePfXAYHnRZezqf0c-fGdshUVWlFI9cgkGZTVbw9EDQQgdYLBiu4ovZu2HlNXmGcr3HcGmu61IOsPz-nFEjvSZqt7RI_Du30E_D55UCl9TgpnGYQ-O_XVYjuluYqtXMEX-PGVPehNKtKG1whSffdyVTi7oyEy6N7trzfadaWy2DHxdlcp-mQ", "width": 4624}], "place_id": "ChIJpdzdx_lnQg0RMFYTLFZEkiA", "plus_code": {"compound_code": "6QW6+CC Carabaña, Spain", "global_code": "8CGR6QW6+CC"}, "rating": 4.5, "reference": "ChIJpdzdx_lnQg0RMFYTLFZEkiA", "scope": "GOOGLE", "types": ["park", "point_of_interest", "establishment"], "user_ratings_total": 13, "vicinity": "Vias Verdes del Tajuna, Carabaña"}, {"business_status": "OPERATIONAL", "geometry": {"location": {"lat": 40.24647059999999, "lng": -3.2585611}, "viewport": {"northeast": {"lat": 40.2478253802915, "lng": -3.257179319708498}, "southwest": {"lat": 40.2451274197085, "lng": -3.259877280291501}}}, "icon": "https://maps.gstatic.com/mapfiles/place_api/icons/v1/png_71/park-71.png", "icon_background_color": "#4DB546", "icon_mask_base_uri": "https://maps.gstatic.com/mapfiles/place_api/icons/v2/tree_pinlet", "name": "Camino de la Merce", "place_id": "ChIJKSiO-GdpQg0RiJrOPcdWVr8", "plus_code": {"compound_code": "6PWR+HH Carabaña, Spain", "global_code": "8CGR6PWR+HH"}, "rating": 3.4, "reference": "ChIJKSiO-GdpQg0RiJrOPcdWVr8", "scope": "GOOGLE", "types": ["park", "point_of_interest", "establishment"], "user_ratings_total": 5, "vicinity": "Diseminado Perales Alba Cr, 30, Carabaña"}, {"business_status": "OPERATIONAL", "geometry": {"location": {"lat": 40.2777446, "lng": -3.2417644}, "viewport": {"northeast": {"lat": 40.2792666802915, "lng": -3.240820719708498}, "southwest": {"lat": 40.2765687197085, "lng": -3.243518680291502}}}, "icon": "https://maps.gstatic.com/mapfiles/place_api/icons/v1/png_71/park-71.png", "icon_background_color": "#4DB546", "icon_mask_base_uri": "https://maps.gstatic.com/mapfiles/place_api/icons/v2/tree_pinlet", "name": "forestal Park", "opening_hours": {"open_now": true}, "place_id": "ChIJO8u4cQtdQg0RnnBS14J63Lc", "rating": 5, "reference": "ChIJO8u4cQtdQg0RnnBS14J63Lc", "scope": "GOOGLE", "types": ["park", "point_of_interest", "establishment"], "user_ratings_total": 1, "vicinity": "7QH5+37, Carabaña"}]