[{"geometry": {"location": {"lat": 40.2567009, "lng": -3.2376227}, "viewport": {"northeast": {"lat": 40.2648896354505, "lng": -3.234662243877871}, "southwest": {"lat": 40.25053894472909, "lng": -3.249281120391945}}}, "icon": "https://maps.gstatic.com/mapfiles/place_api/icons/v1/png_71/geocode-71.png", "icon_background_color": "#7B9EB0", "icon_mask_base_uri": "https://maps.gstatic.com/mapfiles/place_api/icons/v2/generic_pinlet", "name": "Carabaña", "photos": [{"height": 900, "html_attributions": ["<a href=\"https://maps.google.com/maps/contrib/116592005467442757440\">Juan Ignacio Ramos Frias</a>"], "photo_reference": "AWn5SU5L0FXSTnFUcEGZpOCjQREne3VpSqnPjw4WG-UqYQfezn2URjH2E9fHyszfIkT0J2EI5hTzmFDwg3s_2HlJU5LFVXgWgVzuoEDnt8sMzJLTtG8hxs-B3MeO2MLFHncIH23wIjRwVe657sWISPjKJ0n6saSRCoiihuNK9h20VB8xWRRH9D9zG7I1HWpdsxZ8lYZB3OjrAmOvH7efEPlJd0ZkZHjBPUmf4SkQn3xd6gEjI3cNeUL465-OYZ2e8eW5Hry3xcoQij4U9xQAgDTj0Wy90L6cGKq-qfCL4M6qCeZjRVp1tfwqJ8dNxJU9UtcZEDJo3KnB0Ykm6htLRMsTRVZyAiHS9S-g1CTdKVCOPhDtf0CIbV_SDVAMKzZNXGhJHsazRPBC8NxWRXoM2ryKcb3xkQROTozcB5tprHrgGW-YdX5YAAKMiDusJMLc0wympcZSB5Oj2vkIVXKYsj1X-hjpaMx7L7MKyk_7WTRZT0jrPIhb6inHsAKdNXGe-cV319ExF1GcBjMNn_09btLHNYKJTriYqA6Mauok9-C6WuApNlgH-hC1KFyVVvT2718GoXJ5-_gqoblbGE2MLCMZfEspRODB15rTJIF9aETlywyo3a9TTMLir8h4Rr38UXuAYiRlFA", "width": 1600}], "place_id": "ChIJA47204xnQg0R7ND7CcDlUnI", "reference": "ChIJA47204xnQg0R7ND7CcDlUnI", "scope": "GOOGLE", "types": ["locality", "political"], "vicinity": "Carabaña"}, {"business_status": "OPERATIONAL", "geometry": {"location": {"lat": 40.2943574, "lng": -3.2994847}, "viewport": {"northeast": {"lat": 40.2957000302915, "lng": -3.298062919708498}, "southwest": {"lat": 40.29300206970851, "lng": -3.300760880291502}}}, "icon": "https://maps.gstatic.com/mapfiles/place_api/icons/v1/png_71/lodging-71.png", "icon_background_color": "#909CE1", "icon_mask_base_uri": "https://maps.gstatic.com/mapfiles/place_api/icons/v2/hotel_pinlet", "international_phone_number": "+34 918 76 10 20", "name": "Hotel Palacete De La Ochava", "opening_hours": {"open_now": false}, "photos": [{"height": 480, "html_attributions": ["<a href=\"https://maps.google.com/maps/contrib/111112888813192435417\">Hotel Palacete De La Ochava</a>"], "photo_reference": "AWn5SU6EQwo_Yae04cmh1iViADfTqGGfYr_4kmUlK_3RcPaFBx_5TjzCM0RxRTH227D46TZdXUYlqnDoUSdV4QxXyA6Xb_UC4mPjRYRXVJ2FmekIUJoU9H1295RVpJfkkYdm35f6kh_cIAJ8pEVv6QzaaMC0qirTa40sEjpmILF-8fphpksIZQH2pD21ToEg2eETJ5YK6wA58ObW9wHrGBFqobkT45OKUcywK96GTB2oLsrLySVqgPC5o76IuhLuwhUL22TG7tjY3oh7tNa2uYyz6EVHfSV44XT9wWWAuwIY1aoI98XcRp_2pkNkDum_tOOsi_h9YLduHeQ", "width": 720}], "place_id": "ChIJpUQGQFRCQg0RNdtbxwo-sxM", "plus_code": {"compound_code": "7PV2+P6 Valdilecha, Spain", "global_code": "8CGR7PV2+P6"}, "rating": 4.7, "reference": "ChIJpUQGQFRCQg0RNdtbxwo-sxM", "scope": "GOOGLE", "types": ["lodging", "point_of_interest", "establishment"], "user_ratings_total": 2087, "vicinity": "Calle Alcala, 65, Calle Miguel de Cervantes, 11, Valdilecha"}, {"business_status": "OPERATIONAL", "geometry": {"location": {"lat": 40.2468084, "lng": -3.3144372}, "viewport": {"northeast": {"lat": 40.2481278802915, "lng": -3.313026469708498}, "southwest": {"lat": 40.2454299197085, "lng": -3.315724430291502}}}, "icon": "https://maps.gstatic.com/mapfiles/place_api/icons/v1/png_71/civic_building-71.png", "icon_background_color": "#7B9EB0", "icon_mask_base_uri": "https://maps.gstatic.com/mapfiles/place_api/icons/v2/civic-bldg_pinlet", "international_phone_number": "+34 902 19 71 97", "name": "Correos", "opening_hours": {"open_now": false}, "photos": [{"height": 3000, "html_attributions": ["<a href=\"https://maps.google.com/maps/contrib/110037575964237214564\">Ángel Sánchez</a>"], "photo_reference": "AWn5SU5wCnCRjxO5kMEbiUE72iUY9yeSdyuKZhgd9kWIwkIUnbNkWn9YigMh9szM-UU6pWupots3Q9K5AMgzrpPgyUfPNkdHlfjAW3ihbnaEqQA4Baypc02FZLUXZ6Q4PUBAs-FD2yWD41M_XIcm5dr1cDYMksGR3kTXsxUFMghg2X-RlMKDMUIS_gmSSK5n72BGTUKQLSCVCYAV2sSqlUT0aigMmwIolQMvseomG5VS4aCUjWRBzuPHpzO0WZjs4xYPk1kEbpxskXCvLv_V8wDEb-QQLiioqHkSH4l4CIY3N7mlmr0cAfHbe38woC2Rz_tWbGuRhrlqWKaY1C1z4UcY9sJM94izZr5kI-UZBuhC1eTv54FmvszAIDAxnNtna6OgL4e5Ew3fplS-05-1lOa8iRu5oUBqpMaQ00tx-ItO8BEhWtZf35N-BJ2IASJTjNKdNrmp3QtJE9U4TYl6AwWiMghRO1h7a3Ji5Jw2marmIvHjsk26Xgz52XodOdHlDmZhxU3WCx0HvqFPz8NrDh3L_fBdjjwJCeK5qEjtB4Bo9VdN9wLYOPRCmfOCvl-ePLEE_Li07A2H1IofFyAcdabIrqBZ2a4U4xnBE2uy-_VbJ68E3h3qjS1IWD-kHeNs8V6WKTBw3mQH", "width": 4000}], "place_id": "ChIJo1uw5MNpQg0Rwi3kbTAbNxc", "plus_code": {"compound_code": "6MWP+P6 Tielmes, Spain", "global_code": "8CGR6MWP+P6"}, "rating": 1.7, "reference": "ChIJo1uw5MNpQg0Rwi3kbTAbNxc", "scope": "GOOGLE", "types": ["post_office", "finance", "point_of_interest", "establishment"], "user_ratings_total": 18, "vicinity": "Calle de la Paloma, 1, Tielmes"}, {"business_status": "OPERATIONAL", "geometry": {"location": {"lat": 40.23283289999999, "lng": -3.352588599999999}, "viewport": {"northeast": {"lat": 40.23420833029149, "lng": -3.351208069708498}, "southwest": {"lat": 40.2315103697085, "lng": -3.353906030291501}}}, "icon": "https://maps.gstatic.com/mapfiles/place_api/icons/v1/png_71/generic_business-71.png", "icon_background_color": "#7B9EB0", "icon_mask_base_uri": "https://maps.gstatic.com/mapfiles/place_api/icons/v2/generic_pinlet", "international_phone_number": "+34 687 59 13 72", "name": "Pedro Navarro y Aluso", "photos": [{"height": 288, "html_attributions": ["<a href=\"https://maps.google.com/maps/contrib/105256282165342455852\">Roberto Martin Perez</a>"], "photo_reference": "AWn5SU6hg6w_a0KWyy5e5c_YMB18LbEvC1jqEoC1bkdxF3PbU0-UUyk13E7Z2TRZ8JxDgkTH07g_xlHCGFjHz9EmXgkjqyvIP6rWi6i-Bay5rO9nqlQx9sr9k0KN9IEUMpEXJXd4_mDlJ5NGmkiAJI9sxyGTAfFz2Hu0ZyX52bU-Gxjs487CWLkTbjxQGwMC8ZTzca6VFvo-4Kgb1mRhjq0e5OaeA-lA4U49riggEu0oEcROGrF80UYhhOfht8YH5KKQ_m0o9ZQ1w8QcHea_vHSeoS26Ev99wAtWtBpnOolUux2CxIM6bsJPq2eAtKzveJnDIsK302YiffrPlZyPXtFtTPynxprl8V7gkzf883f584eHzoXy3z5IyIR59-JFMwcE7GXRNrtFn3HITiopgUOxmZelXu1YfTA410ssNTuOuf25GDKtygp5ewj5ODHj1lJM-7s0lrn5LD-vMMLydyoyaMWg-Y7sQqYJ4A_89UZL9LF0Vuzvp2bcMwH2wBVepCmwBoAyGzZFMvwV7M5Ef-NN65avOGrcUkfwmVhLObyHV45viLttyN2ix53BYqIo0nH8mvBAlOQe5R6SvHvr6LW2Trqs5VvgoZXuDl7P2-ljYg87JgVP-RhYqX7iWn_QhCyJv-yZmjaH", "width": 352}], "place_id": "ChIJjZQKtztqQg0ROVY3q5EVxqc", "plus_code": {"compound_code": "6JMW+4X Perales de Tajuña, Spain", "global_code": "8CGR6JMW+4X"}, "rating": 3.4, "reference": "ChIJjZQKtztqQg0ROVY3q5EVxqc", "scope": "GOOGLE", "types": ["general_contractor", "point_of_interest", "establishment"], "user_ratings_total": 5, "vicinity": "Calle Amargura, 12, Perales de Tajuña"}, {"business_status": "OPERATIONAL", "geometry": {"location": {"lat": 40.2437393, "lng": -3.3174926}, "viewport": {"northeast": {"lat": 40.2449896802915, "lng": -3.316079819708498}, "southwest": {"lat": 40.2422917197085, "lng": -3.318777780291502}}}, "icon": "https://maps.gstatic.com/mapfiles/place_api/icons/v1/png_71/school-71.png", "icon_background_color": "#7B9EB0", "icon_mask_base_uri": "https://maps.gstatic.com/mapfiles/place_api/icons/v2/school_pinlet", "international_phone_number": "+34 918 74 60 30", "name": "Colegio Público Carlos Ruiz", "place_id": "ChIJBZHoSsBpQg0RlOPEWF2VbW8", "plus_code": {"compound_code": "6MVM+F2 Tielmes, Spain", "global_code": "8CGR6MVM+F2"}, "reference": "ChIJBZHoSsBpQg0RlOPEWF2VbW8", "scope": "GOOGLE", "types": ["school", "point_of_interest", "establishment"], "vicinity": "Avenida del Ferrocarril, 8, Tielmes"}, {"business_status": "OPERATIONAL", "geometry": {"location": {"lat": 40.2451867, "lng": -3.3156198}, "viewport": {"northeast": {"lat": 40.24655953029151, "lng": -3.314231319708498}, "southwest": {"lat": 40.24386156970851, "lng": -3.316929280291502}}}, "icon": "https://maps.gstatic.com/mapfiles/place_api/icons/v1/png_71/generic_business-71.png", "icon_background_color": "#7B9EB0", "icon_mask_base_uri": "https://maps.gstatic.com/mapfiles/place_api/icons/v2/generic_pinlet", "international_phone_number": "+34 918 74 66 37", "name": "ascensores ferrera madrid, s.l", "place_id": "ChIJdexQQsFpQg0RLvpr9YJN8ic", "plus_code": {"compound_code": "6MWM+3Q Tielmes, Spain", "global_code": "8CGR6MWM+3Q"}, "rating": 5, "reference": "ChIJdexQQsFpQg0RLvpr9YJN8ic", "scope": "GOOGLE", "types": ["point_of_interest", "establishment"], "user_ratings_total": 1, "vicinity": "Calle de las Huertas, Nº41 Bajo, Tielmes"}, {"business_status": "OPERATIONAL", "geometry": {"location": {"lat": 40.2493807, "lng": -3.3145749}, "viewport": {"northeast": {"lat": 40.2507195302915, "lng": -3.313328269708498}, "southwest": {"lat": 40.2480215697085, "lng": -3.316026230291502}}}, "icon": "https://maps.gstatic.com/mapfiles/place_api/icons/v1/png_71/generic_business-71.png", "icon_background_color": "#7B9EB0", "icon_mask_base_uri": "https://maps.gstatic.com/mapfiles/place_api/icons/v2/generic_pinlet", "international_phone_number": "+34 637 72 39 54", "name": "Construcciones y Reformas CSP", "opening_hours": {"open_now": false}, "photos": [{"height": 4160, "html_attributions": ["<a href=\"https://maps.google.com/maps/contrib/115231507232915976132\">Encarni Castillo</a>"], "photo_reference": "AWn5SU58xfJQQEyPUjCIFKWZMSgJpK6gk0ZyRH4_JRZLDSI9zStu6PMSKDSq6xqQzw-woUrD0n6s2ohcWhOUFeo2HyHvEkT0iRhFgFGdP4bvSMIm9f7rLHf66NbjGC0tuGomlIp0bHEuuQwepb_fUhlApkChbkyK47uhokc8uNiLaW82rnaSV28qy2c1aACL5tE6RkYT9AAbJFuwnOLq4yoy61cPbHFA2TMEcL0PGKcAuDFB-WiuHVgpXTSbgr2S-zVt7u02qA84cP4DbQyEfvqOaoyPWCsziQPOZ375o15m7A0P-MQq-O8yB4WFuJ-UMOqtKH5ggHbIDgWTv9GUdb4qPJVOEcdqtDtDm9HS9Rjx_RApCSEL3zNwY4YMhaGb4ikN-LrkDhvh-y2anmoBrUA892AIu3sxfJq-DGs168Ky7tCL362UFbRuiVMLBIV65LB1XCt76ntgmWW2MYxTC4__582hX4qNM3ODf3GjXpO7h4cfWZ8Lq8dI-4wemhzTjW28JzkPr_-LsqhXNTQJ4md71hGEJ74wmTljuQp9Mz4HcSp_BnEIOS0TITrrn2p_bRF5IirMmNfTdhqtMvgs3hWjKHrUZU_JGfFy350GdB7M3fvX2Pt_kFy8Bm57PF2TI3Od8NNRfg", "width": 3120}], "place_id": "ChIJG_EYcsNpQg0RQRf1hfaYLC0", "plus_code": {"compound_code": "6MXP+Q5 Tielmes, Spain", "global_code": "8CGR6MXP+Q5"}, "reference": "ChIJG_EYcsNpQg0RQRf1hfaYLC0", "scope": "GOOGLE", "types": ["general_contractor", "point_of_interest", "establishment"], "vicinity": "Calle Marqués, 18, Tielmes"}, {"business_status": "OPERATIONAL", "geometry": {"location": {"lat": 40.25050299999999, "lng": -3.309899}, "viewport": {"northeast": {"lat": 40.25188788029149, "lng": -3.308426119708498}, "southwest": {"lat": 40.24918991970849, "lng": -3.311124080291502}}}, "icon": "https://maps.gstatic.com/mapfiles/place_api/icons/v1/png_71/generic_business-71.png", "icon_background_color": "#7B9EB0", "icon_mask_base_uri": "https://maps.gstatic.com/mapfiles/place_api/icons/v2/generic_pinlet", "international_phone_number": "+34 918 74 63 97", "name": "RIGARLAMP - LUXTIME ILUMINACIÓN", "opening_hours": {"open_now": false}, "photos": [{"height": 2126, "html_attributions": ["<a href=\"https://maps.google.com/maps/contrib/111894134208447793427\">RIGARLAMP ILUMINACIÓN - LUXTIME ILUMINACIÓN</a>"], "photo_reference": "AWn5SU6fnLdHReHIirLa7VypBHH54MPjU5dOrdNjaYgedEIgQsVejqtO-7VA8B-gqHA4mNXh9HsC0PpyUQWqjbFRYU4Vjn8vMF-N_DZDI1PRXcadnVwcMhRHegGIQbZB2izdGiuQNoXuGhBkHAX8YeewkhQPsJa3K4My-DgON93M-n2gS3ZNPhW1HAb7WbM89TjYjRfXfMHbVqoH0WkeBb-iTJWZYuKzQSZZmhu5ZYJ7YLsHA5W1uEUGSAfMCmH2IP3rRwlnIndsFjnOpNUG-Wbg_rM2rJgBYEAgXRTtBUIh-0qFuNqArhrgPTrWtdjJ2WjdhkfQcu8yXbo", "width": 2126}], "place_id": "ChIJ5YStQMVpQg0RRdGdiR6o6dY", "plus_code": {"compound_code": "7M2R+62 Tielmes, Spain", "global_code": "8CGR7M2R+62"}, "rating": 5, "reference": "ChIJ5YStQMVpQg0RRdGdiR6o6dY", "scope": "GOOGLE", "types": ["home_goods_store", "store", "point_of_interest", "establishment"], "user_ratings_total": 2, "vicinity": "Calle del Cercado, 13, Tielmes"}, {"business_status": "OPERATIONAL", "geometry": {"location": {"lat": 40.2412564, "lng": -3.321429499999999}, "viewport": {"northeast": {"lat": 40.2426030802915, "lng": -3.320038369708498}, "southwest": {"lat": 40.2399051197085, "lng": -3.322736330291502}}}, "icon": "https://maps.gstatic.com/mapfiles/place_api/icons/v1/png_71/generic_business-71.png", "icon_background_color": "#7B9EB0", "icon_mask_base_uri": "https://maps.gstatic.com/mapfiles/place_api/icons/v2/generic_pinlet", "international_phone_number": "+34 628 47 50 97", "name": "cerrajeria Briceño", "opening_hours": {"open_now": false}, "photos": [{"height": 1200, "html_attributions": ["<a href=\"https://maps.google.com/maps/contrib/116872295874115834849\">Cristina Diaz Aviles</a>"], "photo_reference": "AWn5SU4jnRNb6EqyzlgpIDzhvIf5iSnJmRDFxocwZdO8egO1-fYSxWPEBXq7Hu2Hk_MWPKP3X8izvukCScP6egnobuwZsAw9K1XTIiM_af3TDaWzJe9eYNpbPJ7rd_dQlGbvWT8vj6GDDir48p_qu8rDHccOHrovwVuVCAQUBa-zusLIonCqf1xNiR9zNp0BIoOGqxbg3mOwK-hDLPZU5Tx6OFpKoJPPvRfcmkUE2_dYlcTzbXBo1uDxDhWJbWgxSNzyFq3lRanUP3X2CqLwYxAY3gHtPGTaflKhv0bdVFEdHnCMknCKZH-AmUZPq67xvyNgj0EHYeT8lYqKaj1YkNrjD92IniPvZJYrAOrKEjDohqa_QRWs1j707o6Ap7ls2R_ERzQR8S_IbBmV1rLw2uF50uUG8dxyYGDsZ5nAzyrZDA7PhtL9bzR_FFo6Yk78XAM5co6Rw-9Wvbpy4vtKk7Hlx9NQrAD_eWeGrJ2oM_E-EVz2DSVJfP_pO9qsWHC2c-uNurSHzKGqWN_zxbSPQO_-_CQlSEsPJposEPPAQ8cYMS6xVN3hTGvO_cisGFIIFLkaIw21SgAXnHkTZ7iKP7AvIcBchSJIC8kB-E7SEPBqgkvWsxDnvy3FR9nKd8gzQWFF4fHTTyVMSz1sRU7FjxGMPg", "width": 1600}], "place_id": "ChIJqb1pKutpQg0RbY0O_AAPv4E", "plus_code": {"compound_code": "6MRH+GC Tielmes, Spain", "global_code": "8CGR6MRH+GC"}, "rating": 4.9, "reference": "ChIJqb1pKutpQg0RbY0O_AAPv4E", "scope": "GOOGLE", "types": ["locksmith", "store", "point_of_interest", "establishment"], "user_ratings_total": 27, "vicinity": "Calle Carretera de Perales, 73, Tielmes"}, {"business_status": "OPERATIONAL", "geometry": {"location": {"lat": 40.20736099999999, "lng": -3.318806}, "viewport": {"northeast": {"lat": 40.20887598029149, "lng": -3.317568019708498}, "southwest": {"lat": 40.20617801970849, "lng": -3.320265980291502}}}, "icon": "https://maps.gstatic.com/mapfiles/place_api/icons/v1/png_71/gas_station-71.png", "icon_background_color": "#909CE1", "icon_mask_base_uri": "https://maps.gstatic.com/mapfiles/place_api/icons/v2/gas_pinlet", "international_phone_number": "+34 918 75 51 76", "name": "Cepsa service station", "opening_hours": {"open_now": true}, "photos": [{"height": 3000, "html_attributions": ["<a href=\"https://maps.google.com/maps/contrib/100755111885042610947\">Luiz Fonseca</a>"], "photo_reference": "AWn5SU5ZoMzj__AceTMRmd41WX3klczUL0ziiszczU-MK5q-c7KscHWmO1ua-xYjbnJfxJWbqlfQ3gr0CB_RloByYUZodyEebFlQMVwSOXSWxsSSu-4zbVcuDvYh9EXN8kXossnJjNhHIIE6t77pCuXi8kAoBNGbB6ECdMb9NoscvVk8SsO9Jblj74W8evHVO4NZ6ivUy_HVwARpLw3Vo5jeOI-WBUpmE1tT1-ukNeR31RG6RO8pGGhyBGoyKRKmexhh5tGxIGTNmQOJByJEAR-XuieN67LAo1g8yBtcEr_07QMdy6zD9oYAJnHy0aFgTQF7p7Dq7-0fPbwuPv4f7cnZ3EGFgOiiYJAscI_FLCE-_B3BNQgZcUfOe4IWlKZNuWkFfd_tx27gTx9grE-m_SdgvNvIIjzXVYHyj2Rc3M6fdQ_l1pRbLEzZoINJomfmoIq9WdEi96htGUJmgqV2PHbw3HKpOyPOgcOhJcEAuHhlzsuMj_SOYV5aZho1St_oN8UEpYG-1V1ZVSNDSG83nKz4jeAHaolmrlcsCizpuformQ0ZEYeUOLkmPacBUlR8aFYP-9dhnewtVOHPiB-2YZeSZb-h5XfVzJcFNGo-XN3aadhQxbXBrCkMSWIw2PMWUyNT", "width": 3000}], "place_id": "ChIJFz687dPiZw0R7MoIm2feyfw", "plus_code": {"compound_code": "6M4J+WF Perales de Tajuña, Spain", "global_code": "8CGR6M4J+WF"}, "rating": 4.1, "reference": "ChIJFz687dPiZw0R7MoIm2feyfw", "scope": "GOOGLE", "types": ["gas_station", "point_of_interest", "establishment"], "user_ratings_total": 1445, "vicinity": "Autovía del Este, PK: 43, 3, Perales de Tajuña"}, {"business_status": "OPERATIONAL", "geometry": {"location": {"lat": 40.2483059, "lng": -3.2997024}, "viewport": {"northeast": {"lat": 40.2494329802915, "lng": -3.298334369708499}, "southwest": {"lat": 40.2467350197085, "lng": -3.301032330291502}}}, "icon": "https://maps.gstatic.com/mapfiles/place_api/icons/v1/png_71/restaurant-71.png", "icon_background_color": "#FF9E67", "icon_mask_base_uri": "https://maps.gstatic.com/mapfiles/place_api/icons/v2/restaurant_pinlet", "international_phone_number": "+34 918 76 16 07", "name": "Bmi Ibérica", "photos": [{"height": 3000, "html_attributions": ["<a href=\"https://maps.google.com/maps/contrib/100128718097010366024\">rodrigo neves</a>"], "photo_reference": "AWn5SU6YEETyZ_9CvmSfnIaPu2SGKfV2z143DAd6_mDCK0_T0jsbwiCn8nP_MvZacBmXzXe9g5BFzrXhBH72UGnY9lP6d1DLx81GyiPm0_XT7R6ahhUWgDkQWLanDwwOup3U0xAwmO-rvADR-SzflCZZxQvsEI9dS7QCIkgGUoKrvNnU4fxk_diieFChXjAr2krizH-YQiAl3-rgfz8qB3NciZ3EH9YmLU6M-5Jnxsixc4Mw4haU5-1-5NdKLrCWsZOOqSnbK-DJxEchYUrwTKy5YfbWmv2ayVhlWvi4LGAfxUvCkP0s87ZRufguVFkhnEOVHaCFwtvjbs1kWFLUhOauZn1hXkZIig4wwRucCzCjjI7WeOIwPTjtzonW2_CKpvaCOwhTf17rlsghG2xcDDbil5JvIeGXmbM3Dfm2hza__0DWFYGrnl6RV6kfcquufM48DUbHbFg-S8X0ccc7d6-_ZAPjgAo7Tuh_fe99267tk1aaEjr4kiU2NfQlyjKaejI0HOmHWTMssC0GCTAnyurL9HaMkkqg5acJwYrChPEYIHR0teREODDb1K6zt0DlFcs6xQcF--53bgMR4AaPeHJpgIgtFQGjEU2PpzPQcrrK9ixNkfpNwasouZD_nw64pd4ArCCeATEn", "width": 5333}], "place_id": "ChIJe-D2-sVpQg0RKT0Mr3GkrN4", "plus_code": {"compound_code": "6PX2+84 Tielmes, Spain", "global_code": "8CGR6PX2+84"}, "rating": 3.8, "reference": "ChIJe-D2-sVpQg0RKT0Mr3GkrN4", "scope": "GOOGLE", "types": ["bakery", "store", "food", "point_of_interest", "establishment"], "user_ratings_total": 20, "vicinity": "Carr. Ambite, 5, Tielmes"}, {"business_status": "OPERATIONAL", "geometry": {"location": {"lat": 40.24599599999999, "lng": -3.316066}, "viewport": {"northeast": {"lat": 40.2473914802915, "lng": -3.314767319708498}, "southwest": {"lat": 40.2446935197085, "lng": -3.317465280291501}}}, "icon": "https://maps.gstatic.com/mapfiles/place_api/icons/v1/png_71/bank-71.png", "icon_background_color": "#909CE1", "icon_mask_base_uri": "https://maps.gstatic.com/mapfiles/place_api/icons/v2/bank-intl_pinlet", "international_phone_number": "+34 918 74 65 26", "name": "Eurocaja Rural", "opening_hours": {"open_now": false}, "photos": [{"height": 1080, "html_attributions": ["<a href=\"https://maps.google.com/maps/contrib/110037575964237214564\">Ángel Sánchez</a>"], "photo_reference": "AWn5SU5WIIlwNNhQCh3SudXv9Q22uOcoKH2l8-iJys10_ZC_zybpdvJ5z35KbptIh8XWFKe8ofn8oHSZrkdbkHo6_fFBod0c2V5x3hw-1UGth0mli6pSXp8K3OvM5gYhpNgLV3zpfVkmoep-GX0lpkYc29O__AJG3fCA_rsPdV8lDqBNjb20lldO4Jce1lRyLBFmHQZQe7nbhPRucnccPJiRxwIuYjkmzb9BOPznKSUHZlqbpq3OuADJVJD5ywqSIlFPs2kZiKtBP3u3DoXpm-fusB2278pebtg3U2KxBy4aFlMxPL2LfK5314_vyj0LdH_ZFtZ2y-pvzn5V61P21zQ0cKK7aHTgnkfJp4OktVE1G-_lClchjNUYhC2vhpw4ZLfM-6ARgDg6reDRVV-RvmKuPUXucgd8N-cGx5y7MCzbDWqN2jelSw8tNI1mEM44KUJoUvD8FJ-HJn8IDd36MnmmpNREKiKcJedOZreZzrzIIbXttRCX_YghqIGWfWvMXalRvulfQMKj0fWOk-J3mJT7eGcs5WqLQ0HLuUlc7tInPNwGb8ascVEh3Z9eP8VlFuemRMzX2HAOt4P9rzpJm-8jPagN_Ik-xaBvUL6P1UKuUsnE3pfB66eGfzVHUriBNByJLIoZlA", "width": 1920}], "place_id": "ChIJtcH3fsFpQg0Rf8BFYN5oQg8", "plus_code": {"compound_code": "6MWM+9H Tielmes, Spain", "global_code": "8CGR6MWM+9H"}, "rating": 3.7, "reference": "ChIJtcH3fsFpQg0Rf8BFYN5oQg8", "scope": "GOOGLE", "types": ["bank", "atm", "finance", "point_of_interest", "establishment"], "user_ratings_total": 9, "vicinity": "Pz de la Iglesia, 7, Tielmes"}, {"business_status": "OPERATIONAL", "geometry": {"location": {"lat": 40.2351857, "lng": -3.3524244}, "viewport": {"northeast": {"lat": 40.2365412802915, "lng": -3.351105169708498}, "southwest": {"lat": 40.2338433197085, "lng": -3.353803130291502}}}, "icon": "https://maps.gstatic.com/mapfiles/place_api/icons/v1/png_71/generic_business-71.png", "icon_background_color": "#7B9EB0", "icon_mask_base_uri": "https://maps.gstatic.com/mapfiles/place_api/icons/v2/generic_pinlet", "international_phone_number": "+34 918 76 42 17", "name": "Ayza Asesores", "opening_hours": {"open_now": false}, "place_id": "ChIJc1EwdDxqQg0RFC4dcz84qwY", "plus_code": {"compound_code": "6JPX+32 Perales de Tajuña, Spain", "global_code": "8CGR6JPX+32"}, "rating": 5, "reference": "ChIJc1EwdDxqQg0RFC4dcz84qwY", "scope": "GOOGLE", "types": ["finance", "point_of_interest", "establishment"], "user_ratings_total": 6, "vicinity": "Calle Mayor Alta, 4, Perales de Tajuña"}, {"business_status": "OPERATIONAL", "geometry": {"location": {"lat": 40.2471418, "lng": -3.3061351}, "viewport": {"northeast": {"lat": 40.24858143029149, "lng": -3.304885869708498}, "southwest": {"lat": 40.2458834697085, "lng": -3.307583830291501}}}, "icon": "https://maps.gstatic.com/mapfiles/place_api/icons/v1/png_71/shopping-71.png", "icon_background_color": "#4B96F3", "icon_mask_base_uri": "https://maps.gstatic.com/mapfiles/place_api/icons/v2/shopping_pinlet", "international_phone_number": "+34 918 74 41 10", "name": "Alandi Gardens", "opening_hours": {"open_now": false}, "photos": [{"height": 2656, "html_attributions": ["<a href=\"https://maps.google.com/maps/contrib/102379851885524654645\">Alandi Gardens</a>"], "photo_reference": "AWn5SU6Um0TU4SEOfvpr7NDT-xQRfke6-MYFloHa2sAeGFxE0RjmpRFMhegA9FdtJHn8y9Vr0hAtktwqXgVJxc3CIP0NxWg5fFLkgnSQGtgvsMe57j1ijwrrdHNQyMV-ha5Q19HSHkWkxzfZzlmZ6jkUz71q91J6rw6qpjU5AI_Q8gY9Hp1RHKhWzfs5GlwDgxq9t8OFLHEWXaNdOSgGyShtoRKm3-xwbBCeo7WElZncwJyyi5mkjxs9X0rIY10FUh_LoV7Ylj-c-6N_nMf7FNj0LDH-w3pt2q6-Pd_PM_06p1hNRxD84uhfU_Yj0Qp_irlnjSdPIo3h1Mo", "width": 3984}], "place_id": "ChIJ6ZIsyUVvQg0RxTXBkDPBREU", "plus_code": {"compound_code": "6MWV+VG Tielmes, Spain", "global_code": "8CGR6MWV+VG"}, "rating": 4.4, "reference": "ChIJ6ZIsyUVvQg0RxTXBkDPBREU", "scope": "GOOGLE", "types": ["hardware_store", "pet_store", "store", "food", "point_of_interest", "establishment"], "user_ratings_total": 183, "vicinity": "Carretera Ambite, 4, Tielmes"}, {"business_status": "CLOSED_TEMPORARILY", "geometry": {"location": {"lat": 40.246371, "lng": -3.3148664}, "viewport": {"northeast": {"lat": 40.24775758029151, "lng": -3.313540969708498}, "southwest": {"lat": 40.24505961970851, "lng": -3.316238930291502}}}, "icon": "https://maps.gstatic.com/mapfiles/place_api/icons/v1/png_71/school-71.png", "icon_background_color": "#7B9EB0", "icon_mask_base_uri": "https://maps.gstatic.com/mapfiles/place_api/icons/v2/school_pinlet", "international_phone_number": "+34 918 73 78 51", "name": "AUTOESCUELA TRIUNFADA", "permanently_closed": true, "place_id": "ChIJ8bTW38NpQg0RhZ5kQj_zI74", "plus_code": {"compound_code": "6MWP+G3 Tielmes, Spain", "global_code": "8CGR6MWP+G3"}, "rating": 5, "reference": "ChIJ8bTW38NpQg0RhZ5kQj_zI74", "scope": "GOOGLE", "types": ["point_of_interest", "establishment"], "user_ratings_total": 2, "vicinity": "Calle de Cipriano Briceño, 10, Tielmes"}, {"business_status": "OPERATIONAL", "geometry": {"location": {"lat": 40.23307399999999, "lng": -3.355398}, "viewport": {"northeast": {"lat": 40.2343295302915, "lng": -3.354029119708498}, "southwest": {"lat": 40.2316315697085, "lng": -3.356727080291502}}}, "icon": "https://maps.gstatic.com/mapfiles/place_api/icons/v1/png_71/shopping-71.png", "icon_background_color": "#4B96F3", "icon_mask_base_uri": "https://maps.gstatic.com/mapfiles/place_api/icons/v2/shopping_pinlet", "international_phone_number": "+34 918 74 85 05", "name": "AutoDin", "opening_hours": {"open_now": false}, "place_id": "ChIJBetmDTlqQg0RvwnpQpC6p7w", "plus_code": {"compound_code": "6JMV+6R Perales de Tajuña, Spain", "global_code": "8CGR6JMV+6R"}, "rating": 4.1, "reference": "ChIJBetmDTlqQg0RvwnpQpC6p7w", "scope": "GOOGLE", "types": ["car_repair", "store", "point_of_interest", "establishment"], "user_ratings_total": 10, "vicinity": "Camino de la Tejera, 8, Perales de Tajuña"}, {"business_status": "OPERATIONAL", "geometry": {"location": {"lat": 40.2444494, "lng": -3.3136538}, "viewport": {"northeast": {"lat": 40.2456444802915, "lng": -3.312138819708498}, "southwest": {"lat": 40.2429465197085, "lng": -3.314836780291502}}}, "icon": "https://maps.gstatic.com/mapfiles/place_api/icons/v1/png_71/generic_business-71.png", "icon_background_color": "#7B9EB0", "icon_mask_base_uri": "https://maps.gstatic.com/mapfiles/place_api/icons/v2/generic_pinlet", "international_phone_number": "+34 918 74 66 44", "name": "Polideportivo", "opening_hours": {"open_now": false}, "photos": [{"height": 4032, "html_attributions": ["<a href=\"https://maps.google.com/maps/contrib/117807418053685599879\">Enmanuel Ocanto</a>"], "photo_reference": "AWn5SU7Ik1V2y0NHctiPv8NHG59YmDaTm-qesQH6yyysBHc0xCtbmljZhk1dy3cvIY8VtzJ7OAq7HTnzcYCxkR0glVOU6lkNd-6bEoKXB8nWd4CYhw61Lxd_l6ddUhJSrMoO1kr7ad6SsdRwNW8qr2ZtXmBuUZU8rRC9wq1IVrSPrFq7cTPgSMqoux7w3MIR1NUVwMi-vLddPmrzhelROoyW5N1L9o7o0d6_5csheqeYEU8uttD_7uDdtHikgIUOuY6HBB5h1zttBdn0zppvJd4riIO1IQCZgngX6C3X6MvhAx6wfnjkkfXTWfG0iwqJLiqR4uVwiDHaI-68wMoLhyGuTRlMFuUbCbqDnKuN1F9CsQI-c-RVAbOQjezsDO5C7VwrPXpax1IPZz-yiTLAAHHiDtcWguCfum2NsrFP6btnFxqdZex4J8GCDKaeFRjTi6KscTydEfQLZlZipv7qGphcIhHcagVv45-49Ispd9k9jQUfdshLBmNv8olTcnfnbrNiJKKDYIg162QZb0zWbkQo3rzJRsPM5gn8mHRSiwNAxL7eaK7qzOEJoGA94zTQsTtzYhfyEz96uxkGkuEsP2fl_wjYWPq-FD0D3xHcDQ0cBJV7_Bzj0IKcN9f0EcjOt2nilfIPKQ", "width": 3024}], "place_id": "ChIJH65lzcZpQg0R89FcuBVaKZM", "plus_code": {"compound_code": "6MVP+QG Tielmes, Spain", "global_code": "8CGR6MVP+QG"}, "rating": 4.5, "reference": "ChIJH65lzcZpQg0R89FcuBVaKZM", "scope": "GOOGLE", "types": ["point_of_interest", "establishment"], "user_ratings_total": 59, "vicinity": "Calle del Molino del Caz, 23, Tielmes"}, {"business_status": "OPERATIONAL", "geometry": {"location": {"lat": 40.2457286, "lng": -3.313412}, "viewport": {"northeast": {"lat": 40.2470872802915, "lng": -3.312204369708498}, "southwest": {"lat": 40.2443893197085, "lng": -3.314902330291502}}}, "icon": "https://maps.gstatic.com/mapfiles/place_api/icons/v1/png_71/generic_business-71.png", "icon_background_color": "#7B9EB0", "icon_mask_base_uri": "https://maps.gstatic.com/mapfiles/place_api/icons/v2/generic_pinlet", "international_phone_number": "+34 932 44 45 73", "name": "General Dental S.A.", "opening_hours": {"open_now": false}, "place_id": "ChIJBeJbrsZpQg0RGnTf69_qIFE", "plus_code": {"compound_code": "6MWP+7J Tielmes, Spain", "global_code": "8CGR6MWP+7J"}, "reference": "ChIJBeJbrsZpQg0RGnTf69_qIFE", "scope": "GOOGLE", "types": ["point_of_interest", "establishment"], "vicinity": "Paseo de la Estación, 4, Tielmes"}, {"business_status": "OPERATIONAL", "geometry": {"location": {"lat": 40.2457286, "lng": -3.313412}, "viewport": {"northeast": {"lat": 40.2470872802915, "lng": -3.312204369708498}, "southwest": {"lat": 40.2443893197085, "lng": -3.314902330291502}}}, "icon": "https://maps.gstatic.com/mapfiles/place_api/icons/v1/png_71/generic_business-71.png", "icon_background_color": "#7B9EB0", "icon_mask_base_uri": "https://maps.gstatic.com/mapfiles/place_api/icons/v2/generic_pinlet", "international_phone_number": "+34 918 73 76 30", "name": "Unión Dental S.A.", "opening_hours": {"open_now": false}, "place_id": "ChIJBeJbrsZpQg0Rdwm4maGDt64", "plus_code": {"compound_code": "6MWP+7J Tielmes, Spain", "global_code": "8CGR6MWP+7J"}, "rating": 1, "reference": "ChIJBeJbrsZpQg0Rdwm4maGDt64", "scope": "GOOGLE", "types": ["health", "point_of_interest", "establishment"], "user_ratings_total": 1, "vicinity": "Paseo de la Estación, 4, Tielmes"}, {"geometry": {"location": {"lat": 40.2937839, "lng": -3.3023856}, "viewport": {"northeast": {"lat": 40.30078574677538, "lng": -3.295430109221897}, "southwest": {"lat": 40.2878345703946, "lng": -3.308924896403841}}}, "icon": "https://maps.gstatic.com/mapfiles/place_api/icons/v1/png_71/geocode-71.png", "icon_background_color": "#7B9EB0", "icon_mask_base_uri": "https://maps.gstatic.com/mapfiles/place_api/icons/v2/generic_pinlet", "name": "Valdilecha", "photos": [{"height": 2448, "html_attributions": ["<a href=\"https://maps.google.com/maps/contrib/101290657350401769031\">Alberto Blázquez Bonilla</a>"], "photo_reference": "AWn5SU6tMw-tTzdcqCnoeyNG11cXUqeHgUnZuTSdb7z2FTtgtsJCzrl1zpJO95fq51PmqRgkeksLP9ZvJ9yyl9y6ATAcxsLoyVRAn8aczLXUCcKYCDR8fjs8X68cwnW2tKMbeCdIZzgr3bIg7x_ZtwPNgH6ZTUBVkT4oGCzF82RTRuS5iesXVL01JRnU7I7-AH2_gCPSLdTQcJIHgSDnPEpXZANcfcWa-RWfXCtLtMwP481xxS9lhC615h9B8OB0rKn85FHr-tIgWow3dHBI-EVnKx4nWtSmmPy1BERxaHXxak-SM0M6dkw--L-lfCDw-uJxiE6MutJRCeXWv0H_tL0RITsUwj5m7obYmjbq6S5FDqmGLEi7DRS9bfxEK1hMt9pbn3lsTmqLJbB_--rRmFY4Bv8MMNgRBAHmjKbSz_YDVyxzsXARfAE-IqRIi-xnAPloY5HiLwWGVprU17wMWoJAaBCCUypuUsRkH81AzaZibJw0WVH5OxdY-6nk_CdwMrSvsWQZ0RgpEB5QOYaithfQKnPchUBOs45EvDRHsezwvdNviZDRlA5R8-v9VhRDKVVk4tnKW7_kp3yqGhiM0A_KG-GwvzwRJfM1mLguyNQj9cwnB_1BMAMfz9lXwGtfzdSV6yPE7g", "width": 3264}], "place_id": "ChIJ7x-qG1dCQg0RKRdiDnXOaKQ", "reference": "ChIJ7x-qG1dCQg0RKRdiDnXOaKQ", "scope": "GOOGLE", "types": ["locality", "political"], "vicinity": "Valdilecha"}]