[{"business_status": "OPERATIONAL", "geometry": {"location": {"lat": 40.9920868, "lng": -3.6403377}, "viewport": {"northeast": {"lat": 40.9933164802915, "lng": -3.639144969708498}, "southwest": {"lat": 40.99061851970851, "lng": -3.641842930291503}}}, "icon": "https://maps.gstatic.com/mapfiles/place_api/icons/v1/png_71/school-71.png", "icon_background_color": "#7B9EB0", "icon_mask_base_uri": "https://maps.gstatic.com/mapfiles/place_api/icons/v2/school_pinlet", "international_phone_number": "+34 918 68 01 07", "name": "Public school Peñalta", "place_id": "ChIJzxsc1SLkQw0RMZPVsfcN50Q", "plus_code": {"compound_code": "X9R5+RV Buitrago del Lozoya, Spain", "global_code": "8CGRX9R5+RV"}, "reference": "ChIJzxsc1SLkQw0RMZPVsfcN50Q", "scope": "GOOGLE", "types": ["school", "point_of_interest", "establishment"], "vicinity": "Calle Peñalta, Buitrago del Lozoya"}, {"business_status": "OPERATIONAL", "geometry": {"location": {"lat": 40.98974599999999, "lng": -3.6392242}, "viewport": {"northeast": {"lat": 40.99108848029149, "lng": -3.637713319708498}, "southwest": {"lat": 40.9883905197085, "lng": -3.640411280291502}}}, "icon": "https://maps.gstatic.com/mapfiles/place_api/icons/v1/png_71/school-71.png", "icon_background_color": "#7B9EB0", "icon_mask_base_uri": "https://maps.gstatic.com/mapfiles/place_api/icons/v2/school_pinlet", "international_phone_number": "+34 918 68 02 00", "name": "GSD International School Buitrago", "opening_hours": {"open_now": false}, "photos": [{"height": 3840, "html_attributions": ["<a href=\"https://maps.google.com/maps/contrib/104456991215502440283\">GSD Intenational School Buitrago</a>"], "photo_reference": "AWn5SU6BGLOBTbiWe7hjLvLL-10ESNYqrSMPvVYZFDba2bBRMTM1I0gSPGmBFR5xXKq13Xu3oWQRfSjcGN7vFhXxTDGspHbCJQvkoq9L7a9to51AApQ_G8DMy_c0b2vNO-tptdteH-cfBJxgJxoXTFH2BPz1Jvh5Ul7PVDuBGPrzjesTl_Qz_nzZTbZ0JcU4c8e4S95WxSdrP0jSzPJGUYrtNuNxJwkl5fnK1aceAq3L4-QmBUElM1uqs_eZ2NvVITEiSuzROpPX-LuqNu953lzxGk1KrpCzrAmNXrVw-quNJ7ksfL_e5oKVB5bGzafaEGivL4ZOL_Lwws4", "width": 5760}], "place_id": "ChIJJ04hCyPkQw0RBgirP5oHlEE", "plus_code": {"compound_code": "X9Q6+V8 Buitrago del Lozoya, Spain", "global_code": "8CGRX9Q6+V8"}, "reference": "ChIJJ04hCyPkQw0RBgirP5oHlEE", "scope": "GOOGLE", "types": ["secondary_school", "school", "point_of_interest", "establishment"], "vicinity": "Avenida de Madrid, 16, Buitrago del Lozoya"}, {"business_status": "OPERATIONAL", "geometry": {"location": {"lat": 41.0054102, "lng": -3.670522100000001}, "viewport": {"northeast": {"lat": 41.0067575802915, "lng": -3.669189719708497}, "southwest": {"lat": 41.0040596197085, "lng": -3.671887680291501}}}, "icon": "https://maps.gstatic.com/mapfiles/place_api/icons/v1/png_71/school-71.png", "icon_background_color": "#7B9EB0", "icon_mask_base_uri": "https://maps.gstatic.com/mapfiles/place_api/icons/v2/school_pinlet", "name": "Escuela De Educación Infantil Casa De Niños Villavieja De Lozoya", "place_id": "ChIJs3kvz43jQw0RZvCD6HtEz2o", "plus_code": {"compound_code": "284H+5Q Villavieja del Lozoya, Spain", "global_code": "8CHR284H+5Q"}, "reference": "ChIJs3kvz43jQw0RZvCD6HtEz2o", "scope": "GOOGLE", "types": ["school", "point_of_interest", "establishment"], "vicinity": "Calle de la Fragua, 2, Villavieja del Lozoya"}, {"business_status": "OPERATIONAL", "geometry": {"location": {"lat": 41.0067354, "lng": -3.671607399999999}, "viewport": {"northeast": {"lat": 41.0080079802915, "lng": -3.670276419708498}, "southwest": {"lat": 41.0053100197085, "lng": -3.672974380291502}}}, "icon": "https://maps.gstatic.com/mapfiles/place_api/icons/v1/png_71/school-71.png", "icon_background_color": "#7B9EB0", "icon_mask_base_uri": "https://maps.gstatic.com/mapfiles/place_api/icons/v2/school_pinlet", "international_phone_number": "+34 651 16 34 15", "name": "Pianista, compositor", "opening_hours": {"open_now": false}, "photos": [{"height": 2237, "html_attributions": ["<a href=\"https://maps.google.com/maps/contrib/114227193317428057143\">Clases de piano Madrid</a>"], "photo_reference": "AWn5SU767MfyfyYQRPKMtFrO1t3oJAhLfenoQJ2wgreIwnMflFbjoK7iJyIHh0VtJp5zIAm819KzrvHsBIRkTjMtkebG_v187JAfwHWKF3HUYwfPWfEhoILjXx__vJ2pGB0cyy1ziZXMc7QZuJhpLSODhXd7c_N4DpW0OhCuHrQMMpGNsdo-pFp1o_D5lODvdv_eL8bSaa2B5w7VbiUgXNgmqPlRIB-XyuuNn-TnnSSeBGgDXwsk_ZleX9aT00FbYZ3FEo08nVpyLraoiu5-Ip-G2oVMH1GP1oSOH34sba33oruUQs-HIdJ_pduBpM6AAf6jHNmZJhIe7-4", "width": 2237}], "place_id": "ChIJH9PTxu0lQg0RJ0VRHg4Ihzg", "plus_code": {"compound_code": "284H+M9 Villavieja del Lozoya, Spain", "global_code": "8CHR284H+M9"}, "rating": 5, "reference": "ChIJH9PTxu0lQg0RJ0VRHg4Ihzg", "scope": "GOOGLE", "types": ["school", "point_of_interest", "establishment"], "user_ratings_total": 46, "vicinity": "Calle del Pez, 14, Villavieja del Lozoya"}, {"business_status": "OPERATIONAL", "geometry": {"location": {"lat": 41.00733689999999, "lng": -3.672114499999999}, "viewport": {"northeast": {"lat": 41.00871188029149, "lng": -3.670770269708498}, "southwest": {"lat": 41.00601391970849, "lng": -3.673468230291502}}}, "icon": "https://maps.gstatic.com/mapfiles/place_api/icons/v1/png_71/school-71.png", "icon_background_color": "#7B9EB0", "icon_mask_base_uri": "https://maps.gstatic.com/mapfiles/place_api/icons/v2/school_pinlet", "international_phone_number": "+34 918 68 42 01", "name": "Reno Arquelogía", "place_id": "ChIJW9cYGY7jQw0RcxVvHCylUSI", "plus_code": {"compound_code": "284H+W5 Villavieja del Lozoya, Spain", "global_code": "8CHR284H+W5"}, "reference": "ChIJW9cYGY7jQw0RcxVvHCylUSI", "scope": "GOOGLE", "types": ["school", "point_of_interest", "establishment"], "vicinity": "Carretera de la Sierra, 31, Villavieja del Lozoya"}, {"business_status": "OPERATIONAL", "geometry": {"location": {"lat": 40.9953869, "lng": -3.634536100000001}, "viewport": {"northeast": {"lat": 40.9967810302915, "lng": -3.633178019708498}, "southwest": {"lat": 40.9940830697085, "lng": -3.635875980291503}}}, "icon": "https://maps.gstatic.com/mapfiles/place_api/icons/v1/png_71/school-71.png", "icon_background_color": "#7B9EB0", "icon_mask_base_uri": "https://maps.gstatic.com/mapfiles/place_api/icons/v2/school_pinlet", "international_phone_number": "+34 918 68 01 33", "name": "Escuela De Educación Infantil Casa De Niños Buitrago De Lozoya", "place_id": "ChIJK74ArjvkQw0RGNazvBcv8Rs", "plus_code": {"compound_code": "X9W8+55 Buitrago del Lozoya, Spain", "global_code": "8CGRX9W8+55"}, "reference": "ChIJK74ArjvkQw0RGNazvBcv8Rs", "scope": "GOOGLE", "types": ["school", "point_of_interest", "establishment"], "vicinity": "Calle de San Salvador, 6, Buitrago del Lozoya"}, {"business_status": "OPERATIONAL", "geometry": {"location": {"lat": 41.0385762, "lng": -3.6421624}, "viewport": {"northeast": {"lat": 41.0399075802915, "lng": -3.640813219708498}, "southwest": {"lat": 41.0372096197085, "lng": -3.643511180291502}}}, "icon": "https://maps.gstatic.com/mapfiles/place_api/icons/v1/png_71/school-71.png", "icon_background_color": "#7B9EB0", "icon_mask_base_uri": "https://maps.gstatic.com/mapfiles/place_api/icons/v2/school_pinlet", "name": "La Escuela de Gandullas", "place_id": "ChIJvbs-KCHlQw0RLkTEEryaRQc", "plus_code": {"compound_code": "29Q5+C4 Gandullas, Spain", "global_code": "8CHR29Q5+C4"}, "reference": "ChIJvbs-KCHlQw0RLkTEEryaRQc", "scope": "GOOGLE", "types": ["school", "point_of_interest", "establishment"], "vicinity": "Calle de Buitrago, 3, Gandullas"}, {"business_status": "OPERATIONAL", "geometry": {"location": {"lat": 40.9632793, "lng": -3.716044499999999}, "viewport": {"northeast": {"lat": 40.9646285302915, "lng": -3.714768119708498}, "southwest": {"lat": 40.9619305697085, "lng": -3.717466080291502}}}, "icon": "https://maps.gstatic.com/mapfiles/place_api/icons/v1/png_71/school-71.png", "icon_background_color": "#7B9EB0", "icon_mask_base_uri": "https://maps.gstatic.com/mapfiles/place_api/icons/v2/school_pinlet", "international_phone_number": "+34 918 69 55 34", "name": "Escuela De Educación Infantil Casa De Niños El Barquito Chiquitito", "place_id": "ChIJu4wYsZbhQw0R-ApmWflyRsA", "plus_code": {"compound_code": "X77M+8H Gargantilla del Lozoya, Spain", "global_code": "8CGRX77M+8H"}, "reference": "ChIJu4wYsZbhQw0R-ApmWflyRsA", "scope": "GOOGLE", "types": ["school", "point_of_interest", "establishment"], "vicinity": "Avenida de la Estación, 21, Gargantilla del Lozoya"}]