[{"business_status": "OPERATIONAL", "geometry": {"location": {"lat": 40.3905495, "lng": -3.4830111}, "viewport": {"northeast": {"lat": 40.3918865302915, "lng": -3.482032919708498}, "southwest": {"lat": 40.3891885697085, "lng": -3.484730880291502}}}, "icon": "https://maps.gstatic.com/mapfiles/place_api/icons/v1/png_71/school-71.png", "icon_background_color": "#7B9EB0", "icon_mask_base_uri": "https://maps.gstatic.com/mapfiles/place_api/icons/v2/school_pinlet", "international_phone_number": "+34 916 79 25 51", "name": "Public School Europe", "opening_hours": {"open_now": false}, "place_id": "ChIJdX3U5pY5Qg0R0_iR_j-SXJg", "plus_code": {"compound_code": "9GR8+6Q Mejorada del Campo, Spain", "global_code": "8CGR9GR8+6Q"}, "reference": "ChIJdX3U5pY5Qg0R0_iR_j-SXJg", "scope": "GOOGLE", "types": ["point_of_interest", "school", "establishment"], "vicinity": "Avenida Juan Gris, 33, Mejorada del Campo"}, {"business_status": "OPERATIONAL", "geometry": {"location": {"lat": 40.39371380000001, "lng": -3.481056}, "viewport": {"northeast": {"lat": 40.39509473029151, "lng": -3.479718019708498}, "southwest": {"lat": 40.39239676970851, "lng": -3.482415980291501}}}, "icon": "https://maps.gstatic.com/mapfiles/place_api/icons/v1/png_71/school-71.png", "icon_background_color": "#7B9EB0", "icon_mask_base_uri": "https://maps.gstatic.com/mapfiles/place_api/icons/v2/school_pinlet", "international_phone_number": "+34 916 79 06 71", "name": "Escuela de Educación Infantil Municipal Pilocha", "opening_hours": {"open_now": false}, "photos": [{"height": 3024, "html_attributions": ["<a href=\"https://maps.google.com/maps/contrib/101070478947137688469\">David Estefany</a>"], "photo_reference": "AWn5SU5UvnTV1ia5O5j663YWPA86v06eX7B98v3zP8UVK-UmVOYp9cK9C61mxhHO5knOTKC50jBz5mDhGXnp985uNvY9ho4rZOt2ZKC17EslanCTKHqv5Bi-92h2LkaHWDux63YDS05_1CiAx-iQvJvT599Mrc6dLnTfaHhicpg1tIMJrLUhsdvsyEv3nGTnYW_6vDUKSt21fphzrYrCrIMJPdKmlRqZh0W_IRIFUx6ZUeRmcu6dNcQkmSzJLVcFRyN3IRxB0BCX1W11BcE8HuMjalYEi5O9m3kS8Jg2ua28hqwSowcxEGSd8Ua3hlOA-kyuflL5N64rmNc8ywCdH1YQSTQEnnbPwgscnUZX3qaI5nmtMftjOiccX5HK2vmJFf7dksAJBsDd2LoZ4bD59rS6ZIqHQMW-6QD7xU2ee4_WAtRoIOMh06VfKjlVlOGNqtmpTxZdN1VlTp_6YN2sHe_694gCxNT-aF6sCmJr2PBm45Z1ml65ZnlmKP4PLycSV5zw9g7y3uYGYXkIouD1apFy0aleuPAJfRzf3HVvEqPVgR4sJmG3BHdcQOqF2KGIsP6YpFUFQg3AlTMx65bnRPpagE1UV-qQKYKUhkq-Z8QzhXxS9Vpj8dqdmWswWh_jvMs19NUkwRNy", "width": 4032}], "place_id": "ChIJCfcFDpY5Qg0R3wIU3VMxYO0", "plus_code": {"compound_code": "9GV9+FH Mejorada del Campo, Spain", "global_code": "8CGR9GV9+FH"}, "rating": 4.7, "reference": "ChIJCfcFDpY5Qg0R3wIU3VMxYO0", "scope": "GOOGLE", "types": ["point_of_interest", "school", "establishment"], "user_ratings_total": 13, "vicinity": "Calle Antonio Machado, 10X, Mejorada del Campo"}, {"business_status": "OPERATIONAL", "geometry": {"location": {"lat": 40.39259070000001, "lng": -3.4805816}, "viewport": {"northeast": {"lat": 40.3937470802915, "lng": -3.479319469708498}, "southwest": {"lat": 40.39104911970851, "lng": -3.482017430291502}}}, "icon": "https://maps.gstatic.com/mapfiles/place_api/icons/v1/png_71/school-71.png", "icon_background_color": "#7B9EB0", "icon_mask_base_uri": "https://maps.gstatic.com/mapfiles/place_api/icons/v2/school_pinlet", "international_phone_number": "+34 916 79 02 44", "name": "Public School Miguel de Cervantes", "place_id": "ChIJeXUUJJE5Qg0RQBWX6qbMk7I", "plus_code": {"compound_code": "9GV9+2Q Mejorada del Campo, Spain", "global_code": "8CGR9GV9+2Q"}, "reference": "ChIJeXUUJJE5Qg0RQBWX6qbMk7I", "scope": "GOOGLE", "types": ["point_of_interest", "school", "establishment"], "vicinity": "Calle del Pintor Francisco de Goya, 3, Mejorada del Campo"}, {"business_status": "OPERATIONAL", "geometry": {"location": {"lat": 40.3995153, "lng": -3.4890642}, "viewport": {"northeast": {"lat": 40.4010103802915, "lng": -3.487729319708498}, "southwest": {"lat": 40.3983124197085, "lng": -3.490427280291502}}}, "icon": "https://maps.gstatic.com/mapfiles/place_api/icons/v1/png_71/school-71.png", "icon_background_color": "#7B9EB0", "icon_mask_base_uri": "https://maps.gstatic.com/mapfiles/place_api/icons/v2/school_pinlet", "international_phone_number": "+34 916 79 34 44", "name": "Public school Pablo Picasso", "photos": [{"height": 3264, "html_attributions": ["<a href=\"https://maps.google.com/maps/contrib/115154127491056259857\">monica bellon</a>"], "photo_reference": "AWn5SU7WlzIBivAgJBe1Bjy2gT4sjPxEV4ahO7FZ53iZIaNlRNlk0VUy1zMApn5VhZalpulI9yClec3moRlBvoPbYTL8gyEKEtsxv4L36k5u-XlA28iZk7s2iTBXBSdsEdfJPWSYk0zNftCvhwCOMbw39LKL2NNRWKcTJG9BIjt7i9xSgU5QxsFHiGeqo-UG4D0P3WPtle1UGOl-jLb3vPC2R8nQqw8L2X-OTLdrJJ_R7pARvlhMyGdxYSkd-cyaebmHO_M5-J_JSh1xX2XkO0NZ5wZDes4019YjZceVWfKi_QMN31GMBdyAdoKhIRfHIabP_AauZJlovU9tCLlWah3FsY5OwMNvhVe3NxXCCJnW4Kp561rsdohf9Xt5hiCAhbReqKbaWVpWizrs7nKoq77RXp0Gx-zkynuPEZMCetoUSR5nBaok2bHSFJQKGIwEYqDafuLMxg2nYutEJfAVFvzTks1VdsmRp6DTOgHixIiu0niKjWBrzCxSKQOwLiqzsmgJa_RNX9x9BsJxSqKZkP3LZRucZdRsWQZ9Fw-L7wTD2dec1COzNZZ0RaIvIXzAqzoyIAL6sEwoT4A2Y53R26thitGOR1KkjHHeDLfeUtkCJw3pDP0fIA1UyDO6UzJrIAtmjwKwrw", "width": 2448}], "place_id": "ChIJpTq4S-05Qg0RV9rW5M0fOhE", "plus_code": {"compound_code": "9GX6+R9 Mejorada del Campo, Spain", "global_code": "8CGR9GX6+R9"}, "reference": "ChIJpTq4S-05Qg0RV9rW5M0fOhE", "scope": "GOOGLE", "types": ["point_of_interest", "school", "establishment"], "vicinity": "Calle de Pablo Picasso, 30, Mejorada del Campo"}, {"business_status": "OPERATIONAL", "geometry": {"location": {"lat": 40.39469520000001, "lng": -3.4800954}, "viewport": {"northeast": {"lat": 40.3960486802915, "lng": -3.478899519708498}, "southwest": {"lat": 40.39335071970851, "lng": -3.481597480291502}}}, "icon": "https://maps.gstatic.com/mapfiles/place_api/icons/v1/png_71/school-71.png", "icon_background_color": "#7B9EB0", "icon_mask_base_uri": "https://maps.gstatic.com/mapfiles/place_api/icons/v2/school_pinlet", "international_phone_number": "+34 916 79 49 20", "name": "IES Los Olivos", "photos": [{"height": 2448, "html_attributions": ["<a href=\"https://maps.google.com/maps/contrib/103322360241594595399\">Vicente Camarasa</a>"], "photo_reference": "AWn5SU4ocS-WVvYwTAAZLRMK8VBQ0pL9eBM5ucreQ2rDxdOYsSzdwIQUSvupxaZbdv12V6jP8A-7po3MWGb0otNiecces9zHsSd5ckutB7zDWoTRqEYgHUJn4Bh_JwJVIH8_RqCMH2fuseb8g10gWV7gxDFlFDOwDHV2Oa3FUCjZSbHqFnYIo95KTU-rvA5K9zgOnUVKX1TTZwdjKhGCE4DjTfS-gkI7tAl0iaCvxr2F19Xo2tdhhgAVna_CEMCo-oj8dxPl6m29p0iiAq6LE7YQdLR7k-fU509gQlOXhW4N0LUkpPdMc_R0F1imbIk7awNRViirtRBWfUvCC52QIb0S6hW0btenu6_PoeY9m-eOT-1Fd8YrvAsR3z8lVkrHUbd1rrl6MgazopBLysMYx0FeoMSqmti7Zlqs-cCC4f4ukAb8C0eRcDj2w7RUltPpUGCHCVj7WYECCymC064lZ5fEBWevDViz29t2EirvHyVh1a2qA0xZ3LUvGyUQgDrBiYfqgTFAxWLO7dByzvq8-D2RYK0dugKpiqEnHmRBX6XVdLPiKtJLgEZTmBkuaNNIgRKQMhUAxT-3xppN4kPD-23udxRteMa8gQI0JfZg3OpSVhUQz5aTfCOhG2lOBrWP_8kY", "width": 3264}], "place_id": "ChIJQzdoH5Y5Qg0RXbwzT5HU7eg", "plus_code": {"compound_code": "9GV9+VX Mejorada del Campo, Spain", "global_code": "8CGR9GV9+VX"}, "reference": "ChIJQzdoH5Y5Qg0RXbwzT5HU7eg", "scope": "GOOGLE", "types": ["point_of_interest", "school", "establishment"], "vicinity": "Calle de Joan Miró, 1, Mejorada del Campo"}, {"business_status": "OPERATIONAL", "geometry": {"location": {"lat": 40.3965068, "lng": -3.486805}, "viewport": {"northeast": {"lat": 40.3977886302915, "lng": -3.485441369708498}, "southwest": {"lat": 40.3950906697085, "lng": -3.488139330291502}}}, "icon": "https://maps.gstatic.com/mapfiles/place_api/icons/v1/png_71/school-71.png", "icon_background_color": "#7B9EB0", "icon_mask_base_uri": "https://maps.gstatic.com/mapfiles/place_api/icons/v2/school_pinlet", "international_phone_number": "+34 916 79 22 63", "name": "Colegio Público Jarama", "opening_hours": {"open_now": false}, "place_id": "ChIJQ1XGppM5Qg0RZfnsUIzwtx0", "plus_code": {"compound_code": "9GW7+J7 Mejorada del Campo, Spain", "global_code": "8CGR9GW7+J7"}, "reference": "ChIJQ1XGppM5Qg0RZfnsUIzwtx0", "scope": "GOOGLE", "types": ["secondary_school", "point_of_interest", "school", "establishment"], "vicinity": "Calle de la Virgen de las Angustias, 2, Mejorada del Campo"}, {"business_status": "OPERATIONAL", "geometry": {"location": {"lat": 40.3964312, "lng": -3.485240499999999}, "viewport": {"northeast": {"lat": 40.3977951802915, "lng": -3.483771369708498}, "southwest": {"lat": 40.3950972197085, "lng": -3.486469330291502}}}, "icon": "https://maps.gstatic.com/mapfiles/place_api/icons/v1/png_71/school-71.png", "icon_background_color": "#7B9EB0", "icon_mask_base_uri": "https://maps.gstatic.com/mapfiles/place_api/icons/v2/school_pinlet", "international_phone_number": "+34 916 79 05 20", "name": "Colegio Público Jarama", "place_id": "ChIJS4EZeZQ5Qg0R7jPBF4Cn1s8", "plus_code": {"compound_code": "9GW7+HW Mejorada del Campo, Spain", "global_code": "8CGR9GW7+HW"}, "reference": "ChIJS4EZeZQ5Qg0R7jPBF4Cn1s8", "scope": "GOOGLE", "types": ["point_of_interest", "school", "establishment"], "vicinity": "Calle del Doctor Gonzalo Sierra, 6, Mejorada del Campo"}, {"business_status": "OPERATIONAL", "geometry": {"location": {"lat": 40.39940819999999, "lng": -3.489086099999999}, "viewport": {"northeast": {"lat": 40.4007345802915, "lng": -3.487794869708498}, "southwest": {"lat": 40.3980366197085, "lng": -3.490492830291502}}}, "icon": "https://maps.gstatic.com/mapfiles/place_api/icons/v1/png_71/school-71.png", "icon_background_color": "#7B9EB0", "icon_mask_base_uri": "https://maps.gstatic.com/mapfiles/place_api/icons/v2/school_pinlet", "international_phone_number": "+34 916 68 03 19", "name": "Comunidad Autónoma de Madrid Centros de Educación", "place_id": "ChIJh3NKSu05Qg0RoLx5E56Kx7E", "plus_code": {"compound_code": "9GX6+Q9 Mejorada del Campo, Spain", "global_code": "8CGR9GX6+Q9"}, "reference": "ChIJh3NKSu05Qg0RoLx5E56Kx7E", "scope": "GOOGLE", "types": ["point_of_interest", "school", "establishment"], "vicinity": "Calle de Pablo Picasso, 30, Mejorada del Campo"}, {"business_status": "OPERATIONAL", "geometry": {"location": {"lat": 40.3985328, "lng": -3.4848965}, "viewport": {"northeast": {"lat": 40.3998696802915, "lng": -3.483609469708498}, "southwest": {"lat": 40.3971717197085, "lng": -3.486307430291502}}}, "icon": "https://maps.gstatic.com/mapfiles/place_api/icons/v1/png_71/school-71.png", "icon_background_color": "#7B9EB0", "icon_mask_base_uri": "https://maps.gstatic.com/mapfiles/place_api/icons/v2/school_pinlet", "international_phone_number": "+34 635 86 36 85", "name": "Mi Casita del Trébol", "opening_hours": {"open_now": false}, "photos": [{"height": 444, "html_attributions": ["<a href=\"https://maps.google.com/maps/contrib/100811164970356976032\">Mi Casita del Trébol</a>"], "photo_reference": "AWn5SU42dcx98Tft-zoMW7dHENs8HsxefM7V0Xxgp9kG9gDp1yfVCyXHvSuZtH0oldtof8mqWYcmhSGobX916DHoZqvH0Pdg-bU3n7WFzOGPXMTC4GbUe3YCr7e7LnCwYrRXu8_SDpE_qOs9mt8UOOmGSAUZDBGDSYGrHGKdAUN-Uohw7KQnC1Nsrt8pvFRSA_Gj6O-A3HW9ffKCiWs9CbyDz5USldY0bERgDAT2Bs1XsvyUqHAycv8wEVroqYidbMjkSl1SUx8fhk8ybB9fICIxG5_vAsYQWYOjoEYvd6_hrVO1QdL1KXl4lMQ5HKROifq74QksZs1JwSI", "width": 604}], "place_id": "ChIJc5nmvNw5Qg0RoLOpgE6q3gQ", "plus_code": {"compound_code": "9GX8+C2 Mejorada del Campo, Spain", "global_code": "8CGR9GX8+C2"}, "rating": 5, "reference": "ChIJc5nmvNw5Qg0RoLOpgE6q3gQ", "scope": "GOOGLE", "types": ["point_of_interest", "school", "establishment"], "user_ratings_total": 3, "vicinity": "Calle el Trebol, 9, Mejorada del Campo"}, {"business_status": "OPERATIONAL", "geometry": {"location": {"lat": 40.3972249, "lng": -3.4915292}, "viewport": {"northeast": {"lat": 40.3985573302915, "lng": -3.490134619708499}, "southwest": {"lat": 40.3958593697085, "lng": -3.492832580291502}}}, "icon": "https://maps.gstatic.com/mapfiles/place_api/icons/v1/png_71/school-71.png", "icon_background_color": "#7B9EB0", "icon_mask_base_uri": "https://maps.gstatic.com/mapfiles/place_api/icons/v2/school_pinlet", "international_phone_number": "+34 916 79 24 83", "name": "Escuela de Educación Infantil las Cigueñas", "opening_hours": {"open_now": false}, "photos": [{"height": 2304, "html_attributions": ["<a href=\"https://maps.google.com/maps/contrib/104325840676855202449\">mercedes l</a>"], "photo_reference": "AWn5SU6TMwkBvWDeR28QQIfkK8cqZDzfQHszFOs-YMEb39tztHlOlLQTqK7MR0dib0U7KSqNk0k8IM9NAKag2eCcUF8d2Nd3CBCyqWXp3A09i1xDfo6bRB8SkP9pB2dSv30zHuDqUH6kIlMJTVQEL_cUoASsLGOUSWWnD7Q-SVcGMByeKiHTIfHWdHUPQHfKwvpoE5RvJHxEeUZU6ojzl8LL8q6DVziyaS07YlmQbUPIuzMY-Ex7Nkwh7gSxIvKZAgedcdq-zuEpkqakKdctOvr9pjMkaEB5RAeqevxDlBNiynnUdJQaRfrHx7EanGXeH12ukQXZ2VnzbZy9_WM0CW5ET5hB6eKs7UVeEUGaDD6ghg4jCLoit1kR0Edf5Vw_pOUXWexeWtAyu9ZPNCsmZqFZJxjP5B1LfxiuA32Nt9anoB44uLqaN5kzzkEacugqjPj0SeBQ8j26SJmD5aPstAL2YlUVEJBVdVos7fFCyTXmfwsLCYtCTTlkSBIeic6ru0-mkau3DQUFJsGy4Fj2qstjfbqCAhqM-H_Sj40MPLZsnLX2w_XMiuYgs4koy_7QcEDu0pvmEm22qmqBzXWZ1Nn7mwzvoyEgeZDtu9ZBXqyVbnk9dUBl23DxNsLTCBNJZc35TUmQrw", "width": 4096}], "place_id": "ChIJp-GAdI05Qg0RGQORdQHcWy4", "plus_code": {"compound_code": "9GW5+V9 Mejorada del Campo, Spain", "global_code": "8CGR9GW5+V9"}, "reference": "ChIJp-GAdI05Qg0RGQORdQHcWy4", "scope": "GOOGLE", "types": ["point_of_interest", "school", "establishment"], "vicinity": "Calle de Daoiz y Velarde, 0, Mejorada del Campo"}, {"business_status": "OPERATIONAL", "geometry": {"location": {"lat": 40.4000691, "lng": -3.4854106}, "viewport": {"northeast": {"lat": 40.4013734802915, "lng": -3.484068469708498}, "southwest": {"lat": 40.3986755197085, "lng": -3.486766430291502}}}, "icon": "https://maps.gstatic.com/mapfiles/place_api/icons/v1/png_71/school-71.png", "icon_background_color": "#7B9EB0", "icon_mask_base_uri": "https://maps.gstatic.com/mapfiles/place_api/icons/v2/school_pinlet", "international_phone_number": "+34 682 52 24 29", "name": "colegio catolico estresante", "opening_hours": {"open_now": false}, "place_id": "ChIJs_jTxfQ5Qg0RT06ZNs8eFQ8", "plus_code": {"compound_code": "CG27+2R Mejorada del Campo, Spain", "global_code": "8CGRCG27+2R"}, "reference": "ChIJs_jTxfQ5Qg0RT06ZNs8eFQ8", "scope": "GOOGLE", "types": ["point_of_interest", "school", "establishment"], "vicinity": "Avenida de los Toreros, 45, Mejorada del Campo"}, {"business_status": "OPERATIONAL", "geometry": {"location": {"lat": 40.39313670000001, "lng": -3.4915206}, "viewport": {"northeast": {"lat": 40.3944856802915, "lng": -3.490171619708498}, "southwest": {"lat": 40.39178771970851, "lng": -3.492869580291502}}}, "icon": "https://maps.gstatic.com/mapfiles/place_api/icons/v1/png_71/school-71.png", "icon_background_color": "#7B9EB0", "icon_mask_base_uri": "https://maps.gstatic.com/mapfiles/place_api/icons/v2/school_pinlet", "name": "Pedagogía Terapeutica Ainhoa", "place_id": "ChIJ5eYiKs85Qg0RsVZCvnz22C0", "plus_code": {"compound_code": "9GV5+79 Mejorada del Campo, Spain", "global_code": "8CGR9GV5+79"}, "reference": "ChIJ5eYiKs85Qg0RsVZCvnz22C0", "scope": "GOOGLE", "types": ["point_of_interest", "school", "establishment"], "vicinity": "Paseo del Arenero, Mejorada del Campo"}, {"business_status": "OPERATIONAL", "geometry": {"location": {"lat": 40.3969471, "lng": -3.4805638}, "viewport": {"northeast": {"lat": 40.3983600802915, "lng": -3.479226919708498}, "southwest": {"lat": 40.3956621197085, "lng": -3.481924880291502}}}, "icon": "https://maps.gstatic.com/mapfiles/place_api/icons/v1/png_71/school-71.png", "icon_background_color": "#7B9EB0", "icon_mask_base_uri": "https://maps.gstatic.com/mapfiles/place_api/icons/v2/school_pinlet", "international_phone_number": "+34 916 68 15 09", "name": "Public school Henares", "photos": [{"height": 2988, "html_attributions": ["<a href=\"https://maps.google.com/maps/contrib/104843405354026987202\">Aída Rodríguez</a>"], "photo_reference": "AWn5SU6Vx2XJJ7BA5YTXZxOKJPOm2hY1iLKMJ6DLxzTee5g6xArHy_p-aAIxIQxOFMT4nRdi3pgIrWaLWR0UxZDpG3WxVseuQ51IuCtVIi5ncdyRwHqttnWcAuHOoslEZgATyRfnFiLalSZ_06oyCWye-BbqOixft0HKfVeVpLxIoYhr3L0CE2h3hS5FAejDzrDs_KRu2RsIXC3AIqpBMp7m0RctWonl_uizntDnL_sdh4p0Jh3OCrDBA2g4ZjjGlH4TmB0JnfFx-0ZxaS1MMejYpk8WT0FhgAtexZN50LJKnV0eWfBL7GM-6cGuT6DjfEZOLEg3Px1dUFTaUAcuteMvyR0NhBlruKfEU40bQJSt3ToiCyKLg1AIUnn-1PDeCcK0JxEWTE9mJMnglk4ND-hQza7CAZcE-dOUC-Q3ayPzvTUjEubmFv2TTCZHlhVG_LkqsfIzf_iR2IMpeZMKG4ybu65E-Va8NEXP53ME6maN8Wd9rhrzhAwT58ZX8lZNPDGpdIaBuGJrL7CGnVVpIdunWoR9ZVF37AAfVP9-FMcGwpG6a8udITeHf7wx0-_BnXITgZxi9AytX1XDMI64kCQmSfBwSMYQnMeLOPuk1azYj8AaP8cQX8zyN8_NhM6edoTo_dvL0g", "width": 3984}], "place_id": "ChIJ2_N8d5U5Qg0RyjRBtPcpR98", "plus_code": {"compound_code": "9GW9+QQ Mejorada del Campo, Spain", "global_code": "8CGR9GW9+QQ"}, "reference": "ChIJ2_N8d5U5Qg0RyjRBtPcpR98", "scope": "GOOGLE", "types": ["point_of_interest", "school", "establishment"], "vicinity": "Calle de la Ciudad de París, 24, Mejorada del Campo"}, {"business_status": "OPERATIONAL", "geometry": {"location": {"lat": 40.39066949999999, "lng": -3.4845098}, "viewport": {"northeast": {"lat": 40.39212248029149, "lng": -3.482838869708498}, "southwest": {"lat": 40.38942451970849, "lng": -3.485536830291502}}}, "icon": "https://maps.gstatic.com/mapfiles/place_api/icons/v1/png_71/school-71.png", "icon_background_color": "#7B9EB0", "icon_mask_base_uri": "https://maps.gstatic.com/mapfiles/place_api/icons/v2/school_pinlet", "international_phone_number": "+34 916 68 01 43", "name": "IES Miguel Delibes", "opening_hours": {"open_now": false}, "photos": [{"height": 808, "html_attributions": ["<a href=\"https://maps.google.com/maps/contrib/107010113161042437384\">Raquel Blanco</a>"], "photo_reference": "AWn5SU5u0HWDastPYF_dwh2HBQS4earptrMki0oDOWguF9u2HDqYdUTV5VaNLFq_UNOv7uoRJVtvEbO1yKj0S0-0vg2gKuPc1RQOfGH7p1Y20jcueXnj_rcsk271HkU80tiOQfwHh0ejSMEdfcw2ZTJTbH6WJyioLa1QQL9K96a7dQwgzNTW0vHJfwwdjHB7E0z1fPsZ-xkndgyCIg6-DNOZrFuBk6Y7tx63pB_Vih5lYDOV9WoY_XD0zBJYcMymdTltKUHTiTXX_2xFqQUTi1RtZR2-Ts-sOJaI7N-rAWH6USfIZd2uawctOe5EXpOqXnT3F9mmtl33KI8nRYYkQHi8HJ9GrBtent2o2W68N78tPle0B06ag2_pRwBNOuKxDHffHhNEHN13Z7U20O6nzW_2jDSVow59qER-6LKWdpHrPP4gr723R8qglqANr2YbwT2bFeFCWOUL5JZ9u5ulPBjAaFwFDIYFeDytBuT2jFwQkxsjhLO6lrGUupbYw0vAbeuhEVwbkF2JxMdMh3dvYKFRXj7yE_ADWHmWG_TEf2VJz43zxn8MSfLZD_nJXBeVjCFrmDYZlMjkbvBk7aBAb30r8Y_saYYgm5z8NpOgvTieW3JCZqlj2oWnYRjO2q66wwGjw5Oigg", "width": 675}], "place_id": "ChIJZSqqIpc5Qg0RkD4kEUKWYTQ", "plus_code": {"compound_code": "9GR8+75 Mejorada del Campo, Spain", "global_code": "8CGR9GR8+75"}, "reference": "ChIJZSqqIpc5Qg0RkD4kEUKWYTQ", "scope": "GOOGLE", "types": ["secondary_school", "point_of_interest", "school", "establishment"], "vicinity": "Avenida Juan Gris, 44, Mejorada del Campo"}, {"business_status": "OPERATIONAL", "geometry": {"location": {"lat": 40.3752725, "lng": -3.4843994}, "viewport": {"northeast": {"lat": 40.3765787802915, "lng": -3.483389669708498}, "southwest": {"lat": 40.3738808197085, "lng": -3.486087630291502}}}, "icon": "https://maps.gstatic.com/mapfiles/place_api/icons/v1/png_71/school-71.png", "icon_background_color": "#7B9EB0", "icon_mask_base_uri": "https://maps.gstatic.com/mapfiles/place_api/icons/v2/school_pinlet", "international_phone_number": "+34 916 60 86 19", "name": "Public school Francisco Tomás y Valiente", "opening_hours": {"open_now": false}, "place_id": "ChIJb7ReH3Q5Qg0RZtXrazdMSM4", "plus_code": {"compound_code": "9GG8+46 Velilla de San Antonio, Spain", "global_code": "8CGR9GG8+46"}, "reference": "ChIJb7ReH3Q5Qg0RZtXrazdMSM4", "scope": "GOOGLE", "types": ["point_of_interest", "school", "establishment"], "vicinity": "Calle Paulonia, 2, Velilla de San Antonio"}]