[{"business_status": "OPERATIONAL", "geometry": {"location": {"lat": 40.7472962, "lng": -3.5127702}, "viewport": {"northeast": {"lat": 40.7486308302915, "lng": -3.511424419708498}, "southwest": {"lat": 40.7459328697085, "lng": -3.514122380291502}}}, "icon": "https://maps.gstatic.com/mapfiles/place_api/icons/v1/png_71/parking-71.png", "icon_background_color": "#7B9EB0", "icon_mask_base_uri": "https://maps.gstatic.com/mapfiles/place_api/icons/v2/parking_pinlet", "name": "Báscula municipal", "place_id": "ChIJ-dU8UQDFQw0RuPGgq6-g7pg", "plus_code": {"compound_code": "PFWP+WV Talamanca de Jarama, Spain", "global_code": "8CGRPFWP+WV"}, "reference": "ChIJ-dU8UQDFQw0RuPGgq6-g7pg", "scope": "GOOGLE", "types": ["parking", "point_of_interest", "establishment"], "vicinity": "Calle de la Soledad, 2D, Talamanca de Jarama"}, {"business_status": "OPERATIONAL", "geometry": {"location": {"lat": 40.743332, "lng": -3.5121281}, "viewport": {"northeast": {"lat": 40.74471303029149, "lng": -3.510771069708498}, "southwest": {"lat": 40.7420150697085, "lng": -3.513469030291501}}}, "icon": "https://maps.gstatic.com/mapfiles/place_api/icons/v1/png_71/parking-71.png", "icon_background_color": "#7B9EB0", "icon_mask_base_uri": "https://maps.gstatic.com/mapfiles/place_api/icons/v2/parking_pinlet", "name": "Aparcamiento público", "opening_hours": {"open_now": true}, "place_id": "ChIJC0aKsQ_PQw0RK9MP9diWfXU", "plus_code": {"compound_code": "PFVQ+84 Talamanca de Jarama, Spain", "global_code": "8CGRPFVQ+84"}, "rating": 4.5, "reference": "ChIJC0aKsQ_PQw0RK9MP9diWfXU", "scope": "GOOGLE", "types": ["parking", "point_of_interest", "establishment"], "user_ratings_total": 4, "vicinity": "Avenida de Alcalá, 9, Talamanca de Jarama"}, {"business_status": "OPERATIONAL", "geometry": {"location": {"lat": 40.7080216, "lng": -3.423877}, "viewport": {"northeast": {"lat": 40.7093701302915, "lng": -3.422526319708499}, "southwest": {"lat": 40.7066721697085, "lng": -3.425224280291502}}}, "icon": "https://maps.gstatic.com/mapfiles/place_api/icons/v1/png_71/parking-71.png", "icon_background_color": "#7B9EB0", "icon_mask_base_uri": "https://maps.gstatic.com/mapfiles/place_api/icons/v2/parking_pinlet", "name": "Aparcamiento de movilidad reducida", "place_id": "ChIJZ3NnCgDJQw0RcYZDhBocdX8", "plus_code": {"compound_code": "PH5G+6C El Casar, Spain", "global_code": "8CGRPH5G+6C"}, "rating": 1, "reference": "ChIJZ3NnCgDJQw0RcYZDhBocdX8", "scope": "GOOGLE", "types": ["parking", "point_of_interest", "establishment"], "user_ratings_total": 1, "vicinity": "El Casar"}, {"business_status": "OPERATIONAL", "geometry": {"location": {"lat": 40.7076399, "lng": -3.4240601}, "viewport": {"northeast": {"lat": 40.7089763802915, "lng": -3.422659319708498}, "southwest": {"lat": 40.7062784197085, "lng": -3.425357280291502}}}, "icon": "https://maps.gstatic.com/mapfiles/place_api/icons/v1/png_71/parking-71.png", "icon_background_color": "#7B9EB0", "icon_mask_base_uri": "https://maps.gstatic.com/mapfiles/place_api/icons/v2/parking_pinlet", "name": "Aparcamiento ALDI", "place_id": "ChIJP7geb6rJQw0RplkRzWI0XH0", "plus_code": {"compound_code": "PH5G+39 El Casar, Spain", "global_code": "8CGRPH5G+39"}, "rating": 4.8, "reference": "ChIJP7geb6rJQw0RplkRzWI0XH0", "scope": "GOOGLE", "types": ["parking", "point_of_interest", "establishment"], "user_ratings_total": 8, "vicinity": "Calle del Hierro, s/n"}]