[{"business_status": "OPERATIONAL", "geometry": {"location": {"lat": 40.499167, "lng": -4.2393025}, "viewport": {"northeast": {"lat": 40.5005312302915, "lng": -4.237915969708498}, "southwest": {"lat": 40.4978332697085, "lng": -4.240613930291502}}}, "icon": "https://maps.gstatic.com/mapfiles/place_api/icons/v1/png_71/generic_business-71.png", "icon_background_color": "#7B9EB0", "icon_mask_base_uri": "https://maps.gstatic.com/mapfiles/place_api/icons/v2/generic_pinlet", "international_phone_number": "+34 918 99 60 04", "name": "POLICLINICA MR", "opening_hours": {"open_now": false}, "photos": [{"height": 900, "html_attributions": ["<a href=\"https://maps.google.com/maps/contrib/104827223603131449294\">POLICLINICA MR</a>"], "photo_reference": "AWn5SU6eybOvHvNhZ5scJU-Br49LInmbchhzrIGuPTYinVaQw2pCeLzylzex55_967S84bHiE2h4gW7AELGfQlJ13a6ftf-N6Axg5wVUyL35UfDg17Mxya2z3eeOKf8PnpE1vpXYbMvET-mA8LicbGj5xNPDbDJJ6OGTnEiCwmvlTtWCZaGrWOI6Xk3OI1G9XWX8j3pGa7noMSazTtBvOc07cy8q7l-6Bg7GYGIXYuboWgDRAe1yIrRhjPseKhGDOs9qCTRW-K2pZCl5ArzXXeVE7nsrFF5ifcn9t9p59AJnhkQNXhwxJWBK-m4CYXmDDaV7bk8DOCdPl8A", "width": 1600}], "place_id": "ChIJ6-gQ49mpQQ0RcQaaSAi2d-Y", "plus_code": {"compound_code": "FQX6+M7 Robledo de Chavela, Spain", "global_code": "8CGQFQX6+M7"}, "rating": 4.5, "reference": "ChIJ6-gQ49mpQQ0RcQaaSAi2d-Y", "scope": "GOOGLE", "types": ["hospital", "gym", "doctor", "health", "point_of_interest", "establishment"], "user_ratings_total": 26, "vicinity": "Avenida de la Constitución, 26 posterior, local 7, Robledo de Chavela"}, {"business_status": "OPERATIONAL", "geometry": {"location": {"lat": 40.4990955, "lng": -4.2367482}, "viewport": {"northeast": {"lat": 40.5006376802915, "lng": -4.235266469708498}, "southwest": {"lat": 40.4979397197085, "lng": -4.237964430291503}}}, "icon": "https://maps.gstatic.com/mapfiles/place_api/icons/v1/png_71/generic_business-71.png", "icon_background_color": "#7B9EB0", "icon_mask_base_uri": "https://maps.gstatic.com/mapfiles/place_api/icons/v2/generic_pinlet", "name": "Centro deportivo Elisadero", "opening_hours": {"open_now": false}, "photos": [{"height": 3472, "html_attributions": ["<a href=\"https://maps.google.com/maps/contrib/112443922761845824826\">Carlos Fernández</a>"], "photo_reference": "AWn5SU6tYtDiU4xXfpSl6SM9_NslMxn9Bc9Wp2-GuJWkw3GxXfx57h_Uy2e4aNkDLLgLL3ODVdGNE4gmbFuZySn4at8IZX3pJDxtMVeOcDSUR3Y63NIflqxpQe4ovm4x2vRGwGArUOgxR1LWzZf5JWcAWVOOw96oncog3E8VnmQw_JdDXlX31Hoa2euJujLsFwM7yH-qb4FQlvA9zV1m47peAnpMQVIyhWutfDNy33k81YY10sQM26cR-19x0KNKTinDhs-7DdwUnQ2mOwqW7yqSchK4QqNFwOXchL6_EEfz74_6zzyPMZLzqPXJdNKUTu3wbiq7Bs2ZXsrogWxMiX0PTUczZUmbIsOu2llpCnUbsn7Is6d9N2QZvxJz-WFrDkGw72zPiDwUE6sg8oambo2vfBle_XLVZTEX1BSI41WzaQXWKosXO__G4g39RRqH4wfldBFyNkltLsG2jE9qRxVwiBbe6YsQ1KdFaU0OEzmiU4ywPMtyalODu41m6Fkl6ZCGGM9AxcUQuGh3_zGISVEcKA7yO98DeIn7ULM4l5HoSsWjRVVOG4jphaRWnp6-mo_ay2UElE0DHtPLBOsKUpzy835xrme6bFBfs8udT3WTGOFs1eW-L5JjXaHhhgu3Qn28xNR0CJ5_", "width": 4624}], "place_id": "ChIJfwcdx7SpQQ0RqLv0v32gsyk", "plus_code": {"compound_code": "FQX7+J8 Robledo de Chavela, Spain", "global_code": "8CGQFQX7+J8"}, "rating": 4.4, "reference": "ChIJfwcdx7SpQQ0RqLv0v32gsyk", "scope": "GOOGLE", "types": ["gym", "health", "point_of_interest", "establishment"], "user_ratings_total": 74, "vicinity": "Calle Elisadero, Robledo de Chavela"}, {"business_status": "OPERATIONAL", "geometry": {"location": {"lat": 40.52832089999999, "lng": -4.2521988}, "viewport": {"northeast": {"lat": 40.52919204999999, "lng": -4.250942349999999}, "southwest": {"lat": 40.52570745000002, "lng": -4.25596815}}}, "icon": "https://maps.gstatic.com/mapfiles/place_api/icons/v1/png_71/generic_business-71.png", "icon_background_color": "#7B9EB0", "icon_mask_base_uri": "https://maps.gstatic.com/mapfiles/place_api/icons/v2/generic_pinlet", "name": "El boulder", "place_id": "ChIJsbpwJNipQQ0RpccYk2hw614", "plus_code": {"compound_code": "GPHX+84 Río Cofio, Spain", "global_code": "8CGQGPHX+84"}, "reference": "ChIJsbpwJNipQQ0RpccYk2hw614", "scope": "GOOGLE", "types": ["gym", "health", "point_of_interest", "establishment"], "vicinity": "Río Cofio"}, {"business_status": "OPERATIONAL", "geometry": {"location": {"lat": 40.5092289, "lng": -4.303059}, "viewport": {"northeast": {"lat": 40.5105457302915, "lng": -4.301722619708498}, "southwest": {"lat": 40.5078477697085, "lng": -4.304420580291502}}}, "icon": "https://maps.gstatic.com/mapfiles/place_api/icons/v1/png_71/generic_business-71.png", "icon_background_color": "#7B9EB0", "icon_mask_base_uri": "https://maps.gstatic.com/mapfiles/place_api/icons/v2/generic_pinlet", "name": "Gimnasio Municipal Valdemaqueda", "opening_hours": {"open_now": false}, "place_id": "ChIJJUBuLACpQQ0RNcx4ZJvih7E", "plus_code": {"compound_code": "GM5W+MQ Valdemaqueda, Spain", "global_code": "8CGQGM5W+MQ"}, "reference": "ChIJJUBuLACpQQ0RNcx4ZJvih7E", "scope": "GOOGLE", "types": ["gym", "health", "point_of_interest", "establishment"], "vicinity": "Avenida Acacias, 13, Valdemaqueda"}, {"business_status": "OPERATIONAL", "geometry": {"location": {"lat": 40.4853094, "lng": -4.1704145}, "viewport": {"northeast": {"lat": 40.4866700302915, "lng": -4.169267019708498}, "southwest": {"lat": 40.48397206970851, "lng": -4.171964980291502}}}, "icon": "https://maps.gstatic.com/mapfiles/place_api/icons/v1/png_71/generic_business-71.png", "icon_background_color": "#7B9EB0", "icon_mask_base_uri": "https://maps.gstatic.com/mapfiles/place_api/icons/v2/generic_pinlet", "name": "Pistas de pádel municipales", "place_id": "ChIJuSYeFHynQQ0RN00SDXd4HPQ", "plus_code": {"compound_code": "FRPH+4R Fresnedillas de la Oliva, Spain", "global_code": "8CGQFRPH+4R"}, "reference": "ChIJuSYeFHynQQ0RN00SDXd4HPQ", "scope": "GOOGLE", "types": ["gym", "health", "point_of_interest", "establishment"], "vicinity": "Calle UA-26, 28D, Fresnedillas de la Oliva"}, {"business_status": "OPERATIONAL", "geometry": {"location": {"lat": 40.4850534, "lng": -4.1701628}, "viewport": {"northeast": {"lat": 40.48637398029149, "lng": -4.168725869708497}, "southwest": {"lat": 40.48367601970849, "lng": -4.171423830291502}}}, "icon": "https://maps.gstatic.com/mapfiles/place_api/icons/v1/png_71/generic_business-71.png", "icon_background_color": "#7B9EB0", "icon_mask_base_uri": "https://maps.gstatic.com/mapfiles/place_api/icons/v2/generic_pinlet", "international_phone_number": "+34 918 98 90 09", "name": "Polideportivo y Piscina municipal", "opening_hours": {"open_now": false}, "photos": [{"height": 3008, "html_attributions": ["<a href=\"https://maps.google.com/maps/contrib/112128352531905315432\">Alma María Ruiz Garvi</a>"], "photo_reference": "AWn5SU6yBCezDRO7sH0ZGtzdwbk8xanxjQOyIPsrzda8SzJokziIxahGgED8Ym_P1rzzRlYXpMQg3NpwtYxrClfzhyJNobjKr7JTY-EATBJIn4B-8JXBkix0UpOnJWIR1ECWrE9llWtvSZk4_SWkJHn_FkKobX7Acd-nNrBJCl6NRatSWPVwtfROOZszGcJ08HDQgLgGfPC7Wqe5fbqGybfeCDslFm-K6YzFX4OjvXFscf8yhXlXUzlqx862hHYA-FNVH7Lw-C5X4Qb8ThzCtGDi3xiTGF56o35JfNPLZxGOjnNWbSkaI6G61Eio46e8X9GmTHKXhQbuD3EKI8W69JRlzBmu5QpmI5wQ_h6b_6QUZOmawGClyRCkznLoqcV7EzIrBni8H_4K60SYad2Ny2MQSLKMasljfHHWDRu5eez5LsIAG-CNckgxFSCUF8LloslH6Ehr84dx55I1dCwQXqnw66mwM1s9RJxSLG-COIrHbbJFbc0OGoQD5G78oPTIW9FdpAfdFhKO_dvlrZHQ_XQUUQ79feC0NAo9oD08y1FkWyu7qu8RRmz-1TzDAyXd-kiicU4rtclKk5f06TLScwV3eBxr2ZPEZ8cXvwmTeZgKhNuWzjqaBztwrKWqqY5WCnOjbQPgHBTK", "width": 4016}], "place_id": "ChIJ44UgRKKmQQ0REz0wqLzkD_0", "plus_code": {"compound_code": "FRPH+2W Fresnedillas de la Oliva, Spain", "global_code": "8CGQFRPH+2W"}, "rating": 4.6, "reference": "ChIJ44UgRKKmQQ0REz0wqLzkD_0", "scope": "GOOGLE", "types": ["gym", "health", "point_of_interest", "establishment"], "user_ratings_total": 12, "vicinity": "Calle del Caño, 2D, Fresnedillas de la Oliva"}, {"business_status": "OPERATIONAL", "geometry": {"location": {"lat": 40.4825461, "lng": -4.169721300000001}, "viewport": {"northeast": {"lat": 40.4838978302915, "lng": -4.168360719708498}, "southwest": {"lat": 40.4811998697085, "lng": -4.171058680291502}}}, "icon": "https://maps.gstatic.com/mapfiles/place_api/icons/v1/png_71/school-71.png", "icon_background_color": "#7B9EB0", "icon_mask_base_uri": "https://maps.gstatic.com/mapfiles/place_api/icons/v2/school_pinlet", "international_phone_number": "+34 656 35 46 59", "name": "Laura Muskan yoga, suelo pélvico y movimiento consciente en San Lorenzo de el Escorial", "opening_hours": {"open_now": false}, "photos": [{"height": 577, "html_attributions": ["<a href=\"https://maps.google.com/maps/contrib/113821832825766585258\">Laura Muskan yoga, suelo pélvico y movimiento consciente en San Lorenzo de el Escorial</a>"], "photo_reference": "AWn5SU54N9ZfCU8yjaNz_5yOdvrV6FOKAxmHBDaR9zEZCRUn9dqIHo354zUg12Z48WfamrOQh1opqiIglavVPH1dwyoFw75rpkU7MH024AZqObSvLMARUJImknxGGFto8m2UxZ912G9DOu5X72bBw2bkbxwkZnfm88Qvz-Ec2_pHJOE23TvZhcS4m7wqzKWI8fy2sI8LtASnmERhLzmnE27GcbzrcQqe0C9DsjZSA1EvXAACulAk1vE2jMsH0t9-i9Yjv7unT7lLM5nbqYUPCNnSFXNTnzajTYfa_vMY4aKgWlKMmO_rIJOVoA1p1evypFIk8Fbmu5qzNas", "width": 828}], "place_id": "ChIJcU6kFL4LQQ0RhW7dmrS1MqE", "plus_code": {"compound_code": "FRMJ+24 Fresnedillas de la Oliva, Spain", "global_code": "8CGQFRMJ+24"}, "rating": 5, "reference": "ChIJcU6kFL4LQQ0RhW7dmrS1MqE", "scope": "GOOGLE", "types": ["gym", "health", "point_of_interest", "establishment"], "user_ratings_total": 21, "vicinity": "Calle de las Hoyuelas, 12, Fresnedillas de la Oliva"}]