[{"business_status": "OPERATIONAL", "geometry": {"location": {"lat": 40.5049458, "lng": -4.2345133}, "viewport": {"northeast": {"lat": 40.50609668029151, "lng": -4.233215119708499}, "southwest": {"lat": 40.50339871970851, "lng": -4.235913080291503}}}, "icon": "https://maps.gstatic.com/mapfiles/place_api/icons/v1/png_71/bank-71.png", "icon_background_color": "#909CE1", "icon_mask_base_uri": "https://maps.gstatic.com/mapfiles/place_api/icons/v2/bank-intl_pinlet", "international_phone_number": "+34 918 99 81 40", "name": "Banco Santander Agentes", "opening_hours": {"open_now": false}, "photos": [{"height": 720, "html_attributions": ["<a href=\"https://maps.google.com/maps/contrib/116542643415724531837\">Banco Santander Agentes</a>"], "photo_reference": "AWn5SU5yOtya1EpzLHYyD9r8_VifzYYXZQTlrUPEqBlEDJ7NztYNSQPKFPHyOnjQ43AXuhcB5AmNkAFHHULQCmxHY-XRKm9XhHePM2_9uWKGyVgV9Qrg9ru-NcDszkf3yYHuT_ulf3iN4gfTrGEPM9PcbbWhUaeIKMvdIwAANpn9Xpw4RjbWd5NFUoyCqm1lI0Ifjc4Wsgbkch2Ww3mPck9T9qV0s62fK8LMo-LxauOF1Xat_5H2rT3KxQyk2a5Y8CzL1e2_4SN3ZZqhrZCUyO-mjF4fYu-u2cK3kN3vj5Go-brMy2LS2Lf0Y2v7w-Ss9JRdGyFm7OPSwsk", "width": 1280}], "place_id": "ChIJHbtur56oQQ0R7ZgreITPUJE", "plus_code": {"compound_code": "GQ38+X5 Robledo de Chavela, Spain", "global_code": "8CGQGQ38+X5"}, "rating": 2, "reference": "ChIJHbtur56oQQ0R7ZgreITPUJE", "scope": "GOOGLE", "types": ["bank", "atm", "finance", "point_of_interest", "establishment"], "user_ratings_total": 1, "vicinity": "Plaza de España, 19, Robledo de Chavela"}, {"business_status": "OPERATIONAL", "geometry": {"location": {"lat": 40.50133799999999, "lng": -4.238045800000001}, "viewport": {"northeast": {"lat": 40.50271308029149, "lng": -4.236673369708499}, "southwest": {"lat": 40.50001511970849, "lng": -4.239371330291504}}}, "icon": "https://maps.gstatic.com/mapfiles/place_api/icons/v1/png_71/atm-71.png", "icon_background_color": "#909CE1", "icon_mask_base_uri": "https://maps.gstatic.com/mapfiles/place_api/icons/v2/atm_pinlet", "name": "Santander ATM", "opening_hours": {"open_now": true}, "place_id": "ChIJZRJ0ApyoQQ0RokdlbY3szRY", "plus_code": {"compound_code": "GQ26+GQ Robledo de Chavela, Spain", "global_code": "8CGQGQ26+GQ"}, "reference": "ChIJZRJ0ApyoQQ0RokdlbY3szRY", "scope": "GOOGLE", "types": ["atm", "finance", "point_of_interest", "establishment"], "vicinity": ""}, {"business_status": "OPERATIONAL", "geometry": {"location": {"lat": 40.50148359999999, "lng": -4.2377512}, "viewport": {"northeast": {"lat": 40.5028748302915, "lng": -4.236392769708498}, "southwest": {"lat": 40.5001768697085, "lng": -4.239090730291503}}}, "icon": "https://maps.gstatic.com/mapfiles/place_api/icons/v1/png_71/atm-71.png", "icon_background_color": "#909CE1", "icon_mask_base_uri": "https://maps.gstatic.com/mapfiles/place_api/icons/v2/atm_pinlet", "international_phone_number": "+34 900 404 090", "name": "ATM CaixaBank - Cajero", "opening_hours": {"open_now": true}, "photos": [{"height": 681, "html_attributions": ["<a href=\"https://maps.google.com/maps/contrib/110732256263158453372\">ATM CaixaBank - Cajero</a>"], "photo_reference": "AWn5SU5huQislZGzsSadaLdZJnX68uUkerUfwQgreWg3HfKNO-8akRxMKILy2PgPm-rpl1SVnLEBBZBBFkiw6Cnl_cBD0mFfmxqP2les-bVAIhHbQ3iigLmw6uws-NYYQZ4bYFFbov7tGSSmKm0shvpsK6ocLhcK1SetK2LL5NA9PW2LKqhOBHDgNfry8En2BohO9-FiDzbf3A13meupDbFGmx9wZ3HqOCDf6yOBoXLpwRZ-kxjq8DJONF2jZ8TbbEnkktChXioG9l9lkXg8CwRfqfvg9H49Z04ZK2-FZ85sH7kAF4tvvt0ooiZSrqIkIfuq4Pvp6H3B", "width": 1024}], "place_id": "ChIJVSLAVJCpQQ0RIkIKlapQXR8", "plus_code": {"compound_code": "GQ26+HV Robledo de Chavela, Spain", "global_code": "8CGQGQ26+HV"}, "reference": "ChIJVSLAVJCpQQ0RIkIKlapQXR8", "scope": "GOOGLE", "types": ["atm", "finance", "point_of_interest", "establishment"], "vicinity": "Av. Juan Carlos I, 6, Robledo de Chavela"}, {"business_status": "OPERATIONAL", "geometry": {"location": {"lat": 40.560227, "lng": -4.243849699999999}, "viewport": {"northeast": {"lat": 40.5616644802915, "lng": -4.242572319708497}, "southwest": {"lat": 40.5589665197085, "lng": -4.245270280291502}}}, "icon": "https://maps.gstatic.com/mapfiles/place_api/icons/v1/png_71/atm-71.png", "icon_background_color": "#909CE1", "icon_mask_base_uri": "https://maps.gstatic.com/mapfiles/place_api/icons/v2/atm_pinlet", "name": "Punto Nickel - SIDRERIA LA CASONA - LOTERIAS Nº95890", "opening_hours": {"open_now": false}, "place_id": "ChIJDWOXw9AHQQ0RY10P6gTaxCM", "plus_code": {"compound_code": "HQ64+3F La Paradilla, Spain", "global_code": "8CGQHQ64+3F"}, "reference": "ChIJDWOXw9AHQQ0RY10P6gTaxCM", "scope": "GOOGLE", "types": ["atm", "bank", "finance", "point_of_interest", "establishment"], "vicinity": "Calle Cebadal, 25, La Paradilla"}]