[{"business_status": "OPERATIONAL", "geometry": {"location": {"lat": 40.1844251, "lng": -3.106222499999999}, "viewport": {"northeast": {"lat": 40.18578333029149, "lng": -3.104861769708498}, "southwest": {"lat": 40.18308536970849, "lng": -3.107559730291502}}}, "icon": "https://maps.gstatic.com/mapfiles/place_api/icons/v1/png_71/atm-71.png", "icon_background_color": "#909CE1", "icon_mask_base_uri": "https://maps.gstatic.com/mapfiles/place_api/icons/v2/atm_pinlet", "international_phone_number": "+34 900 404 090", "name": "ATM CaixaBank - Cajero", "opening_hours": {"open_now": true}, "photos": [{"height": 681, "html_attributions": ["<a href=\"https://maps.google.com/maps/contrib/111581122136104578997\">ATM CaixaBank - Cajero</a>"], "photo_reference": "AWn5SU4ydK1Z3ODPs7CvGJ4gLdhi1jx9FvjJ-d-jdycFIUxNeJsRjwVzQQhot9pkOYmFx0qaux-a6YMsPXtw-QDDfg3RisxWCrHJdYmeIyW7BcDsWYpyTI0-spDt67jjXnGCSpWBZjVn5ZWj6hB-DHGMZ8Sw7i8hNDwPPzX-kZp31H4X8jCJYUDMhGoOE2-JK_4KMtXmr_nOTQo9xzAcSONxDlPygHb1BqsGFHoPk8I2IjdlTCm1l32v4nrJ85n1PQbW9YwuExBrppNV858mAq1Q95EFuIX8cAzXNWTnU5l7xhl67bwyv99nezbqWuGq5eKNWWa4fI0t4Mg", "width": 1024}], "place_id": "ChIJyX4VpNFjQg0RyR4UNVQlr8s", "plus_code": {"compound_code": "5VMV+QG Estremera, Spain", "global_code": "8CGR5VMV+QG"}, "reference": "ChIJyX4VpNFjQg0RyR4UNVQlr8s", "scope": "GOOGLE", "types": ["atm", "finance", "point_of_interest", "establishment"], "vicinity": "Pl. Juan Carlos I, 15, Estremera"}, {"business_status": "OPERATIONAL", "geometry": {"location": {"lat": 40.18450499999999, "lng": -3.106288}, "viewport": {"northeast": {"lat": 40.1858411302915, "lng": -3.104930769708498}, "southwest": {"lat": 40.1831431697085, "lng": -3.107628730291502}}}, "icon": "https://maps.gstatic.com/mapfiles/place_api/icons/v1/png_71/bank-71.png", "icon_background_color": "#909CE1", "icon_mask_base_uri": "https://maps.gstatic.com/mapfiles/place_api/icons/v2/bank-intl_pinlet", "international_phone_number": "+34 918 76 14 00", "name": "CaixaBank Agrobank", "opening_hours": {"open_now": false}, "place_id": "ChIJlxahkvRjQg0R6oJIWjd3tao", "plus_code": {"compound_code": "5VMV+RF Estremera, Spain", "global_code": "8CGR5VMV+RF"}, "reference": "ChIJlxahkvRjQg0R6oJIWjd3tao", "scope": "GOOGLE", "types": ["bank", "atm", "finance", "point_of_interest", "establishment"], "vicinity": "Plaza de Don Juan Carlos I, 15, Estremera"}, {"business_status": "OPERATIONAL", "geometry": {"location": {"lat": 40.230053, "lng": -3.10935}, "viewport": {"northeast": {"lat": 40.2314087802915, "lng": -3.108022319708498}, "southwest": {"lat": 40.2287108197085, "lng": -3.110720280291501}}}, "icon": "https://maps.gstatic.com/mapfiles/place_api/icons/v1/png_71/atm-71.png", "icon_background_color": "#909CE1", "icon_mask_base_uri": "https://maps.gstatic.com/mapfiles/place_api/icons/v2/atm_pinlet", "international_phone_number": "+34 900 404 090", "name": "ATM CaixaBank - Cajero", "opening_hours": {"open_now": true}, "photos": [{"height": 900, "html_attributions": ["<a href=\"https://maps.google.com/maps/contrib/110600201033109833884\">ATM CaixaBank - Cajero</a>"], "photo_reference": "AWn5SU7gslQ9feOLNp90rtg2QkCVOuWO3AJ2G4vpBIhyUTLjpqgh5XFnj8pB0Zsp5hEasmxrZGbbX4KV1chr1NpKpZisKNjqI9RSFC6cX7yIIOPP8sKT_f6eZD5y0LforgJYZ_blu7j2lumUKg9Of2hFNoDdHEjt3wntxu6pqYXy7Nwugy69Opj2EXUOem-00bTkK-IVvGvdg04Tlsbwfw-X7fSy3jxBxha08JTVa7WByUyHEgTZjxMnJPKGPFkgNEdfN_CUQ3Oc7F2bInO3oB_YmpfInX17zPic5GCx_7JvfyLU6OtMVTq34dviZQ8R7lvYZ4cQ0gDcUb0", "width": 1600}], "place_id": "ChIJb-Y6eFZhQg0R3Vt_e5P-S_Y", "plus_code": {"compound_code": "6VJR+27 Brea de Tajo, Spain", "global_code": "8CGR6VJR+27"}, "reference": "ChIJb-Y6eFZhQg0R3Vt_e5P-S_Y", "scope": "GOOGLE", "types": ["atm", "finance", "point_of_interest", "establishment"], "vicinity": "Plaza De La Concepcion 1, Brea de Tajo"}]