[{"business_status": "OPERATIONAL", "geometry": {"location": {"lat": 40.9181858, "lng": -3.844599900000001}, "viewport": {"northeast": {"lat": 40.9195920302915, "lng": -3.843168569708498}, "southwest": {"lat": 40.9168940697085, "lng": -3.845866530291503}}}, "icon": "https://maps.gstatic.com/mapfiles/place_api/icons/v1/png_71/pharmacy-71.png", "icon_background_color": "#F88181", "icon_mask_base_uri": "https://maps.gstatic.com/mapfiles/place_api/icons/v2/pharmacy_pinlet", "international_phone_number": "+34 918 69 01 65", "name": "Farmacia Alameda del Valle", "opening_hours": {"open_now": false}, "photos": [{"height": 1600, "html_attributions": ["<a href=\"https://maps.google.com/maps/contrib/105881822293832677297\">Farmacia Alameda del Valle</a>"], "photo_reference": "AWn5SU6tR2xmhuDxKaNYAQ014UI-myrtlwt1DsKInEBRlfyBfIHoUwA27paYCLhi6JxEtCbAfLkafsOlDy5zkoihsBRHnS0Rn03RDGmUPrs7O9_bjlRAbIlmjPg5l8zi7qoxlHrPprdb3cq1CGH6hxNhew6v8ZagMORS8yQURgogL3NZr4FQUowpF8uvt1tg0GEypJ7FzGfuYuCC3jQS9aN2RoC0_x2pHT6os1gDbIjRE2zoyF2WX2c211Iq0dqNQjG9OzY-895heMjewF_SWBUkuqFom_nJDK8wCZCtRG0YUNQNllWO5S1e0HqO8LqFWWGkp4LWKGvtHiU", "width": 1200}], "place_id": "ChIJrWmSefFdQQ0RqwOf-ittQQY", "plus_code": {"compound_code": "W594+75 Alameda del Valle, Spain", "global_code": "8CGRW594+75"}, "rating": 4.7, "reference": "ChIJrWmSefFdQQ0RqwOf-ittQQY", "scope": "GOOGLE", "types": ["pharmacy", "store", "health", "point_of_interest", "establishment"], "user_ratings_total": 15, "vicinity": "Calle de la Fragua, 41, Alameda del Valle"}, {"business_status": "OPERATIONAL", "geometry": {"location": {"lat": 40.90502059999999, "lng": -3.8782964}, "viewport": {"northeast": {"lat": 40.9064043802915, "lng": -3.877013569708497}, "southwest": {"lat": 40.9037064197085, "lng": -3.879711530291502}}}, "icon": "https://maps.gstatic.com/mapfiles/place_api/icons/v1/png_71/pharmacy-71.png", "icon_background_color": "#F88181", "icon_mask_base_uri": "https://maps.gstatic.com/mapfiles/place_api/icons/v2/pharmacy_pinlet", "international_phone_number": "+34 918 69 14 88", "name": "Farmacia Martin", "opening_hours": {"open_now": false}, "photos": [{"height": 1920, "html_attributions": ["<a href=\"https://maps.google.com/maps/contrib/109329502575333693861\">Eva</a>"], "photo_reference": "AWn5SU5hqafv_1tKBC7bFJ17Wo_Y4sMYy7iKa14cI1vPvz3Ridbc4pJWR_-y7FkN-aykaV6VTibg7-KMcPYTC9qaXz0PRGUbO9x66h6xbQ5m3YK28zdwELy750Ge8zVZoQZTO8XE_OTw6TMmvq__9PQ_96IB3SAj9xOSsOWH1kV1GCgVsUM7jTNilg9ORXka2bvAiZ2VGKHPDi8-gg_9xYc4IxijdDsZpYYqgJUsGITPcTB1NvzqKIV5-PnrdLKLH-He-ZeZ1PdlkhTa7l6RGvyU6cJjEjadh6y_WjgmEkzF8uqN7I7RiVGahkyYxB8ioqpA4VgdO3DDoXl06K5ubxQDu7uHaFGtm2HE_C1eo0UT_YyWw_Ot5grCZN41HYdXEX4dd-4zOB_lVUj2ikq8hWtICupBUTMU0Q0N0qnxfY8jWix3XHjQoagIGX6CAdxBcY0MmImoNAG4zZHelWiVmfwJtOFN127wOhCeDeU_PUS40QW53ggkts-7DDpcooIA7bRP_dOi319bP3FECx-qjSvZ9eHUXVi4XGnU_FOwCfV0gsVtJKSWQ0Q7wCwg5j9qWYb0_4yBeZfKLJ9H32H_8fbkCYD7da0jKsZuS7QoD9f1OENXHk2BmrT3sqPXk-UTDm9nfS5YEmx-", "width": 1080}], "place_id": "ChIJ03KqCm9dQQ0RH854NayeAVI", "plus_code": {"compound_code": "W44C+2M Rascafría, Spain", "global_code": "8CGRW44C+2M"}, "rating": 3.6, "reference": "ChIJ03KqCm9dQQ0RH854NayeAVI", "scope": "GOOGLE", "types": ["pharmacy", "store", "health", "point_of_interest", "establishment"], "user_ratings_total": 15, "vicinity": "Avenida del Valle, 40, Rascafría"}, {"business_status": "OPERATIONAL", "geometry": {"location": {"lat": 40.9512015, "lng": -3.791958499999999}, "viewport": {"northeast": {"lat": 40.95255408029149, "lng": -3.790560869708497}, "southwest": {"lat": 40.9498561197085, "lng": -3.793258830291502}}}, "icon": "https://maps.gstatic.com/mapfiles/place_api/icons/v1/png_71/pharmacy-71.png", "icon_background_color": "#F88181", "icon_mask_base_uri": "https://maps.gstatic.com/mapfiles/place_api/icons/v2/pharmacy_pinlet", "international_phone_number": "+34 918 69 30 03", "name": "F. Ayuso Gines Pharmacy", "opening_hours": {"open_now": false}, "place_id": "ChIJTZtUzOVeQQ0RJIM_5nSfFac", "plus_code": {"compound_code": "X625+F6 Lozoya, Spain", "global_code": "8CGRX625+F6"}, "rating": 4.3, "reference": "ChIJTZtUzOVeQQ0RJIM_5nSfFac", "scope": "GOOGLE", "types": ["pharmacy", "store", "health", "point_of_interest", "establishment"], "user_ratings_total": 11, "vicinity": "Calle Juan Martín, 12, Lozoya"}]