[{"geometry": {"location": {"lat": 40.8424499, "lng": -3.4637199}, "viewport": {"northeast": {"lat": 40.84725636802722, "lng": -3.459507542304996}, "southwest": {"lat": 40.83734843025897, "lng": -3.467519459355177}}}, "icon": "https://maps.gstatic.com/mapfiles/place_api/icons/v1/png_71/geocode-71.png", "icon_background_color": "#7B9EB0", "icon_mask_base_uri": "https://maps.gstatic.com/mapfiles/place_api/icons/v2/generic_pinlet", "name": "Uceda", "photos": [{"height": 2736, "html_attributions": ["<a href=\"https://maps.google.com/maps/contrib/116430273320039906355\">Francisco Javier Toribio Dominguez</a>"], "photo_reference": "AWn5SU44AKtUL0WmmsyA_2U16ZgkbJLPE615x2alKqg8Fom9fmK_6lf8RbnDHej-dyDUFPvoWDpRAcKa9ETVgPb7ZTqdtCSJythO-hkdhbo0EzkGhMo3Jtfzjlw3T4QzICNzEIRhazEZILTwpIeqejLsTbxcteiVYeQqGICXsyC8jLuWCkBqwydDm-Hw82x8S1lWqc7Um7WiRNiHe9yJE-bSqxl8nv_azUwYPErqvCfj5ovyGqZ1Ns-EWr64ECZbVm7Js_IdSyzNbInDajZtJ0Q7DvTRJB4bNd0hYtXhUYxkx5iMNSF_zK3bpnwMuH5ExeVt4aIxNeFqLFttXErDo8gyuPKbXrNBpPKsTgYZHDSMC_nFzOBKbHKjbR3qDNDqBgWUfvj14KzebderrAk5WExyxEDqe8K5ijk5i-tIpSkTN6V8pY7M_hkjXHg7KkYkfvF1w8wITXl0RQxTXMN3CRHexL47cuv4rKgzYVttTxJnbMkaw9DZcXkUHa8pixqnon8N5VFwtJzyKU6dwCWOE3NVCF0GW_MBQr0SREpo20NTjdCrSUfxq2PxRDjCZrmmUM7S6W4CdYkssKA5yP9MEyjbKsFil9r8wpEpubO3k8QBzcPrCWOTiIPr7WWOsln9JQaPCnUFlDOS", "width": 3648}], "place_id": "ChIJBWFYPiHBQw0RcqFXJuoGq1M", "reference": "ChIJBWFYPiHBQw0RcqFXJuoGq1M", "scope": "GOOGLE", "types": ["locality", "political"], "vicinity": "Uceda"}, {"business_status": "OPERATIONAL", "geometry": {"location": {"lat": 40.8354098, "lng": -3.4960357}, "viewport": {"northeast": {"lat": 40.8368088802915, "lng": -3.494670619708498}, "southwest": {"lat": 40.8341109197085, "lng": -3.497368580291502}}}, "icon": "https://maps.gstatic.com/mapfiles/place_api/icons/v1/png_71/lodging-71.png", "icon_background_color": "#909CE1", "icon_mask_base_uri": "https://maps.gstatic.com/mapfiles/place_api/icons/v2/hotel_pinlet", "international_phone_number": "+34 600 88 30 82", "name": "Hotel Rural Luna Llena", "opening_hours": {"open_now": true}, "photos": [{"height": 1200, "html_attributions": ["<a href=\"https://maps.google.com/maps/contrib/100897188299746785351\">Hotel Rural Luna Llena</a>"], "photo_reference": "AWn5SU7nVIt2FekVNUOfaHpBbQ4WGmf3iJsWLeLNDGuThncOAf_lmFYhwt6DVKhLdu8OSVKqxMWvoSnTxR6Uza7EsDoY9EYk16qA5hvI3uQfHaqa_3sR16oH0s0N_5mri-F2bIBdQlfm5gPxc7LUEN7j0MlGjjzU59l6wJrtBFpzx3791sRPoRhpeqZokp2i2p6-14n1pxKFigPNd8Wn0d_Hjxddci5dAfZ5318XKXAYHcgY7fWnZUHQG8zx0GnBJsw-19YM6LDuTpPMH2oy0yp4_nqECoNvs9jLMk-Q3bID9y2WNbpOsdBZPP8YR_trXw0AsBxDizywROg", "width": 1600}], "place_id": "ChIJda1C41nBQw0R4BhiWvnw2Vw", "plus_code": {"compound_code": "RGP3+5H Torremocha de Jarama, Spain", "global_code": "8CGRRGP3+5H"}, "rating": 4.7, "reference": "ChIJda1C41nBQw0R4BhiWvnw2Vw", "scope": "GOOGLE", "types": ["lodging", "point_of_interest", "establishment"], "user_ratings_total": 187, "vicinity": "Calle Tercia, 1, Torremocha de Jarama"}, {"business_status": "OPERATIONAL", "geometry": {"location": {"lat": 40.8504696, "lng": -3.4876495}, "viewport": {"northeast": {"lat": 40.85181213029151, "lng": -3.486259769708498}, "southwest": {"lat": 40.84911416970851, "lng": -3.488957730291502}}}, "icon": "https://maps.gstatic.com/mapfiles/place_api/icons/v1/png_71/generic_business-71.png", "icon_background_color": "#7B9EB0", "icon_mask_base_uri": "https://maps.gstatic.com/mapfiles/place_api/icons/v2/generic_pinlet", "international_phone_number": "+34 918 43 29 51", "name": "Comunidad Autónoma de Madrid", "place_id": "ChIJOZZy227BQw0RAvU8FYjKx9g", "reference": "ChIJOZZy227BQw0RAvU8FYjKx9g", "scope": "GOOGLE", "types": ["general_contractor", "point_of_interest", "establishment"], "vicinity": "Calle Ingenieros Rafo y Rivera, 2, Patones"}, {"business_status": "OPERATIONAL", "geometry": {"location": {"lat": 40.86598299999999, "lng": -3.493093999999999}, "viewport": {"northeast": {"lat": 40.8669488302915, "lng": -3.491431569708498}, "southwest": {"lat": 40.8642508697085, "lng": -3.494129530291502}}}, "icon": "https://maps.gstatic.com/mapfiles/place_api/icons/v1/png_71/generic_business-71.png", "icon_background_color": "#7B9EB0", "icon_mask_base_uri": "https://maps.gstatic.com/mapfiles/place_api/icons/v2/generic_pinlet", "international_phone_number": "+34 627 87 13 31", "name": "Coma y Cometa", "place_id": "ChIJcxCJe4LBQw0ReJxXjr6WyqI", "plus_code": {"compound_code": "VG84+9Q Patones, Spain", "global_code": "8CGRVG84+9Q"}, "reference": "ChIJcxCJe4LBQw0ReJxXjr6WyqI", "scope": "GOOGLE", "types": ["point_of_interest", "establishment"], "vicinity": "Calle del Chopo, 24, Patones"}, {"business_status": "OPERATIONAL", "geometry": {"location": {"lat": 40.8513372, "lng": -3.487510699999999}, "viewport": {"northeast": {"lat": 40.8527756302915, "lng": -3.486041419708497}, "southwest": {"lat": 40.8500776697085, "lng": -3.488739380291501}}}, "icon": "https://maps.gstatic.com/mapfiles/place_api/icons/v1/png_71/generic_business-71.png", "icon_background_color": "#7B9EB0", "icon_mask_base_uri": "https://maps.gstatic.com/mapfiles/place_api/icons/v2/generic_pinlet", "international_phone_number": "+34 918 43 22 50", "name": "CRA El Jarama colegio Patones", "photos": [{"height": 4128, "html_attributions": ["<a href=\"https://maps.google.com/maps/contrib/114629969246343106908\">María José de Rivas</a>"], "photo_reference": "AWn5SU6iec8YbR_Lq9WP04l_xsqqi0IC1ERXwuDgnsPKFy04AuaOKvvaB-vvLmviyS32_apx9Rms6tn7ytfX3KJZeawElJBRQN8pO0QZeDCypjnxeSwK3vI1kI-i7tts3X2mQQGweGlrdcqclQdpTokBltE_Vgz8DggXDT-3j-AMoZ88p5PrBa7UXMADIq8FI9LlFpBu7Rgs02IPCC3k79HO4n6fAINHn6_rakNdQc5dyZwKe1xdmBqnBtnBJIN7fuTMSdiqo7UHP2z8yY7XC02CA_wgmFafhgatSJgJiYcHAwYRU-FNuuH_uyrrurCilUYmU5OnaAkUUe_Ku_Dr7eGPkaZZ6QHuH1LaaOHkUYwymsyMWoEGqMt_mm2Nb2oY-7DI2xlAVWmeQJIRyIcsLJsaFf6AI0-Z8O-CKkkxkIbiBDIlNHepOTeOdZ2nfezlNFmpIuRs0MMb-4c78tUS1Q96xWlzHK0zbndWrjMuQyMh6YZE50mGSQF2xEPYgo5WJ4HAAcUIHj1wlFO9TFompO0LK68luAy-XFRyXW1Zsgl54QclwlHwvAPWqP2-ciHIIy8Hap8d8PpMgqfj593_s2TmNR8MKza2ZhpQopiKZb4j9xvrrzdHJ9n7WXqADMfgYkEyZWR7CQ", "width": 2322}], "place_id": "ChIJzT_0227BQw0Re_BxuVRzFWg", "plus_code": {"compound_code": "VG26+GX Patones, Spain", "global_code": "8CGRVG26+GX"}, "rating": 3.8, "reference": "ChIJzT_0227BQw0Re_BxuVRzFWg", "scope": "GOOGLE", "types": ["point_of_interest", "health", "establishment"], "user_ratings_total": 12, "vicinity": "Calle Canal de Isabel II, 6, Patones"}, {"business_status": "OPERATIONAL", "geometry": {"location": {"lat": 40.8659986, "lng": -3.4924673}, "viewport": {"northeast": {"lat": 40.86693638029151, "lng": -3.491103319708498}, "southwest": {"lat": 40.86423841970851, "lng": -3.493801280291501}}}, "icon": "https://maps.gstatic.com/mapfiles/place_api/icons/v1/png_71/restaurant-71.png", "icon_background_color": "#FF9E67", "icon_mask_base_uri": "https://maps.gstatic.com/mapfiles/place_api/icons/v2/restaurant_pinlet", "international_phone_number": "+34 918 43 20 37", "name": "Restaurante Rey de Patones", "opening_hours": {"open_now": false}, "photos": [{"height": 1536, "html_attributions": ["<a href=\"https://maps.google.com/maps/contrib/103699094898091503367\">Restaurante Rey de Patones</a>"], "photo_reference": "AWn5SU5PNgyJvrltyOsO_9zZEQ_6PHYgrGuazMmAzEXMKs_HO5DrMkPlu-bjGhrazkUGVHuexZo8MemtysbU0_Rz8YQwf6fPopa1eMtT7F20SS7DyX93dFTbaCZ34RuflHEXb4A-JDMOLsp8_jeWWreVBayRUY1maSkORmn45nFn1zGQ_TtG3nEqTWfu_jpfsUj1FzH93pdZWDeN2mOdz7pVA3B4soNjYKh7uIXp1Hp_GqVpXiKKzn0gpSv725TPDNsnssMnzWHa3jAkOfvplcexs3XBj4EG65dbW-FeCf6M58BNU9TWytT1gO2IsJp4KSkHjctc3qlZxWE", "width": 2048}], "place_id": "ChIJ2YP3hYLBQw0RPFK6EoY-MB4", "plus_code": {"compound_code": "VG85+92 Patones, Spain", "global_code": "8CGRVG85+92"}, "price_level": 2, "rating": 4.3, "reference": "ChIJ2YP3hYLBQw0RPFK6EoY-MB4", "scope": "GOOGLE", "types": ["restaurant", "food", "point_of_interest", "establishment"], "user_ratings_total": 1937, "vicinity": "Calle de Las Azas, 13, Patones"}, {"business_status": "OPERATIONAL", "geometry": {"location": {"lat": 40.8661608, "lng": -3.4933278}, "viewport": {"northeast": {"lat": 40.8670195802915, "lng": -3.491555819708498}, "southwest": {"lat": 40.8643216197085, "lng": -3.494253780291502}}}, "icon": "https://maps.gstatic.com/mapfiles/place_api/icons/v1/png_71/lodging-71.png", "icon_background_color": "#909CE1", "icon_mask_base_uri": "https://maps.gstatic.com/mapfiles/place_api/icons/v2/hotel_pinlet", "international_phone_number": "+34 659 39 90 69", "name": "La Fuente", "photos": [{"height": 1350, "html_attributions": ["<a href=\"https://maps.google.com/maps/contrib/103611554068942025987\">La Fuente</a>"], "photo_reference": "AWn5SU4df43exL2y-oXnYthkOI9E3XKgqwhcm2ce7itUUeteyUSrAhT-_IS07h8LNs4ps4_tFYst-2ULOdl0Bs2A6SqlG-iv8KMlVdGZQmhMGk3CwyDj78D3uKiLFxVBrSFjROEY0SNuR-3tEczcQnjRxlUMLLab9U_9TqRbLalRVv2Kmiv_d2j877d_AdSXyIi4rvyBOqzJb30UQd8mQDV6XQWKBJ7TtX3VuXiVFetaWquoRuP-kUUW3wHO3tSR2Rdqk-74DPg6-8em3Q8mOOaV2RRwAXd3FIZ5zRUMyfSp855gToops_tK5qHwRwbpj-l_MlOXwYGvaXE", "width": 1080}], "place_id": "ChIJjwcTcILBQw0R-pBhBzikbZU", "plus_code": {"compound_code": "VG84+FM Patones, Spain", "global_code": "8CGRVG84+FM"}, "rating": 4.4, "reference": "ChIJjwcTcILBQw0R-pBhBzikbZU", "scope": "GOOGLE", "types": ["lodging", "point_of_interest", "establishment"], "user_ratings_total": 92, "vicinity": "Calle del Despeñadero, 7, Patones"}, {"business_status": "OPERATIONAL", "geometry": {"location": {"lat": 40.8489133, "lng": -3.4674174}, "viewport": {"northeast": {"lat": 40.8503525802915, "lng": -3.46619495}, "southwest": {"lat": 40.8476546197085, "lng": -3.471084750000001}}}, "icon": "https://maps.gstatic.com/mapfiles/place_api/icons/v1/png_71/lodging-71.png", "icon_background_color": "#909CE1", "icon_mask_base_uri": "https://maps.gstatic.com/mapfiles/place_api/icons/v2/hotel_pinlet", "international_phone_number": "+34 617 16 02 37", "name": "Albergue Cabo Luna", "opening_hours": {"open_now": true}, "photos": [{"height": 2848, "html_attributions": ["<a href=\"https://maps.google.com/maps/contrib/111724136696793097915\">Albergue Cabo Luna</a>"], "photo_reference": "AWn5SU4thICR6zCiXJrofr1hdAMg2qrq6VRD-w5uqHM8bptdRPdlhI3DRpaEG_rbyiMdlX6tyu-ix6jvEsTk2teGGyUbDNMyVRURQwFD3-c4jQ7fx7A1bG-VxwsbJDxvF5UwpEAZsbKPPVV68tbBhWnJ97nK0bTSMdLXncjwqFqKTxrVZDCnOKfph_2p7ap7kkDk0vxDCD6teHurSYJSYAm9DOiuhWnDqOtbT8cGu1q1Wru5U7LJURTxO_fkuWOau2DUGFsy8CfzcWnsM47somFCvQsDX7DmQxySTDvtLs-oh9uxBN81NN3W90Ry9oGkcaQIf17ZXSKkwCc", "width": 4272}], "place_id": "ChIJXUpesBnBQw0R8U4OHu1TzZY", "plus_code": {"compound_code": "RGXM+H2 Uceda, Spain", "global_code": "8CGRRGXM+H2"}, "rating": 4.2, "reference": "ChIJXUpesBnBQw0R8U4OHu1TzZY", "scope": "GOOGLE", "types": ["lodging", "point_of_interest", "establishment"], "user_ratings_total": 68, "vicinity": "Finca municipal paraje soto de las fuentes, Uceda"}, {"business_status": "OPERATIONAL", "geometry": {"location": {"lat": 40.8395365, "lng": -3.4979117}, "viewport": {"northeast": {"lat": 40.8409521802915, "lng": -3.496651369708498}, "southwest": {"lat": 40.8382542197085, "lng": -3.499349330291502}}}, "icon": "https://maps.gstatic.com/mapfiles/place_api/icons/v1/png_71/shopping-71.png", "icon_background_color": "#4B96F3", "icon_mask_base_uri": "https://maps.gstatic.com/mapfiles/place_api/icons/v2/shopping_pinlet", "international_phone_number": "+34 918 43 15 69", "name": "Taller el Arce", "opening_hours": {"open_now": false}, "place_id": "ChIJB2wZuFjBQw0RUUw4W6qRdxg", "plus_code": {"compound_code": "RGQ2+RR Torremocha de Jarama, Spain", "global_code": "8CGRRGQ2+RR"}, "rating": 4.5, "reference": "ChIJB2wZuFjBQw0RUUw4W6qRdxg", "scope": "GOOGLE", "types": ["store", "point_of_interest", "establishment"], "user_ratings_total": 2, "vicinity": "Calle Torrearte, 18, Torremocha de Jarama"}, {"business_status": "OPERATIONAL", "geometry": {"location": {"lat": 40.839532, "lng": -3.4979016}, "viewport": {"northeast": {"lat": 40.8409517302915, "lng": -3.496643919708498}, "southwest": {"lat": 40.8382537697085, "lng": -3.499341880291502}}}, "icon": "https://maps.gstatic.com/mapfiles/place_api/icons/v1/png_71/generic_business-71.png", "icon_background_color": "#7B9EB0", "icon_mask_base_uri": "https://maps.gstatic.com/mapfiles/place_api/icons/v2/generic_pinlet", "international_phone_number": "+34 618 30 94 49", "name": "Gubiarte", "opening_hours": {"open_now": true}, "photos": [{"height": 2048, "html_attributions": ["<a href=\"https://maps.google.com/maps/contrib/113255192498770859701\">Gubiarte</a>"], "photo_reference": "AWn5SU6GOzfdgfS7OIcghhLZxhIypVcYCxzQTdMrZspMy90ecVf5lIdduQF4-PlPQkXOzw_TCa9faTxrpJyC6NLVl3jk2zsR9dLWk3J9f4pzlFfVybQCvuVHABZjRlnucGxPMqIfVDu47-pb4DXgNC-ZFnbOZ4F97snK07mz3oEFBBMAbzIvR6pIPcKdD-QOsedz5V0Od94PMmPZSH56rO6C4MdYHVOasAR3XofEyPtSF22w1d2jer7pGC6imQ1UeJl89D1oaZZN8-PazSlwX_hr7Ea7d6EK438CzhydbBMqx3lWSIhAH8CgTBWGsiyQZse52a9LQtgJ2Jk", "width": 1133}], "place_id": "ChIJ9bzvxFnBQw0RgidLUhQeNts", "plus_code": {"compound_code": "RGQ2+RR Torremocha de Jarama, Spain", "global_code": "8CGRRGQ2+RR"}, "rating": 5, "reference": "ChIJ9bzvxFnBQw0RgidLUhQeNts", "scope": "GOOGLE", "types": ["point_of_interest", "establishment"], "user_ratings_total": 13, "vicinity": "Torremocha de Jarama"}, {"business_status": "OPERATIONAL", "geometry": {"location": {"lat": 40.8396741, "lng": -3.497763999999999}, "viewport": {"northeast": {"lat": 40.8410834802915, "lng": -3.496495369708498}, "southwest": {"lat": 40.8383855197085, "lng": -3.499193330291502}}}, "icon": "https://maps.gstatic.com/mapfiles/place_api/icons/v1/png_71/shopping-71.png", "icon_background_color": "#4B96F3", "icon_mask_base_uri": "https://maps.gstatic.com/mapfiles/place_api/icons/v2/shopping_pinlet", "international_phone_number": "+34 918 43 18 76", "name": "Ebanistería Miguel Angel de la Fuente Martín", "photos": [{"height": 2992, "html_attributions": ["<a href=\"https://maps.google.com/maps/contrib/103955230220426691849\">la fuente hotel</a>"], "photo_reference": "AWn5SU6ouKxW90tS2OqoKzlgJ4N_FiW9AhhXGUe6Zzi0nQyDnI4Zel7PQr1MCkguZk7GIwb3GhiqJUW5uB_q0PtBg43h9JVt0vkQcziBJ9oJdLrefta_wlQOt5cEwcWkKb0TrLCuaYrEHzs5bv-bBaY4Ugm2jnhSPGIEjFbwoUqjbw17gz-GXT2VPNO8mdxFKvS4uNdVdsaWdfitdKD8kveQnaFVicXs1W75fJ766puyDTorJ4YL-Tize4lfI_dSYv2tByoVAj8iM1P3Od7FgXAzMYVfI6BHh7Hz1hT_J-Cjaldvqt9JTnGCfulI-VYULq0oBAzdnlnJZ166vdjrVQoBMhzHQE7XHNrxtLUirEx39nAqDnO_CIzdAxvKM1K2O1WvHhPH24Cq2sJLzU8ty6zZCZ5lmlV9IRKwoK72kBBrhmzeOgk3vjdHIs32hB4kK_wB1bA4JKslLC99Aad_O0tXrhHd4NJcS5Vvkd8xn3A80e-QuQMwhqdTLkbcez6NAHHPyeTgSGjfmPGewNnwqMI0ypvTx6qcMdjq7unLYUQkC8X-GCraXKsy67QXaLaiBQA4Zhc26ftT2kXbgTagkuoecn55ninuaakB-8P0m3vLiaf7npuenVGFdhYLv_cE9Ba3dvZyrA", "width": 4000}], "place_id": "ChIJ9bzvxFnBQw0RUBKcZRe0jb0", "plus_code": {"compound_code": "RGQ2+VV Torremocha de Jarama, Spain", "global_code": "8CGRRGQ2+VV"}, "rating": 5, "reference": "ChIJ9bzvxFnBQw0RUBKcZRe0jb0", "scope": "GOOGLE", "types": ["furniture_store", "home_goods_store", "store", "point_of_interest", "establishment"], "user_ratings_total": 1, "vicinity": "Calle Canal de Isabel II, 36, Torremocha de Jarama"}, {"business_status": "OPERATIONAL", "geometry": {"location": {"lat": 40.8450577, "lng": -3.4639766}, "viewport": {"northeast": {"lat": 40.84633893029149, "lng": -3.462581219708498}, "southwest": {"lat": 40.8436409697085, "lng": -3.465279180291502}}}, "icon": "https://maps.gstatic.com/mapfiles/place_api/icons/v1/png_71/gas_station-71.png", "icon_background_color": "#909CE1", "icon_mask_base_uri": "https://maps.gstatic.com/mapfiles/place_api/icons/v2/gas_pinlet", "international_phone_number": "+34 949 85 63 16", "name": "bp", "opening_hours": {"open_now": false}, "photos": [{"height": 3120, "html_attributions": ["<a href=\"https://maps.google.com/maps/contrib/112066236758101135855\">JoseDa</a>"], "photo_reference": "AWn5SU6fDarkcfiReFmZ9Q1AHZsQqfyScKpJ_7YEYwbYaBkRX2Vlzyj-0VqaGVZxyDJc1ut1iliuX5BQL6GCQqdpNLmlUFnVN3eQ8SHsfPyH9b8uimVtdKdWnDpIaF_k7UQ70MUOuLz2v3L-SYJaT6yrCX4WGD4jMDhDT-PoVAYgxsWckjXc9TlUhjx6KbWFtU_8SIpHpx6HXF4nQWsefxhTZR5lWGvZzDXpsuNlYKalE_B_HO9f36XCSemfpazbarMJ2t65B4HFp_vLvn-L3T8gW45q9KESUBMgKMXIucXy1LE5_UFnmP5SYveX3VaI7C4bvjyypHAdkgDD2eYmw8mICMlpKJBnOKkGHl1UV15yBSNx3qhW_PqAj8TlZkheLYIXyXw9EdlSYvhGkG10zuWvdgDqMsIFevgiP7ix4KRNJrttEQoMF1TGPwsEmebzVx5wXxTC8s_rVWbC2HCRb7Jd__yRNTRZrELvgN5-TjZsRJ95gkbryepFYXuA1HESABPA9Cw4onw4MZ6gs1U2mKpJSbM0RRKdU3S5TdEKFqbC-b2Bfktb8r1gQHTK0BjlSl6gR0EDrPlgzrPjPK8HFGm7Z7Hx37PPkWsqIWmvQx35G_zUiaw7h4LLQUXfSfwWP0eSQHcRsWyL", "width": 4160}], "place_id": "ChIJVYbn_ffFQw0RbyjHJ5wbTNg", "plus_code": {"compound_code": "RGWP+2C Uceda, Spain", "global_code": "8CGRRGWP+2C"}, "rating": 3.7, "reference": "ChIJVYbn_ffFQw0RbyjHJ5wbTNg", "scope": "GOOGLE", "types": ["gas_station", "restaurant", "food", "point_of_interest", "establishment"], "user_ratings_total": 71, "vicinity": "Carretera Torrelaguna Ctra, CM-1002, Km. 37, 700"}, {"business_status": "OPERATIONAL", "geometry": {"location": {"lat": 40.83889999999999, "lng": -3.4989898}, "viewport": {"northeast": {"lat": 40.84017478029149, "lng": -3.497715969708498}, "southwest": {"lat": 40.83747681970849, "lng": -3.500413930291502}}}, "icon": "https://maps.gstatic.com/mapfiles/place_api/icons/v1/png_71/shopping-71.png", "icon_background_color": "#4B96F3", "icon_mask_base_uri": "https://maps.gstatic.com/mapfiles/place_api/icons/v2/shoppingcart_pinlet", "international_phone_number": "+34 697 49 60 03", "name": "Mercado Artrana", "opening_hours": {"open_now": false}, "place_id": "ChIJhSyn0fjPQw0RuMGvK2G6nX4", "plus_code": {"compound_code": "RGQ2+HC Torremocha de Jarama, Spain", "global_code": "8CGRRGQ2+HC"}, "rating": 3.5, "reference": "ChIJhSyn0fjPQw0RuMGvK2G6nX4", "scope": "GOOGLE", "types": ["grocery_or_supermarket", "store", "food", "point_of_interest", "establishment"], "user_ratings_total": 2, "vicinity": "Calle Torrearte, 2, Nave 8, Torremocha de Jarama"}, {"business_status": "OPERATIONAL", "geometry": {"location": {"lat": 40.83913559999999, "lng": -3.4997334}, "viewport": {"northeast": {"lat": 40.84043563029149, "lng": -3.498312969708498}, "southwest": {"lat": 40.8377376697085, "lng": -3.501010930291502}}}, "icon": "https://maps.gstatic.com/mapfiles/place_api/icons/v1/png_71/generic_business-71.png", "icon_background_color": "#7B9EB0", "icon_mask_base_uri": "https://maps.gstatic.com/mapfiles/place_api/icons/v2/generic_pinlet", "international_phone_number": "+34 918 68 36 82", "name": "Oficina de Turismo Municipal de Torremocha del Jarama", "opening_hours": {"open_now": false}, "photos": [{"height": 3456, "html_attributions": ["<a href=\"https://maps.google.com/maps/contrib/114635068743448937457\">R</a>"], "photo_reference": "AWn5SU6ked_fjTboMy8fJlLmvdFkuyquoUuYzTpED076_ImDjBkIpE9ZKgKwtzDKTOou1t1pDk6ew_-lR0AUCCUOWhvhRt8L3GbZOHNR6BUfc7vW72O7mTxIZOxvzrIPm6O_fQUD1E7IDn7zhCyMuUZ2q1NFfcI-p7aiOwAJXJD5ZTvFOHzV1HDQRHF1gXSZLrcqT8A6Va1nE65htdzr37PUUejdhV1F6ssL6uljEkeYXKeBir_VQVowJxgFIsvfJFuTxU5-sTyFTOUDVpGyfQblMGJlkMAM8U_6sTo7Mwu1ASGzxfUTiEqgTsCUaG-G3rSxMzZqZARDsnB1wooB_JyDtC6ReWuKlfrISPpm09fx-Y-23hcpHKWDmugS2k03vC14Gr5Xa0yxu_lXpu6Z1KNoZcZhAmBR-7SUWNP77M0EJ-5SQRqcMMyhNOnSLe-Cy3EY3kX9ENAYzbbyYgokeH_2aq0uZT-9CEF4-TypnS59z1fH6QGpppYWUj0neXf7POusKMi5Hg55k_ULICacxUNhXfTlA6YDIJPnlObG2gsMR7a2U7j9eVTA9vIUkuu7V8m6KqTnoiRxefIA84wE1yFNBfCH8ka_LYqbrci53jRsosAumLL3B3I_6HaTxav2TqpjJ-HMrmdx", "width": 4608}], "place_id": "ChIJD1e3pFjBQw0RBDTa9uTVO0E", "plus_code": {"compound_code": "RGQ2+M4 Torremocha de Jarama, Spain", "global_code": "8CGRRGQ2+M4"}, "rating": 4.6, "reference": "ChIJD1e3pFjBQw0RBDTa9uTVO0E", "scope": "GOOGLE", "types": ["travel_agency", "point_of_interest", "establishment"], "user_ratings_total": 8, "vicinity": "Polígono Artesanal, Calle Torrearte, 3, Torremocha de Jarama"}, {"business_status": "OPERATIONAL", "geometry": {"location": {"lat": 40.8386729, "lng": -3.4989109}, "viewport": {"northeast": {"lat": 40.8400333302915, "lng": -3.497556169708498}, "southwest": {"lat": 40.83733536970851, "lng": -3.500254130291502}}}, "icon": "https://maps.gstatic.com/mapfiles/place_api/icons/v1/png_71/generic_business-71.png", "icon_background_color": "#7B9EB0", "icon_mask_base_uri": "https://maps.gstatic.com/mapfiles/place_api/icons/v2/generic_pinlet", "international_phone_number": "+34 918 43 11 25", "name": "Apiscam. Asociación de apicultores de la Comunidad de Madrid", "opening_hours": {"open_now": false}, "photos": [{"height": 1210, "html_attributions": ["<a href=\"https://maps.google.com/maps/contrib/112610718657069710752\">Aurelien Salord</a>"], "photo_reference": "AWn5SU560IzAZ_Cu8ZeVVT7tR7PjipZmUO2-zB5EnCQccJXggXLhrRIsQ_dQtiXpcSX2BgR_T7fFFB81Vi33cGACxo48E-U0p2v4tweRZzOzKpNZ6fakMr58DVvL9ubUHBxnCJqRjxsn8SwBmrXuayNDa263eIVUneox4_HzWyqcJ2_KXutJSbrXb_ozvXCVnoEsrnzUAMJy7lh_Ft8oqj2nl7SlEBf_tIAMoILjVEcLMejpnkNyWA9T19K60tqzPTzkt3Oa_n-nA2NQ8GRerE-HdAb1_nAXYcNG-zoP78kTBEvNYg_fI5EDfbwXujJb_A7ou2tepP0d6bpCcX7n15cUpk1ck2Sc-wGJJtVl9mtmrFT0C3om1ZuW02DEM5RZNWJPgPaZrDH9W-tY8xP4IuYC2i7fbwKphOCnia5a7_zG0dPTowefSu7t-hBxwmSbSvSbsbcN8K1jJLCv_vtdGqZYsbtdTNO43DTGqj4ne8NSE-Y9NKoVVpmgMP_WMeIEzfXTGxxGHWpYSeL-mZqI5caw2EITPuBxkMT4min9Ll2xX2VBJFYaE-FnETgFHE_M_wjuhtv2G3xJS1IrJk_pFKl7cC0i4709RM4dYWWBv_6-l8tu5tRM0QHtrtat6MfFRfmwXeRzPw", "width": 943}], "place_id": "ChIJCTZjbTbBQw0RJ6wCi-1HI2s", "plus_code": {"compound_code": "RGQ2+FC Torremocha de Jarama, Spain", "global_code": "8CGRRGQ2+FC"}, "rating": 4.7, "reference": "ChIJCTZjbTbBQw0RJ6wCi-1HI2s", "scope": "GOOGLE", "types": ["point_of_interest", "establishment"], "user_ratings_total": 26, "vicinity": "Polígono Artesanal Torrearte, Calle 2/nave 3, 28189, Torremocha de Jarama"}, {"business_status": "OPERATIONAL", "geometry": {"location": {"lat": 40.84196019999999, "lng": -3.465574199999999}, "viewport": {"northeast": {"lat": 40.84334193029149, "lng": -3.464117769708498}, "southwest": {"lat": 40.84064396970849, "lng": -3.466815730291502}}}, "icon": "https://maps.gstatic.com/mapfiles/place_api/icons/v1/png_71/generic_business-71.png", "icon_background_color": "#7B9EB0", "icon_mask_base_uri": "https://maps.gstatic.com/mapfiles/place_api/icons/v2/generic_pinlet", "international_phone_number": "+34 949 85 60 17", "name": "De Juan Elgueta Arquitectos S.l.p.", "opening_hours": {"open_now": false}, "photos": [{"height": 1262, "html_attributions": ["<a href=\"https://maps.google.com/maps/contrib/107120355947897320242\">De Juan Elgueta Arquitectos S.l.p.</a>"], "photo_reference": "AWn5SU6QvdzCJsTW1_QhP32Fqz_tFZp2rZ9t8RrvqgoiOS_vg-5GKnZb8jes4_S-yLru_VwuHVIt33gXl35nFCFrM8r6MqUE5QCKRqduE6ejd3zT44Oi8bDUn25m9DlrRKyyfkvaauT3kCJ4DDV15nX-Uwu-GmKcOZzRVxU7Ai2v9uo02j26j7emKJtJrac9CyZKt6r0qgXGFPWjrnMYZGBnZiEaqWcnfU8RxDBMVBaaZURj0f1WyzvDeJSx9GthJ1S7DPXBHoND1w-O29K2DNwrPQshp0bFUm8SfWgi28TRn0BiO5Tg6UWrW8Qz4r4PMlPqFImaeXdaitY", "width": 2048}], "place_id": "ChIJEclt5CPBQw0R04iPTUg5qSo", "plus_code": {"compound_code": "RGRM+QQ Uceda, Spain", "global_code": "8CGRRGRM+QQ"}, "rating": 4.8, "reference": "ChIJEclt5CPBQw0R04iPTUg5qSo", "scope": "GOOGLE", "types": ["point_of_interest", "establishment"], "user_ratings_total": 4, "vicinity": "Calle Norte, 1, Uceda"}, {"business_status": "OPERATIONAL", "geometry": {"location": {"lat": 40.8391387, "lng": -3.4996524}, "viewport": {"northeast": {"lat": 40.8404507302915, "lng": -3.498254569708498}, "southwest": {"lat": 40.8377527697085, "lng": -3.500952530291502}}}, "icon": "https://maps.gstatic.com/mapfiles/place_api/icons/v1/png_71/generic_business-71.png", "icon_background_color": "#7B9EB0", "icon_mask_base_uri": "https://maps.gstatic.com/mapfiles/place_api/icons/v2/generic_pinlet", "international_phone_number": "+34 918 68 36 82", "name": "Torrearte, S.L.", "opening_hours": {"open_now": false}, "photos": [{"height": 960, "html_attributions": ["<a href=\"https://maps.google.com/maps/contrib/103090477771390027332\">rocketeer industries</a>"], "photo_reference": "AWn5SU7299eP6eEhsNMe6NnCKbYaP1atWDKy3msGMG95tIV2vOfHzaV7qlhZuo9Wzl9LSSG9PUi4VHkTAp6pgB4SsqPn8R23VHx6_hwSC5YiGAAK3ZJmot7bJ4GqCCjzVZ9uuUTFaXDXrU2EOaPb5OsDb3VyD32TAJhxFqQ4KdQ3qIsI7QFX4re3HEtxEUibV927W2K6w5ioPble1GM07mjHYyRb1ka_BRlMslWgoO3kT0j-ieG-Za7p_w-8wjaxK4xwquO3wE5LS4fRWWGWa1qrnTx1er23ZLg0dMPX3DHmUd0emS7ovYUAs2S3AXyHuEbkANRrjGD8NHaIS1hd2z0rFzNBgwTNQkKsTKTLfUxMX-RGqp_F10Ab_5-yZlVdXXgeMNSIvuFoI_74nnFWbe22OhoziX8Bs4_egoz3yYdTsPhNUdFs_VnIqbSTo3-vdDJRF2xl5oyKQeQbCCfHSz6LhPMsYCGDEAKW_bKp4AaN-QMA9NG3v-Gh0taUilCPB5AqKZpES5ZxZAHR-lG_9aENY_LNbZNN8RXwGYIRC6PbdhU354QXqqNU3V4R-d5dzR34WPCpi6BMtxqYfeDCsFCds2KH_q2eVVq2hVHcNqu76lqjExMAUhDaswZR_MTvZEGCpSTfbA", "width": 1280}], "place_id": "ChIJD1e3pFjBQw0RppUDRjCSn28", "plus_code": {"compound_code": "RGQ2+M4 Torremocha de Jarama, Spain", "global_code": "8CGRRGQ2+M4"}, "rating": 4.4, "reference": "ChIJD1e3pFjBQw0RppUDRjCSn28", "scope": "GOOGLE", "types": ["point_of_interest", "establishment"], "user_ratings_total": 71, "vicinity": "Calle Torrearte, 3, Torremocha de Jarama"}, {"business_status": "OPERATIONAL", "geometry": {"location": {"lat": 40.8424863, "lng": -3.4652122}, "viewport": {"northeast": {"lat": 40.84383983029149, "lng": -3.463910219708498}, "southwest": {"lat": 40.8411418697085, "lng": -3.466608180291502}}}, "icon": "https://maps.gstatic.com/mapfiles/place_api/icons/v1/png_71/generic_business-71.png", "icon_background_color": "#7B9EB0", "icon_mask_base_uri": "https://maps.gstatic.com/mapfiles/place_api/icons/v2/generic_pinlet", "international_phone_number": "+34 647 55 64 28", "name": "Cartuja El Sauco", "photos": [{"height": 3096, "html_attributions": ["<a href=\"https://maps.google.com/maps/contrib/103526847823847439683\">Montserrat Rodriguez</a>"], "photo_reference": "AWn5SU60tT9XTJ5PgHpYU3Y3oL12sQ2aYaasbW6xUHVnpMN7FWwVgOa3V7WmqHa_Xc6C0joEBcACMfOyHLU1ZMYAFZmksOCl_sU_BGKGFmcaKqdIzf40wVkTik_4QsBYAtj6fqRrkm5IyfeKl7X-4v2kvNXHTtKh_MqQl__5aNTjkEJoAlDH-ey5Ba2mL1AFCxUEl47PfD5px3dfVzvyFxJ-wFD4cB1-nUEokn18G9fylwCeJYtt_CnUM7Dp_cU2YWAf998e7FGpg6a6vwHR2X9od8Sshvc26tETBvLIOcIxItOWGNkZl82WkjRC-0dFKmppbtE0HSQ5d7juRrxgixRcMeDOMLj-pB_qzlM0H-u14LgUD6tv_siCVim6rjxeUinSiIhPQl5MWssPaZ0C3g5KYS4Vz0roectffVjGITYiAfNBxQpO4XH8P_IO5XXkZ2BqCcK5KmUqPP3a30z-DvngnnzdzZq19h0hdReGxLcHCWJOgcbtT7jMqNtr9XupxzNJHfN3tGu_vJlObIvQtydxc_JAGNJwGpzqwCVpVENa_asxSQ3mlLSvTR4BUifwhe9MIzDp0RAB27tCD1Ch8F9nvBqQWMyVhuwx-QkzTGrN0-suZsh9-5AtRBmBOY2z4Baza1NaJA", "width": 4128}], "place_id": "ChIJI-1o4yPBQw0RAIgJvx5tcC0", "plus_code": {"compound_code": "RGRM+XW Uceda, Spain", "global_code": "8CGRRGRM+XW"}, "rating": 4, "reference": "ChIJI-1o4yPBQw0RAIgJvx5tcC0", "scope": "GOOGLE", "types": ["point_of_interest", "establishment"], "user_ratings_total": 16, "vicinity": "Calle Norte, 0, Uceda"}, {"business_status": "OPERATIONAL", "geometry": {"location": {"lat": 40.8391368, "lng": -3.5004826}, "viewport": {"northeast": {"lat": 40.84040898029149, "lng": -3.499239969708498}, "southwest": {"lat": 40.8377110197085, "lng": -3.501937930291502}}}, "icon": "https://maps.gstatic.com/mapfiles/place_api/icons/v1/png_71/generic_business-71.png", "icon_background_color": "#7B9EB0", "icon_mask_base_uri": "https://maps.gstatic.com/mapfiles/place_api/icons/v2/generic_pinlet", "international_phone_number": "+34 918 43 10 55", "name": "Residencia de Ancianos de Torremocha", "opening_hours": {"open_now": false}, "photos": [{"height": 2988, "html_attributions": ["<a href=\"https://maps.google.com/maps/contrib/116026758827414534136\">Carlos Morán</a>"], "photo_reference": "AWn5SU7SzpoRLmoTwyjJJhwkaWGAnUY8cfvsWJz_9rTfhGhN4QaMQNGhBEAH7hi9NPIurDaOqyaPemso8q-IH4n2OV5NTkD5gRMoesoXh-i-c64uGEXxjwjjaIHV19l4z89gsdgh7Dep6l20yLB_g2tx25hxqsd2tgymfc5PlqUZP92N77syyuoGVfqft-r6wqLK0bwz-nnQpFCXFIUi0xqDjP84zxEgeURxnqkgp8oiP2-8rLMghYzsGMpaglLl3PVoPNoyXMTcmPWe43qBr3ns_mIyfpGX0OVxrAECFRm6UBcqr1QhLnEQWqeyOYJejtj63W0wPkK8al8HU7P17xcZjFEk-ZvabAWE5kOfIJymT0ljMpDZ-SUtXRoVwsIvqpYgbZBgjt1JOwc4UCLapXLu_9Se4mx02dg09o3nnhPqUdC2a2LJWzMxntnCssIjk0iupjSKpVlK6M8hOBpr1nGjHlG6jzGYvxEnomHOgF11HBTj1oCDstwYhSJSDAmul3P40Zw56jyLmTgUrzUBqsbWqZuevaEOIueJ2UhC1dlRLlxn_hF4qH1G0hroICVrNqCLEWOUtPUYF_5C15skJ--A29hff5NrcAaAMmLJoA6b4qWM_f32wtJb5tcoZgEc3KZv", "width": 5312}], "place_id": "ChIJ9bzvxFnBQw0RbhxTQuU5Ouo", "plus_code": {"compound_code": "RFQX+MR Torremocha de Jarama, Spain", "global_code": "8CGRRFQX+MR"}, "rating": 3.2, "reference": "ChIJ9bzvxFnBQw0RbhxTQuU5Ouo", "scope": "GOOGLE", "types": ["point_of_interest", "health", "establishment"], "user_ratings_total": 37, "vicinity": "Calle Canal de Isabel II, 19, Torremocha de Jarama"}, {"geometry": {"location": {"lat": 40.8421508, "lng": -3.4946603}, "viewport": {"northeast": {"lat": 40.84427262991406, "lng": -3.483779661512004}, "southwest": {"lat": 40.83304405552972, "lng": -3.502638060799492}}}, "icon": "https://maps.gstatic.com/mapfiles/place_api/icons/v1/png_71/geocode-71.png", "icon_background_color": "#7B9EB0", "icon_mask_base_uri": "https://maps.gstatic.com/mapfiles/place_api/icons/v2/generic_pinlet", "name": "Torremocha de Jarama", "photos": [{"height": 3744, "html_attributions": ["<a href=\"https://maps.google.com/maps/contrib/105976178122807203982\">HOTEL RURAL LUNA LLENA</a>"], "photo_reference": "AWn5SU4otcg_SYGBYaWFt11OkBc59Z05elTq3nCUvnHS_-cceV8OpZok6_WsBJunM_WrsN5DXyFkyz1IY6FqBbpAQgGuRusyteTpqbyaTk9kPpBQkBP4jyWNrUolT9hmlo9r68Md_9RkewfkZUK-8J5QUCceoshpHWYRN0iyU6eNtXyzlReZOcKptmMFuWeIvfhEEp3ctJh98mymLJK6MkTu2PswLKbfsuPQ5oQZUrRzo7-qMAZ-YnRDTwBg6KkRqz-sqahFhO9oJsYwSakZMbjdx1gW-pvyhbFr-Nlf0141oefFDuysVx8sQ-YKxJY3Y4qylRO2wD_hAx9YjzVbOi148EWMYW1MKR6ZfTF1L_sP8EHlQ-os_L-BasC72uWNr7MZ-8mI3Qmo3c9-YlxWz0MWCY7B3dicscknJXSIM5tVHkgifthcaoJDbukP1Pr_5TNn7GIVofxICi0G-CH1_jpz8fGy8YUpofyYmVVtx2K8zw1XCHptPtFXjIFeuCI90T1_M8SXp696beF1rMi1rhf915W2oHb9pHdsnCDv8OmJAflycZ6Ek69Luy19zddG_46SsLsPEQVyiZ1XeuNqod5hypNKI2jW12HA4edSQtm7v17k8bc9GwKbONtnwVDE8IK7FYG9CA", "width": 3000}], "place_id": "ChIJ684G5lnBQw0Rnfv9NfVlEN4", "reference": "ChIJ684G5lnBQw0Rnfv9NfVlEN4", "scope": "GOOGLE", "types": ["locality", "political"], "vicinity": "Torremocha de Jarama"}]