[{"business_status": "OPERATIONAL", "geometry": {"location": {"lat": 40.3546704, "lng": -3.2499796}, "viewport": {"northeast": {"lat": 40.35602093029149, "lng": -3.248623569708498}, "southwest": {"lat": 40.35332296970849, "lng": -3.251321530291502}}}, "icon": "https://maps.gstatic.com/mapfiles/place_api/icons/v1/png_71/school-71.png", "icon_background_color": "#7B9EB0", "icon_mask_base_uri": "https://maps.gstatic.com/mapfiles/place_api/icons/v2/school_pinlet", "name": "1!", "photos": [{"height": 4284, "html_attributions": ["<a href=\"https://maps.google.com/maps/contrib/116072041684117128577\">Lalo Gallego</a>"], "photo_reference": "AWn5SU5f0v4hDcAhOZd61HPDnyXvMd2tDnUpUE3SfNUe0eFB7w_OGVBTfI0JzqOwxXEXZJii0CgVJWKNKURMzJBvHRZd4KMHrmEis1cV9tpCMqrlf_X2Wf41uR9shxM07MWQhHvYk_zD0q-Ox9soo0h2GBCAibxTk3GPygCliQK8EdALnNcfWuSxeIS_5i8C_Lh2yBzR0hWzQ67lwNIbIQ2eGGdQ82iPMeP28l-jj1Tc7tqGduHH9wAwO_z_dIav6eP2kMXCSTUMABxLGuJAeJKQb4-xFzMOSXSKR8E8IQ7DZ4zOH_EkWeFzsQo7Zm5uS-TrE8A-0TnfLPiuU7OsfwTOIZAnv5Rcm8O6UjClmBnXW5x6xLG4W3ttzDu8cV-Hb3Q7OM-Ez0f_vgj8QGorPmw1PrPyFGAcM-_KvEAhf5rDC1TYYhsqQ_bPf44tlYMUMw2NC0HlT54WXJ_4y52Z_fRt_jXIhELbl6-ciLB2Ee9dLEMW8j1Z2eVJE-TIw4GwjRRQ8u3f6KYAZPOkMZL12DDn8dMXP_ibiTXOoSzQXsREAPQe5feO6InPLcfEsjuSL5T7eeL9ZIQDxO1eHIMK33B1W-9lAh8wKYJJ7HyEVzs4h_5cdLfdWwSydBiLO_1_LFqU2izkeuibFfj0PGNujIhV4nAu23w", "width": 5712}], "place_id": "ChIJs3yc6pBFQg0RWFFc5TDUy68", "plus_code": {"compound_code": "9Q32+V2 Nuevo Baztán, Spain", "global_code": "8CGR9Q32+V2"}, "reference": "ChIJs3yc6pBFQg0RWFFc5TDUy68", "scope": "GOOGLE", "types": ["gym", "health", "point_of_interest", "establishment"], "vicinity": "Calle 5, Nuevo Baztán"}, {"business_status": "OPERATIONAL", "geometry": {"location": {"lat": 40.35461979999999, "lng": -3.2655724}, "viewport": {"northeast": {"lat": 40.35600798029149, "lng": -3.264198019708498}, "southwest": {"lat": 40.35331001970849, "lng": -3.266895980291502}}}, "icon": "https://maps.gstatic.com/mapfiles/place_api/icons/v1/png_71/generic_business-71.png", "icon_background_color": "#7B9EB0", "icon_mask_base_uri": "https://maps.gstatic.com/mapfiles/place_api/icons/v2/generic_pinlet", "name": "Gimnasio", "place_id": "ChIJq_AUPOZFQg0RSN52WF1Zrps", "plus_code": {"compound_code": "9P3M+RQ Nuevo Baztán, Spain", "global_code": "8CGR9P3M+RQ"}, "reference": "ChIJq_AUPOZFQg0RSN52WF1Zrps", "scope": "GOOGLE", "types": ["gym", "health", "point_of_interest", "establishment"], "vicinity": "Avenida Luxemburgo, 29, Nuevo Baztán"}, {"business_status": "OPERATIONAL", "geometry": {"location": {"lat": 40.3551028, "lng": -3.2662503}, "viewport": {"northeast": {"lat": 40.3564283302915, "lng": -3.264914169708498}, "southwest": {"lat": 40.3537303697085, "lng": -3.267612130291502}}}, "icon": "https://maps.gstatic.com/mapfiles/place_api/icons/v1/png_71/school-71.png", "icon_background_color": "#7B9EB0", "icon_mask_base_uri": "https://maps.gstatic.com/mapfiles/place_api/icons/v2/school_pinlet", "international_phone_number": "+34 696 82 42 89", "name": "SON PILATES Eurovillas", "opening_hours": {"open_now": false}, "photos": [{"height": 1262, "html_attributions": ["<a href=\"https://maps.google.com/maps/contrib/104580452318057884851\">SON PILATES Eurovillas</a>"], "photo_reference": "AWn5SU5x6RLwDzDCn-6GjkEm9C5LaS8lk9AhQYDfd36QPe-NYGWTS20ZdqcSgvz7hjujNyQqJWtCM1CAORVq8S4OACJmdo6D0zYl-QKNOQ2ysdKCtumzWs8t-Y1GCn04QUQXLsv3j9LlNJhaCj9qIhXSNAaC-X9a0AgonKewhV_OUB1PAF90VZWum1KRYR5shrIs6_tyUL-hy8DW7g7rNHYN4wVvF_zwN_eK0gjG_6PJSIfvuTTCiS_-l8gB4VzwX_ybCwN8bk4gFcS_rKVr8O1008s3Pxbdtt_a_0bsIminQ81ABYocs_3RaDQaVLLIqb8_LH9GVA8OkS8", "width": 1200}], "place_id": "ChIJ8ai-GYhFQg0RdlCNc9kgLHM", "plus_code": {"compound_code": "9P4M+2F Nuevo Baztán, Spain", "global_code": "8CGR9P4M+2F"}, "reference": "ChIJ8ai-GYhFQg0RdlCNc9kgLHM", "scope": "GOOGLE", "types": ["gym", "health", "point_of_interest", "establishment"], "vicinity": "Nuevo Baztán"}, {"business_status": "OPERATIONAL", "geometry": {"location": {"lat": 40.3670126, "lng": -3.3162166}, "viewport": {"northeast": {"lat": 40.3683724302915, "lng": -3.314863869708498}, "southwest": {"lat": 40.3656744697085, "lng": -3.317561830291502}}}, "icon": "https://maps.gstatic.com/mapfiles/place_api/icons/v1/png_71/school-71.png", "icon_background_color": "#7B9EB0", "icon_mask_base_uri": "https://maps.gstatic.com/mapfiles/place_api/icons/v2/school_pinlet", "international_phone_number": "+34 644 83 45 71", "name": "Perla Mayorga Boxing Club", "opening_hours": {"open_now": false}, "photos": [{"height": 2782, "html_attributions": ["<a href=\"https://maps.google.com/maps/contrib/103180920292180862416\">Perla Mayorga Boxing Club</a>"], "photo_reference": "AWn5SU5illLq9XDMaa9WVhQ7m4elnTYqfcgCZce4pX82BiwYeLqqxt0W3eJOKH-vwZNzTHl1VEM7XMXLfO4-neaUsZW_lavcgCG6K8gjuV-S_CQyGG-nh2hT-9Trq5kb3swFymesUUKwzMFGyQWvfNrercqXYZ_pbDcHRW-TsVZxyeuE68u8cBV8OlhO0p6lw9fYgow0PTUGktcH8MnTAL9C12Pd0m6mkMg6y_DbHtfTGUlC1MLxzEhhLpoPVVZpRtuoVu41WXVL7WdRdsJCJr03sRqkh5_X9_GwrJLOhiDKWzc3TANpIukLsVE9HS5UOJ-ushG7M5I-O3M", "width": 4278}], "place_id": "ChIJL4xkzKtHQg0RCZvCAlBVf1g", "plus_code": {"compound_code": "9M8M+RG Pozuelo del Rey, Spain", "global_code": "8CGR9M8M+RG"}, "rating": 4.6, "reference": "ChIJL4xkzKtHQg0RCZvCAlBVf1g", "scope": "GOOGLE", "types": ["gym", "health", "point_of_interest", "establishment"], "user_ratings_total": 10, "vicinity": "Calle Acacia, Pozuelo del Rey"}]