[{"geometry": {"location": {"lat": 40.3208765, "lng": -4.1987434}, "viewport": {"northeast": {"lat": 40.32692660324898, "lng": -4.190980211994662}, "southwest": {"lat": 40.31234985035402, "lng": -4.207417838778352}}}, "icon": "https://maps.gstatic.com/mapfiles/place_api/icons/v1/png_71/geocode-71.png", "icon_background_color": "#7B9EB0", "icon_mask_base_uri": "https://maps.gstatic.com/mapfiles/place_api/icons/v2/generic_pinlet", "name": "Aldea del Fresno", "photos": [{"height": 3472, "html_attributions": ["<a href=\"https://maps.google.com/maps/contrib/106412199642014872960\">Pedro Domínguez García (Konti)</a>"], "photo_reference": "AWn5SU5qBcIVQQE4xHb_rruQSroMCaYWqtucAndaWXaJd5ZvRdi9t5kDOocu_cL7cVR-vRKmDvK2yTg5x6ppuIAXYYLJdAfGVHlMJmZFlbKvOoZXqg36jdfF6FuSegEUjv3zhh03jXyTIBp1dpjS1oQx_HdNRqgrLrLxsgMrtaSbWoS9p_M9cA1u-Yd538iGZxONI2pBwgtBp3-Re7rzYvm8T7ATUKbCoMN1-K8n0Zoc3UTNua14KihK-hEwh-CuunE8EhsrP_8lPvF-V1osnRtYPP1LNZERmRUdO961F2q7q8ohS945k09wyKERE_PV9hG6dl4jsc6yRXc8ZPM1MsFp0J1-jjHDJNcQWHefFoOzD_gUVm3fyrBIscaou1vJv2GVIzE5sqMGd7rRg06qGyfdypqgpsJNpNFf36nee-261CfFNDjXfEXb_HoJofb1QHO-YkWoVHnUrn6b66mCIvEuK9-on7b6YsiICbCtBRsfvtXU8a_uVdb20s5tkbqE-2Y09BKQtgaz522OZbWC7UH-zV2qQIRtDZyTTpzjxiyTZvuWdqfvK59_7AIGlNPVMqBFpq_qHD_i9b7Ox5i1owAUwZy5vATYmwBgAGMdDFQ0mXOd6wOuRxh9qL4bvf27Bd9N3i1Qww", "width": 4640}], "place_id": "ChIJGehhwi66QQ0R4BFqRA014B8", "reference": "ChIJGehhwi66QQ0R4BFqRA014B8", "scope": "GOOGLE", "types": ["locality", "political"], "vicinity": "Aldea del Fresno"}, {"business_status": "OPERATIONAL", "geometry": {"location": {"lat": 40.41577839999999, "lng": -4.2010149}, "viewport": {"northeast": {"lat": 40.41673438029149, "lng": -4.199832719708498}, "southwest": {"lat": 40.4140364197085, "lng": -4.202530680291503}}}, "icon": "https://maps.gstatic.com/mapfiles/place_api/icons/v1/png_71/lodging-71.png", "icon_background_color": "#909CE1", "icon_mask_base_uri": "https://maps.gstatic.com/mapfiles/place_api/icons/v2/hotel_pinlet", "international_phone_number": "+34 912 79 88 34", "name": "Albus Albi Hotel y Apartamentos Rurales en Madrid", "opening_hours": {"open_now": false}, "photos": [{"height": 1536, "html_attributions": ["<a href=\"https://maps.google.com/maps/contrib/114498105779716824489\">Albus Albi Hotel y Apartamentos Rurales en Madrid</a>"], "photo_reference": "AWn5SU5yxK3Ia0O5FuuCv2heFxkMTtpD8iRmo7Ujriz-KT4tmA-O7mqUDQiJIgU-rXuhKl4viJzsf1RRT0rIgjDQAhu5rZNPHK1VqTcrmV3Cfk3AOBow46Pivws5XzH4HwFiXmi9cpvJ01UBHyVLegymX7NdQXbJW0nXf6d9Kz36rm5wv85aaijGuYaF6iE0fHe08DaegWTebFwtDCCl8QavHDQwSdx3A9KzTQ77GRTb3Kni6uGGcV5GT9Ko3LVDf6t4_X4KT-Qe47_Ra1zywjnR29c57JQyCRML0kNbzcfJzOI085xbN9iAiFV4vqKFgBq6_I39lPTrPzc", "width": 2048}], "place_id": "ChIJhyrl3BilQQ0ROg-YpIbN-tU", "plus_code": {"compound_code": "CQ8X+8H Colmenar del Arroyo, Spain", "global_code": "8CGQCQ8X+8H"}, "rating": 4.8, "reference": "ChIJhyrl3BilQQ0ROg-YpIbN-tU", "scope": "GOOGLE", "types": ["lodging", "point_of_interest", "establishment"], "user_ratings_total": 197, "vicinity": "Calle Toledo, 1, Colmenar del Arroyo"}, {"business_status": "OPERATIONAL", "geometry": {"location": {"lat": 40.32263879999999, "lng": -4.2017959}, "viewport": {"northeast": {"lat": 40.3240471302915, "lng": -4.200399169708498}, "southwest": {"lat": 40.3213491697085, "lng": -4.203097130291502}}}, "icon": "https://maps.gstatic.com/mapfiles/place_api/icons/v1/png_71/generic_business-71.png", "icon_background_color": "#7B9EB0", "icon_mask_base_uri": "https://maps.gstatic.com/mapfiles/place_api/icons/v2/generic_pinlet", "international_phone_number": "+34 626 17 84 71", "name": "Aldea", "photos": [{"height": 2801, "html_attributions": ["<a href=\"https://maps.google.com/maps/contrib/107144783885462998284\">La Aldea</a>"], "photo_reference": "AWn5SU5y8N0urHYL-RWXLzgzf-0bLHtsDHmnfpdz7YioSGW9mhC7okCAh1Bb0ftcDn2stVEMnFadzhoc9jGNNBsg4hET0QAXPmVvAnepMXGdbrSAvXB6vtZq4IWSKz0B_4y1fCmG5R7p3OjtVkG95rKjncuk8mK5f1nPgzklCzKGroyU3sAK-nX9bmsB1AN2sS5EsRI9tvo9ldUKzGXJdZ1AaQjoke_qAKMzO82gC6RSJqiqgdy5IxHOBze6ya7j9TcZxzMBP6x8V5s_f8DZZE_j2TtvPadzqEsPo6Qq7qsfBkMT_L8qm6RfaccTDEiLhJ7nJgO_4KHuPKI", "width": 4772}], "place_id": "ChIJP3abkC-6QQ0RX7Lw5pQnPa4", "plus_code": {"compound_code": "8QFX+37 Aldea del Fresno, Spain", "global_code": "8CGQ8QFX+37"}, "rating": 5, "reference": "ChIJP3abkC-6QQ0RX7Lw5pQnPa4", "scope": "GOOGLE", "types": ["point_of_interest", "establishment"], "user_ratings_total": 23, "vicinity": "Travesía del Sauce, 5, Aldea del Fresno"}, {"business_status": "OPERATIONAL", "geometry": {"location": {"lat": 40.38110729999999, "lng": -4.2172822}, "viewport": {"northeast": {"lat": 40.38249608029149, "lng": -4.215939919708498}, "southwest": {"lat": 40.3797981197085, "lng": -4.218637880291503}}}, "icon": "https://maps.gstatic.com/mapfiles/place_api/icons/v1/png_71/generic_business-71.png", "icon_background_color": "#7B9EB0", "icon_mask_base_uri": "https://maps.gstatic.com/mapfiles/place_api/icons/v2/generic_pinlet", "international_phone_number": "+34 918 65 01 33", "name": "Extintores Hermanos Zoyo SL", "opening_hours": {"open_now": false}, "photos": [{"height": 2448, "html_attributions": ["<a href=\"https://maps.google.com/maps/contrib/101419470144107994701\">Extintores Hermanos Zoyo SL</a>"], "photo_reference": "AWn5SU5ifg5Irge6EUqIh7bnJ7vwthP1vZp3ufwJLeaUwQtJS6uEbRCHIOnUPukDg6u5ALeEka2hKtItjlL4SMeawiymdZdi4iZveea8mydysrejpdMqg5whu1b5Of2t_voU0okjQcbN-kuf_hfK8o1KHoeML_T_ErHqN677mTUqr749JJ7P-Q8IOh2eb5aBrB2lSpj7riZ6W-WiorATd9uqhf6KmkKGE6PpawcihJka-1gjKoZVouEvhRCsdAB9V4MxPLaouZ2Uz2Rbki85ND64pp1pou8O13wweg-lmM2msB-jp4RfVzGCjYJ4lCB2v9ZuDkHzmzcBisI", "width": 3264}], "place_id": "ChIJcahqEBuwQQ0RubJMxkNHhYM", "plus_code": {"compound_code": "9QJM+C3 Chapinería, Spain", "global_code": "8CGQ9QJM+C3"}, "rating": 4.3, "reference": "ChIJcahqEBuwQQ0RubJMxkNHhYM", "scope": "GOOGLE", "types": ["point_of_interest", "establishment"], "user_ratings_total": 12, "vicinity": "Avenida de los Cañales, 5, Chapinería"}, {"business_status": "OPERATIONAL", "geometry": {"location": {"lat": 40.4053175, "lng": -4.210198499999999}, "viewport": {"northeast": {"lat": 40.4067896802915, "lng": -4.208547119708498}, "southwest": {"lat": 40.4040917197085, "lng": -4.211245080291502}}}, "icon": "https://maps.gstatic.com/mapfiles/place_api/icons/v1/png_71/generic_business-71.png", "icon_background_color": "#7B9EB0", "icon_mask_base_uri": "https://maps.gstatic.com/mapfiles/place_api/icons/v2/generic_pinlet", "international_phone_number": "+34 616 01 50 04", "name": "Centro Canino entrEncinas", "opening_hours": {"open_now": false}, "photos": [{"height": 720, "html_attributions": ["<a href=\"https://maps.google.com/maps/contrib/105216054899087486470\">Centro Canino entrEncinas</a>"], "photo_reference": "AWn5SU6pDKWv83yoRZYyH22leZlYrq5dzweBnrRJVbsOuGehbyKWC5IqN7NIFqtvdR98AO4Nt1dsVIM0-YdJcoa3SvqHVqasJ6tbFnhdJ8uvzHIMTXh5q1IFw1ulRib_3ADiGgLRqNNOrFzY1AEuPmQ3YhE_r2IE4bRUdbV82O9bnsfm4cluMWdBuutqOglRN3pPWo4BOV1KkoTe2tGQ0BmuZ7ga0PxPMfRp-Pu6-6hArYWA2kcTv6GC4gWukqmF6Ql3XAwNiRgOfNKeF7CS-zhHRc5wRA_cdKEKCQly4zt0MV_jOttoBdygZa5nAtnOPOfGM-5ki1j-Jec", "width": 720}], "place_id": "ChIJF5FAYDqlQQ0RnpqlGrX3O58", "plus_code": {"compound_code": "CQ4Q+4W Colmenar del Arroyo, Spain", "global_code": "8CGQCQ4Q+4W"}, "rating": 4.6, "reference": "ChIJF5FAYDqlQQ0RnpqlGrX3O58", "scope": "GOOGLE", "types": ["point_of_interest", "establishment"], "user_ratings_total": 371, "vicinity": "M-510, km. 37, 500, Colmenar del Arroyo"}, {"business_status": "OPERATIONAL", "geometry": {"location": {"lat": 40.381121, "lng": -4.2183705}, "viewport": {"northeast": {"lat": 40.3824584802915, "lng": -4.217019419708498}, "southwest": {"lat": 40.3797605197085, "lng": -4.219717380291502}}}, "icon": "https://maps.gstatic.com/mapfiles/place_api/icons/v1/png_71/generic_business-71.png", "icon_background_color": "#7B9EB0", "icon_mask_base_uri": "https://maps.gstatic.com/mapfiles/place_api/icons/v2/generic_pinlet", "international_phone_number": "+34 918 60 55 17", "name": "Armaclos S L", "opening_hours": {"open_now": false}, "place_id": "ChIJJUMhQrm6QQ0Rt3U-t61SGM0", "plus_code": {"compound_code": "9QJJ+CM Chapinería, Spain", "global_code": "8CGQ9QJJ+CM"}, "rating": 5, "reference": "ChIJJUMhQrm6QQ0Rt3U-t61SGM0", "scope": "GOOGLE", "types": ["point_of_interest", "establishment"], "user_ratings_total": 2, "vicinity": "Avenida de los Cañales, 20, Chapinería"}, {"business_status": "OPERATIONAL", "geometry": {"location": {"lat": 40.38757059999999, "lng": -4.251220899999999}, "viewport": {"northeast": {"lat": 40.38895423029149, "lng": -4.249801819708497}, "southwest": {"lat": 40.38625626970849, "lng": -4.252499780291502}}}, "icon": "https://maps.gstatic.com/mapfiles/place_api/icons/v1/png_71/generic_business-71.png", "icon_background_color": "#7B9EB0", "icon_mask_base_uri": "https://maps.gstatic.com/mapfiles/place_api/icons/v2/generic_pinlet", "international_phone_number": "+34 918 65 03 95", "name": "Residencia Navas del Rey", "opening_hours": {"open_now": true}, "photos": [{"height": 480, "html_attributions": ["<a href=\"https://maps.google.com/maps/contrib/104053259527651730033\">Residencia Navas del Rey</a>"], "photo_reference": "AWn5SU5yVmEpC9V6eqHyzWTwjDBLcpaVt-wCwavtKvpuBKADUaRHse6PwwKx2hZbo_CUlSduOGgQ_8SR37dzfOqIVU2xbeiAMAUDA6RBYarMwLS1danH2RxShipJ4m3j4OUZeKEs7Kq_V-Wnwo7KcH2cfOFu97IP1dTayzsZ-88QSuNPg-sNsfeiL62-nAthnMdRjqp5EvpkFToJBjnaMAmCAx8t0JA2MffQ2CAJv-_Wx6CCOjQ6cbi5pP2KxuvSC4rxZSY4WdA4W4OHQLNhiLVGRCd3eslQIsytytE2yOj0q_IUieJan4RiKn-CYRleQc_i-tm7qvLPukw", "width": 640}], "place_id": "ChIJwdoOHxmwQQ0RDTDwF_X398g", "plus_code": {"compound_code": "9PQX+2G Navas del Rey, Spain", "global_code": "8CGQ9PQX+2G"}, "rating": 4.2, "reference": "ChIJwdoOHxmwQQ0RDTDwF_X398g", "scope": "GOOGLE", "types": ["health", "point_of_interest", "establishment"], "user_ratings_total": 65, "vicinity": "Calle Aparejador Pedro de Tolosa, 1, Navas del Rey"}, {"business_status": "OPERATIONAL", "geometry": {"location": {"lat": 40.3808584, "lng": -4.220901199999999}, "viewport": {"northeast": {"lat": 40.3821606802915, "lng": -4.219540519708498}, "southwest": {"lat": 40.3794627197085, "lng": -4.222238480291503}}}, "icon": "https://maps.gstatic.com/mapfiles/place_api/icons/v1/png_71/generic_business-71.png", "icon_background_color": "#7B9EB0", "icon_mask_base_uri": "https://maps.gstatic.com/mapfiles/place_api/icons/v2/generic_pinlet", "international_phone_number": "+34 918 60 55 58", "name": "Neuforma S.L Ventanas de madera", "opening_hours": {"open_now": false}, "photos": [{"height": 1536, "html_attributions": ["<a href=\"https://maps.google.com/maps/contrib/101838254408614106792\">Neuforma S.L Ventanas de madera</a>"], "photo_reference": "AWn5SU5OcTj2TT610phmsxDFGoxObNATLlDVcO-NellzKdywXghA3nin5RCHkYJM7jaSoQ9NEfF5saXgLPgg9jyerBjnUuOs_-eO6slSIv8tChnw7U2Cskh7CEbEYEf-XCp2Xi2i48gixPupXfthuAM2pJQ3E2RMSNmeF6QCKUcVCHqroVq3wGdmhRAvu9k6r1V3fhcrpGw5M46sfTddXBCsHlMx4-f2jrPI8V7Ii-Boz6yx0xwmzmLx-82KtCEDM3iN6YxPrJ3a4SSqDP-n3ODztmGLh-21GLLwT10szG3NKOOJhx8YLEQBdtZThwjETFQApeLgB2y1BwU", "width": 2048}], "place_id": "ChIJ2Ubec7u6QQ0R-ZVs1w7xDtc", "plus_code": {"compound_code": "9QJH+8J Chapinería, Spain", "global_code": "8CGQ9QJH+8J"}, "rating": 5, "reference": "ChIJ2Ubec7u6QQ0R-ZVs1w7xDtc", "scope": "GOOGLE", "types": ["general_contractor", "point_of_interest", "establishment"], "user_ratings_total": 16, "vicinity": "Avenida de los Cañales, 34, Chapinería"}, {"business_status": "OPERATIONAL", "geometry": {"location": {"lat": 40.39919019999999, "lng": -4.199850899999999}, "viewport": {"northeast": {"lat": 40.40055598029149, "lng": -4.198447169708498}, "southwest": {"lat": 40.39785801970849, "lng": -4.201145130291502}}}, "icon": "https://maps.gstatic.com/mapfiles/place_api/icons/v1/png_71/shopping-71.png", "icon_background_color": "#4B96F3", "icon_mask_base_uri": "https://maps.gstatic.com/mapfiles/place_api/icons/v2/shopping_pinlet", "international_phone_number": "+34 609 20 50 36", "name": "Grupo Foto", "place_id": "ChIJJajSL4WJQQ0RvQpjoDR7Gsg", "plus_code": {"compound_code": "9RX2+M3 Chapinería, Spain", "global_code": "8CGQ9RX2+M3"}, "reference": "ChIJJajSL4WJQQ0RvQpjoDR7Gsg", "scope": "GOOGLE", "types": ["electronics_store", "home_goods_store", "store", "point_of_interest", "establishment"], "vicinity": "Calle Eucalipto, 2, Chapinería"}, {"business_status": "OPERATIONAL", "geometry": {"location": {"lat": 40.3818853, "lng": -4.2169174}, "viewport": {"northeast": {"lat": 40.3833475802915, "lng": -4.215594369708498}, "southwest": {"lat": 40.3806496197085, "lng": -4.218292330291503}}}, "icon": "https://maps.gstatic.com/mapfiles/place_api/icons/v1/png_71/shopping-71.png", "icon_background_color": "#4B96F3", "icon_mask_base_uri": "https://maps.gstatic.com/mapfiles/place_api/icons/v2/shopping_pinlet", "international_phone_number": "+34 918 54 80 84", "name": "Galpark Ibérica", "opening_hours": {"open_now": false}, "photos": [{"height": 768, "html_attributions": ["<a href=\"https://maps.google.com/maps/contrib/117142952443570834146\">Galpark Ibérica</a>"], "photo_reference": "AWn5SU6YkhyngKKjED6_87kAplA67Xsb9JmFUE2qu-wB0vHf94U-PrnddMoRunbYxqkCnauIbjCj4TDKp-mW9TzBt-PvjkKgXme_RAzvARp9QhkohwTe6nBpCfDLcpbi9FHH69CxXgWLj4YYNIJgOacM0glQjRkt_OCh1Wyi6wIPV4Wazz388bHMQsceaxR_S5PFrkCWMveaevIRuRfutVLK0QzXYQY0Hr2QZdP1rYXvDNL_ZK3mTBuyekEKPpnn3kHQ8STd38WUMO6XGVkEFAKq5XHNnXDNyXLlvA7qOX3ti2aGSeG7gbaRmmhv5rhrw6YsobosHu63ieg", "width": 1024}], "place_id": "ChIJzwAzTrYMQQ0Rw2OS3YFLxSw", "plus_code": {"compound_code": "9QJM+Q6 Chapinería, Spain", "global_code": "8CGQ9QJM+Q6"}, "rating": 4.3, "reference": "ChIJzwAzTrYMQQ0Rw2OS3YFLxSw", "scope": "GOOGLE", "types": ["furniture_store", "home_goods_store", "store", "point_of_interest", "establishment"], "user_ratings_total": 13, "vicinity": "Calle Fuente de la Apretura, 13, Chapinería"}, {"business_status": "OPERATIONAL", "geometry": {"location": {"lat": 40.3849558, "lng": -4.2481352}, "viewport": {"northeast": {"lat": 40.3863026802915, "lng": -4.246738969708498}, "southwest": {"lat": 40.3836047197085, "lng": -4.249436930291503}}}, "icon": "https://maps.gstatic.com/mapfiles/place_api/icons/v1/png_71/generic_business-71.png", "icon_background_color": "#7B9EB0", "icon_mask_base_uri": "https://maps.gstatic.com/mapfiles/place_api/icons/v2/generic_pinlet", "international_phone_number": "+34 655 49 17 86", "name": "Clínica Veterinaria Huellas", "opening_hours": {"open_now": false}, "photos": [{"height": 2448, "html_attributions": ["<a href=\"https://maps.google.com/maps/contrib/116038292274854872541\">Rocio Fernández</a>"], "photo_reference": "AWn5SU6hIP2nKBlZ0j7Witi5cGtpOUCkd0iiRFtNpvl55h8UcGWaaTngZ3L72IDDWZTncWnTf1Zl7H3B6YopL03bcS-7BtY1v_lgbrZniYPkYQHXZoF3SCaJoFUE24V0haKcW6eQnprlIEDw9e9vLCYGrsoI6gipfBqIvwVzMh0oMDDpdC02yUljdbu9bMvJ-AexicmAvYRMH1rdPVinKT4eQN5jq6IXnf3LyndnJ1yyczCtJhwq6lr-R8XYwMEVgjhQ8HrJBABSnbZousjDAO-nLCZbj0GHcJd9dM0CzvoOEusspFj751ZHt3K6EBb9zSVWp4OzbXpMo8sWW0vQexJBMFHIuKYYMuFkDXDp7DajZfXFgf-JPoRunU1XIunRxamg2uSQ4Qb_QX6nmYBFSWQKjsLGTK32hWvKBwgZF8BICfyuIxS0KUkRlH8w3l3uSWwPB302aOIfIw9ZwQLpwx-c3LLeKn5oMBIjtQNzkWDIq_pj79GJVO1_y5g2D1D_e2WJxKOfxKVXIRLo8noiM_S6n05khu7EM_XCLx8uKy8r4sPUosZ4z_8WT7jIJ-Jqicyv6JdBWXRfZwyHTpiMtg-iss0vcGEp_McswC6myFXmX0irGnRLpnmSKi0MA-oHQ0X3oMTLdw", "width": 3264}], "place_id": "ChIJz3-uOxqwQQ0R5EGwZSaqdl4", "plus_code": {"compound_code": "9QM2+XP Navas del Rey, Spain", "global_code": "8CGQ9QM2+XP"}, "rating": 4.8, "reference": "ChIJz3-uOxqwQQ0R5EGwZSaqdl4", "scope": "GOOGLE", "types": ["veterinary_care", "point_of_interest", "establishment"], "user_ratings_total": 97, "vicinity": "Avenida de Madrid, 4, Navas del Rey"}, {"business_status": "OPERATIONAL", "geometry": {"location": {"lat": 40.383895, "lng": -4.2512994}, "viewport": {"northeast": {"lat": 40.38523058029151, "lng": -4.249929069708498}, "southwest": {"lat": 40.38253261970851, "lng": -4.252627030291502}}}, "icon": "https://maps.gstatic.com/mapfiles/place_api/icons/v1/png_71/school-71.png", "icon_background_color": "#7B9EB0", "icon_mask_base_uri": "https://maps.gstatic.com/mapfiles/place_api/icons/v2/school_pinlet", "international_phone_number": "+34 619 03 21 11", "name": "Autoescuela San Martín - Navas del Rey", "opening_hours": {"open_now": false}, "place_id": "ChIJDS8SWhewQQ0RVJgmJFRPjAw", "plus_code": {"compound_code": "9PMX+HF Navas del Rey, Spain", "global_code": "8CGQ9PMX+HF"}, "rating": 4.9, "reference": "ChIJDS8SWhewQQ0RVJgmJFRPjAw", "scope": "GOOGLE", "types": ["point_of_interest", "establishment"], "user_ratings_total": 109, "vicinity": "Avenida de Madrid, 62, Navas del Rey"}, {"business_status": "OPERATIONAL", "geometry": {"location": {"lat": 40.3841341, "lng": -4.251130799999999}, "viewport": {"northeast": {"lat": 40.3854921302915, "lng": -4.249726119708497}, "southwest": {"lat": 40.3827941697085, "lng": -4.252424080291502}}}, "icon": "https://maps.gstatic.com/mapfiles/place_api/icons/v1/png_71/civic_building-71.png", "icon_background_color": "#7B9EB0", "icon_mask_base_uri": "https://maps.gstatic.com/mapfiles/place_api/icons/v2/civic-bldg_pinlet", "international_phone_number": "+34 918 65 08 70", "name": "Oficina Rural de Correos", "opening_hours": {"open_now": false}, "photos": [{"height": 3024, "html_attributions": ["<a href=\"https://maps.google.com/maps/contrib/107824108004755455711\">Anna N</a>"], "photo_reference": "AWn5SU4jD09fxLIF-EY_YKQXuXyBuMRB0qUAWGBPoGyyxs26lNgT-7wZXjW_SrB2jeS3jN-5N-AMaigd3EdwH9iXcPnh42GFwBUkSf0WKaraPS7j4vcwbjLOFkWlzU2TJW-Iosddye6j6lTXD_YbIQHSKWEZUO3v5f7mWLJh5ek-1LgxOUMKcfSn_0Jv0lvJAIfF0-6pKmXXmMe_cxKAonXH1FZ3tC0ftxj2zWQNFaAElQEvk9gxvffIKD2kGQ-f7pM9BqAbbtTloQfJtod6zWUj59eSZjsRkq5jMAEqrEuJO1KLkrFddK8GTmTK3fPI6dv5wctynmOrHFwoU69iIqbq-ePNONR57d9utBk6V1jxjAW_FyKWpzi5WD_TbnYaEB7Y20ePWpQez5sUCgwjMTZliwioFpBZnC_dRp5iuTRmQOkfccW_oka3iSoUVlWd9YaTxvvIxW-4Q5RLjfZVJQQWbiNh0ea_WWVv8FXiQDyHF05yFIfoeZCiMLDEuZxK4NRU4nIjF90KzjRXg_t7dzrL0_nT1FYntEfKPOyGluB37QWYj0VDz9LaI0JXdQQxRIHmJv2Nw7fvUHmjApIPm7Ri8LYsuS3MHYXRkSAKQImDM7mpXReEe3L1jrkpOMfP2f9y", "width": 3024}], "place_id": "ChIJndoX0RmwQQ0Rj1UXwnRz0Ew", "plus_code": {"compound_code": "9PMX+MG Navas del Rey, Spain", "global_code": "8CGQ9PMX+MG"}, "rating": 2.3, "reference": "ChIJndoX0RmwQQ0Rj1UXwnRz0Ew", "scope": "GOOGLE", "types": ["post_office", "finance", "point_of_interest", "establishment"], "user_ratings_total": 17, "vicinity": "Avenida de Madrid, 56, Navas del Rey"}, {"business_status": "OPERATIONAL", "geometry": {"location": {"lat": 40.4194482, "lng": -4.1984254}, "viewport": {"northeast": {"lat": 40.4207876802915, "lng": -4.197028069708498}, "southwest": {"lat": 40.4180897197085, "lng": -4.199726030291503}}}, "icon": "https://maps.gstatic.com/mapfiles/place_api/icons/v1/png_71/civic_building-71.png", "icon_background_color": "#7B9EB0", "icon_mask_base_uri": "https://maps.gstatic.com/mapfiles/place_api/icons/v2/civic-bldg_pinlet", "international_phone_number": "+34 918 65 10 24", "name": "Consultorio Local Colmenar Del Arroyo", "opening_hours": {"open_now": false}, "photos": [{"height": 2351, "html_attributions": ["<a href=\"https://maps.google.com/maps/contrib/103644858766260406648\">Un opinante delirante</a>"], "photo_reference": "AWn5SU6rVtdv5CjG5YGI1RGmYrTX2ckpRfJjmN9tqFuDyBXcDcs7aQ5hppfaDUWoqjMVVxyO6x10mA40hfroj1swU-zu6A3Pzg8-EwQ2GHgaIL-dVkZiT1S230PO6uKwxzVqBygmsGKyeUQAh0izFAqmfDAmmvKbvos5XXNLV-wfMEqJbL50jhtnUDh0wbfWfRO4P6PtpQ253MrTzmOFhsfomrE0DSCVSf_Ma0iM4b8NYRQXqw3443SdooPNMAdYEBW_d8BV_M6VfUIYxgW_wfbO8b5gbpszLq1TqEst4_E3Apl4FoEXMId5NMb0St3ky6nrl-SdKRXyxgrmfQyyinu6lgPhRbcXd6Pasq5g200M6pBfiks5kJW32lJR9Zpt-VmY_fe35Ey8RAXbHqYcXjtROakAEjAidOjHGHWrJdwRVnUpCbCY7LBffV7plRHFjrbGqzr3apn6nyXwDFsbPBkva1rfbiZc6RmnRqvAS-0WfrXwpeBoVwQH1zMZsf7e4TULDxtx004oMxPGwu_KFcSThriCVOOnpCg14yh7Piq1n_aZn_f6EpABrO7d3LFz0UoIHbTPOSDsLUCM-yaLQmyhXQ1G9_Nt4kGfWnr5goT5Hd0e9IAJIomX8v__uRK4q8tmuK-xeg", "width": 3887}], "place_id": "ChIJg6L83hmwQQ0RSawHpYFt4uk", "plus_code": {"compound_code": "CR92+QJ Colmenar del Arroyo, Spain", "global_code": "8CGQCR92+QJ"}, "rating": 3.4, "reference": "ChIJg6L83hmwQQ0RSawHpYFt4uk", "scope": "GOOGLE", "types": ["health", "point_of_interest", "establishment"], "user_ratings_total": 11, "vicinity": "Calle Real, 7, Colmenar del Arroyo"}, {"business_status": "OPERATIONAL", "geometry": {"location": {"lat": 40.3860327, "lng": -4.244468999999999}, "viewport": {"northeast": {"lat": 40.3873384802915, "lng": -4.243186019708499}, "southwest": {"lat": 40.3846405197085, "lng": -4.245883980291503}}}, "icon": "https://maps.gstatic.com/mapfiles/place_api/icons/v1/png_71/generic_business-71.png", "icon_background_color": "#7B9EB0", "icon_mask_base_uri": "https://maps.gstatic.com/mapfiles/place_api/icons/v2/generic_pinlet", "international_phone_number": "+34 918 65 02 56", "name": "Maydecor Núñez", "opening_hours": {"open_now": false}, "photos": [{"height": 768, "html_attributions": ["<a href=\"https://maps.google.com/maps/contrib/104683067626746567939\">Maydecor Núñez</a>"], "photo_reference": "AWn5SU4XdfObf2blcL01JeHtzYMPet0cbDPdBKhvIfq75mWmM2zIYliroTGRN5RO2ruF7JlOoZpiKmPU23X8Z6hSpAFq9izA7_ALXOpCkgN9Z4ynv58LeFUOxvFj3lbl241r0cUYjaIXqQckYFleuFQ6L1k23iMXA9SMdo1oIFDCr7eIoTLXsLrc8cTFI5wyeEvgkjEq9AajYeUWWda4A0RKaRw70ayeaQwdlt7ZhBxj3dC3kvNktqV_TUVNXRv2ERRT3SE_v-_Vc5wfGdOCVkaQjikZupNPt5PxwHDLe5HyKbVy28A139CvfATb66NTf3p-17fJ59j7grQ", "width": 1366}], "place_id": "ChIJE0V_R8SxQQ0RmbZJwu-whCY", "plus_code": {"compound_code": "9QP4+C6 Navas del Rey, Spain", "global_code": "8CGQ9QP4+C6"}, "rating": 4.4, "reference": "ChIJE0V_R8SxQQ0RmbZJwu-whCY", "scope": "GOOGLE", "types": ["home_goods_store", "store", "point_of_interest", "establishment"], "user_ratings_total": 55, "vicinity": "Calle de la Cañada Ajos, 4, 6, Navas del Rey"}, {"business_status": "OPERATIONAL", "geometry": {"location": {"lat": 40.4185129, "lng": -4.199547}, "viewport": {"northeast": {"lat": 40.4198081802915, "lng": -4.198123319708499}, "southwest": {"lat": 40.4171102197085, "lng": -4.200821280291503}}}, "icon": "https://maps.gstatic.com/mapfiles/place_api/icons/v1/png_71/school-71.png", "icon_background_color": "#7B9EB0", "icon_mask_base_uri": "https://maps.gstatic.com/mapfiles/place_api/icons/v2/school_pinlet", "international_phone_number": "+34 918 65 13 48", "name": "Public school San Vicente", "photos": [{"height": 3984, "html_attributions": ["<a href=\"https://maps.google.com/maps/contrib/116159096298803854095\">Antoño “El Tio Antoño” El Tío</a>"], "photo_reference": "AWn5SU6c5rboT2Za32ydg5XSlZB6xLgPORvrC_gTNTFpIaxkTHDGl1GTSQ-PveBo1rTicV3qQzMToeQ8o6RMFiCHAkfSWo1tf1ZkYoaUamJ0IO4hpxKU5hHJZO2uYB2--nbLVMj1rDmqA29V3TqA64HhdDbN3AANC_yUXdQZ_SaIh1W6X-yGs4L5AGzfTeE2HhCkp8N-h-n936YyWQ25FYdwwovTjDzXy4cr5r1OKe697zh82lIE3rAVSKvjU6H0squflemDE3vXYWBjq2eGpjlosd2ehPSixirVdD7eFw3X6xRH-PU65RzGad7lqEvZcE2uWGQWt-HnqQcdd2hajOh4v3CdJaH1IunWgicRumN25WsVCwWgW7g7sR8Ph_31qFRkeapMmBVpAeOzuYCZMIfTYiyCypO9kRQ5oOTkr5xYrHI-H25MqGfsHymcHf1LSYzzQsyiFhrZZ0CmqBJsF_si98MX1O7v11BBACvRuDfcnUxjRgb3JhclOt2KE0nizUpY1YB60SkTMd2sSGQdrNYDytlCIyDwaJ5UakzTCHHxy9QQvtdtb_NtNGbP3mTWHigMVKnx9UH_CkwtxAxfUrPe99xkOX-JbELspxur_ic429lmZhXGCMiKutTLcUIq-Lb4uvL9kg", "width": 2988}], "place_id": "ChIJW-bj_BilQQ0R6eDHGjCwLAc", "plus_code": {"compound_code": "CR92+C5 Colmenar del Arroyo, Spain", "global_code": "8CGQCR92+C5"}, "reference": "ChIJW-bj_BilQQ0R6eDHGjCwLAc", "scope": "GOOGLE", "types": ["school", "point_of_interest", "establishment"], "vicinity": "Calle de las Escuelas, Colmenar del Arroyo"}, {"business_status": "OPERATIONAL", "geometry": {"location": {"lat": 40.3801574, "lng": -4.2082166}, "viewport": {"northeast": {"lat": 40.3814697802915, "lng": -4.206883919708497}, "southwest": {"lat": 40.3787718197085, "lng": -4.209581880291502}}}, "icon": "https://maps.gstatic.com/mapfiles/place_api/icons/v1/png_71/generic_business-71.png", "icon_background_color": "#7B9EB0", "icon_mask_base_uri": "https://maps.gstatic.com/mapfiles/place_api/icons/v2/generic_pinlet", "international_phone_number": "+34 918 65 21 87", "name": "Saina E Hijos S L", "opening_hours": {"open_now": false}, "photos": [{"height": 3000, "html_attributions": ["<a href=\"https://maps.google.com/maps/contrib/110537374073773109895\">IRIS HERNANDEZ MUÑOZ</a>"], "photo_reference": "AWn5SU5nnsWtdMr2NYeZETBkU1Lwlf0Q56ZLk2fWQPZNosgiO2NWTJPg99v4XreSerUUa8ivLRy01VfhFgVaYQ1Fu3FpcabMth1losKkMUB9LUgUfGh45_MCWds648JGlwN5Mh8TVwWGYbc-XkYqZ54uXqjqWn8PzfBMW_KGrR9sILmW66k0M34JfOE0Gk2UnLKs_NQE1f6csI7G18__tDXd4ODbY7EzxXJdyL-YPqUvC-olZFQpk1zE7GquBc0kC0xSYYVUHdEgQWm10E0DWWzbB9wIFxebogXMJreSb_Krh2abJ9zsKQLSLG779nsPs2C309VMW9kA3IWYONBj53sQ9y8GO6SwjWVivQIcSJ7NfyU141E-z9zdPNwDB-bv9fOa0wCyUV2jCX6D7awOfhDVwKU3G9XlCU7kPOQCRDuC_BCt6Tn4E92bRTBr1o0_GPdEjsVf-VcL-4QmBTrv91wNauqpRd6iNFVAKcC-y36z9KrdMKTGt1i8GHypqIgwJ5twSM4hTXkpSVTVHxVtpBZ1dnCL4kZb0C08x4qKxOjwaDpS3G9lOlMg9UM86iDlHiVLseRX3bvIpf7V_Zkfs9P-y1Z-mm_UGSe7WoxNReU-iJ2tUX0UTlQWV1TKfVnQoNw_WKn30w", "width": 4000}], "place_id": "ChIJpS_2TMG6QQ0RXVdJdO1AxLs", "plus_code": {"compound_code": "9QJR+3P Chapinería, Spain", "global_code": "8CGQ9QJR+3P"}, "rating": 4.2, "reference": "ChIJpS_2TMG6QQ0RXVdJdO1AxLs", "scope": "GOOGLE", "types": ["point_of_interest", "establishment"], "user_ratings_total": 12, "vicinity": "Calle del Matadero, 1, Chapinería"}, {"business_status": "OPERATIONAL", "geometry": {"location": {"lat": 40.37956579999999, "lng": -4.2192142}, "viewport": {"northeast": {"lat": 40.38095733029149, "lng": -4.217875019708498}, "southwest": {"lat": 40.37825936970849, "lng": -4.220572980291502}}}, "icon": "https://maps.gstatic.com/mapfiles/place_api/icons/v1/png_71/generic_business-71.png", "icon_background_color": "#7B9EB0", "icon_mask_base_uri": "https://maps.gstatic.com/mapfiles/place_api/icons/v2/generic_pinlet", "international_phone_number": "+34 918 65 21 86", "name": "ROTULAND", "opening_hours": {"open_now": false}, "photos": [{"height": 2654, "html_attributions": ["<a href=\"https://maps.google.com/maps/contrib/110985290954833923819\">ROTULAND</a>"], "photo_reference": "AWn5SU7YRO6bHozC7YzVPaE8JqfDKV74pC4hjs67uKTrg5jRZYLURBtMaQgdf1C6-s_ccYAfUdy1BWLw5wod4o6nPMpYddXpOf4hWUpuZN41p9CQG2RWtHFdB4DNJnYfme7KeQ54eHa8xNdChXlxJH85Rw7sC9iw42SuE9yWP4pOZO0OJzhopVrYazKDS__RFZ1m50X7eiwgc4EWroiCZ4p58DYUTdXh-4v3lMoghLGh6wVl_YCSM8VxC19687d_q36gfbUqLBLUdQFZ3AF-fc6E1m-dg80OthO4vHeEZQyrHPxO7n45Shof1HbR5G1WU0V5gVOmUD71Zb8", "width": 2271}], "place_id": "ChIJC8LXery6QQ0Ry4HDk9kjgQk", "plus_code": {"compound_code": "9QHJ+R8 Chapinería, Spain", "global_code": "8CGQ9QHJ+R8"}, "reference": "ChIJC8LXery6QQ0Ry4HDk9kjgQk", "scope": "GOOGLE", "types": ["point_of_interest", "establishment"], "vicinity": "Calle Marqués de Villanueva de la Sagra, 54, Chapinería"}, {"business_status": "OPERATIONAL", "geometry": {"location": {"lat": 40.3784536, "lng": -4.2101315}, "viewport": {"northeast": {"lat": 40.3797837802915, "lng": -4.208720669708498}, "southwest": {"lat": 40.3770858197085, "lng": -4.211418630291503}}}, "icon": "https://maps.gstatic.com/mapfiles/place_api/icons/v1/png_71/generic_business-71.png", "icon_background_color": "#7B9EB0", "icon_mask_base_uri": "https://maps.gstatic.com/mapfiles/place_api/icons/v2/generic_pinlet", "international_phone_number": "+34 918 65 24 74", "name": "DECA ASESORAMIENTO Y GESTION INTEGRAL DE EMPRESAS, S.L.", "opening_hours": {"open_now": false}, "place_id": "ChIJy3eWHMG6QQ0RPNXoEwclPg4", "plus_code": {"compound_code": "9QHQ+9W Chapinería, Spain", "global_code": "8CGQ9QHQ+9W"}, "rating": 3.4, "reference": "ChIJy3eWHMG6QQ0RPNXoEwclPg4", "scope": "GOOGLE", "types": ["finance", "point_of_interest", "establishment"], "user_ratings_total": 17, "vicinity": "Calle de Prudencio Melo, 14, Chapinería"}, {"geometry": {"location": {"lat": 40.4176079, "lng": -4.1987434}, "viewport": {"northeast": {"lat": 40.42626307663302, "lng": -4.190691957953372}, "southwest": {"lat": 40.41145113340971, "lng": -4.203427133936692}}}, "icon": "https://maps.gstatic.com/mapfiles/place_api/icons/v1/png_71/geocode-71.png", "icon_background_color": "#7B9EB0", "icon_mask_base_uri": "https://maps.gstatic.com/mapfiles/place_api/icons/v2/generic_pinlet", "name": "Colmenar del Arroyo", "photos": [{"height": 1468, "html_attributions": ["<a href=\"https://maps.google.com/maps/contrib/101321764474141234821\">ricardo fernández del Blanco</a>"], "photo_reference": "AWn5SU5Cqnv7op5NVygFkfmI0exRw1K2DaI7Zm1csTPzNzgfDs-Gnb45zhhxZpe_OorRuxIBhLZec18O0S4R_bWTYCIrV8-gX7vplpSWj27Nf_4rH4atIDOeB42RnMhfak9ldQiJa7a3A1N3qQ9mvZmRqcqvvCiHQuBWPoTfhXfGEInYGRvBqHDNo5yRJOazQfYGJaQoLuAMxT7QqLYI0YpE7wuXwt29qenIX6nos4RiSANVFeNVx_ZOJXd7-m6RLiDjGYXhsT3aE77uq9yjaTxx2oH7mFyHVw0EMToQ1iyhtNFpXKh6AdfIgdV4gkHJzgk3jrHvaX56RVmDTGAbGR2DqYDjEg-k6FB3HbgizG1PSFNLQBLgg-aMrMub1CW6BGHZmJv0Jcs7VUKo9056ShFxsQ5_1TK4K0oCrXLeJb1cszCGYpOsWUK4F9Ywlg9_yVi-P0xUxGLlmy6UB926BwzkFaVaIAR-8mbehwXfWhedM7NQZt5eytIafqCGMJobuDjZXQo-ZrcIyMhNCnLeaXja3pJxcPNxoGwogcAxaiVPg1a-bjxxAoyyYUdKUwHGNMgskHQQ2N8pfv6JJLOVQdZQK3OVE07uTKeSvUaJMczQv1ppQ1eR6CfV68E8GLH5pRBiGr9Rhg", "width": 3264}], "place_id": "ChIJTcyaBiKlQQ0RLGDHkdveVYA", "reference": "ChIJTcyaBiKlQQ0RLGDHkdveVYA", "scope": "GOOGLE", "types": ["locality", "political"], "vicinity": "Colmenar del Arroyo"}]