[{"business_status": "OPERATIONAL", "geometry": {"location": {"lat": 40.3613579, "lng": -4.4000281}, "viewport": {"northeast": {"lat": 40.3627541302915, "lng": -4.398631769708497}, "southwest": {"lat": 40.3600561697085, "lng": -4.401329730291502}}}, "icon": "https://maps.gstatic.com/mapfiles/place_api/icons/v1/png_71/generic_business-71.png", "icon_background_color": "#7B9EB0", "icon_mask_base_uri": "https://maps.gstatic.com/mapfiles/place_api/icons/v2/generic_pinlet", "international_phone_number": "+34 918 67 67 00", "name": "Centro Oftalmologico San Martín", "opening_hours": {"open_now": false}, "place_id": "ChIJ5agICTNNQA0RAe5axbOup64", "plus_code": {"compound_code": "9H6X+GX San Martín de Valdeiglesias, Spain", "global_code": "8CGQ9H6X+GX"}, "rating": 3, "reference": "ChIJ5agICTNNQA0RAe5axbOup64", "scope": "GOOGLE", "types": ["doctor", "health", "point_of_interest", "establishment"], "user_ratings_total": 6, "vicinity": "Plaza de la Corredera, 1, San Martín de Valdeiglesias"}, {"business_status": "OPERATIONAL", "geometry": {"location": {"lat": 40.3594342, "lng": -4.3921183}, "viewport": {"northeast": {"lat": 40.36071958029149, "lng": -4.390862069708498}, "southwest": {"lat": 40.3580216197085, "lng": -4.393560030291503}}}, "icon": "https://maps.gstatic.com/mapfiles/place_api/icons/v1/png_71/generic_business-71.png", "icon_background_color": "#7B9EB0", "icon_mask_base_uri": "https://maps.gstatic.com/mapfiles/place_api/icons/v2/generic_pinlet", "international_phone_number": "+34 918 61 21 69", "name": "Centro Médico Quirúrgico Veterinario La Encinilla, S.L.", "opening_hours": {"open_now": false}, "photos": [{"height": 3000, "html_attributions": ["<a href=\"https://maps.google.com/maps/contrib/115233683524814688590\">Rodrigo Arévalo Presedo</a>"], "photo_reference": "AWn5SU7UoU_73LQDW9zwtaExSO7aD1BUI6CC891_lii6R-JHp8USIugPqCk6fOf6Bw6Oqfsget7dqJajvfixESmvEujiRnoma6KLaNSn9JV9vABo_g_SYXDDqWDRaZxjahvufW8IRlxLHmZqmYn4Afk5zlEoXauhF_ayp5ezIZ5rjhZD3uZ-QMmCxzNHCCVGeJVybAkRKtrxVZEfvVsaz7SLLrkehLdHCnb0UpWcNr41CyUh7MBIdFyqPLW-4U7ULo6y3Pex2Qiz33KR5Dr5ppWOR7FI2PEhdiekRcn2_4Qyyob5NjDJn9D0SeSfjdQSJnnoaxa3jQa2fbCc45GhTqdnYNaVIOXswizLjkmh-ffMRSC1lyvO9pmapbmZQDCWn6Ni0Tu9DkG8FxehVHhMrKS_Sfn3N6wwa6jI4rKrKIjTWUSCS2Ed02TEPFnCHzHx40CpWJIJvFz10seM4xhC10ETNaKLumioE0kO2uQ9iCQObhUaprErSD7W-SA9g8rxqG0200ZrfIjbMJrrmYbg3gGQMSR8nswUNw7DUFLkoY026xho94TttxZ6-pjXxF72S166yJ6dmk_ey9irzLojiVrJbx_aZ-7lFPAtes3yMOUlW6q-qRrq78tS5VRzL6kyXPWk", "width": 4000}], "place_id": "ChIJIZ97DM6yQQ0R4efmjoiPyAQ", "plus_code": {"compound_code": "9J55+Q5 San Martín de Valdeiglesias, Spain", "global_code": "8CGQ9J55+Q5"}, "rating": 4.5, "reference": "ChIJIZ97DM6yQQ0R4efmjoiPyAQ", "scope": "GOOGLE", "types": ["veterinary_care", "store", "doctor", "health", "point_of_interest", "food", "establishment"], "user_ratings_total": 137, "vicinity": "Avenida Madrid, 27, San Martín de Valdeiglesias"}, {"business_status": "OPERATIONAL", "geometry": {"location": {"lat": 40.3565616, "lng": -4.3287369}, "viewport": {"northeast": {"lat": 40.3582192302915, "lng": -4.327074369708498}, "southwest": {"lat": 40.3555212697085, "lng": -4.329772330291503}}}, "icon": "https://maps.gstatic.com/mapfiles/place_api/icons/v1/png_71/generic_business-71.png", "icon_background_color": "#7B9EB0", "icon_mask_base_uri": "https://maps.gstatic.com/mapfiles/place_api/icons/v2/generic_pinlet", "international_phone_number": "+34 918 64 41 81", "name": "Centro Desintoxicación Madrid Valle del Tiétar", "opening_hours": {"open_now": true}, "photos": [{"height": 384, "html_attributions": ["<a href=\"https://maps.google.com/maps/contrib/103247865712185620675\">Centro Desintoxicación Madrid Valle del Tiétar</a>"], "photo_reference": "AWn5SU7or1KuEYi4zctAmu4aCObHhIGm3zJ-lx4fTlDZK5fvndWWz1W7r5CAQSM8joPtz2Z8hirmtTMG3EuLr2UcZaNTBiEUwjFQSSGGkrIkQj37sWUnBN4MfA8w6RIWEj_y4fegn4tMct_3DUYE6oso3i1CwM6Ge22qdVVH22WBq6vzMLzzcLK546NxwUNNjKOUOXf81kD4wviea5bPRf5hwC4l1KqpV4vaYwf8lhIt4ULfXzaJ7h6IBcelPPqhhlY7jx2SV7n01RPLxD5-AlnoF6MRmVYRRlguU-QXsDUTxWI6qqD9zmlmyUyZqLN2-bptPbZy7-gTWaM", "width": 512}], "place_id": "ChIJiWSwCDGyQQ0R1mzS0F6jaa4", "plus_code": {"compound_code": "9M4C+JG Pelayos de la Presa, Spain", "global_code": "8CGQ9M4C+JG"}, "rating": 4.5, "reference": "ChIJiWSwCDGyQQ0R1mzS0F6jaa4", "scope": "GOOGLE", "types": ["doctor", "health", "point_of_interest", "establishment"], "user_ratings_total": 59, "vicinity": "Camino de Valdeyernos, 22, Pelayos de la Presa"}, {"business_status": "OPERATIONAL", "geometry": {"location": {"lat": 40.358187, "lng": -4.376431699999999}, "viewport": {"northeast": {"lat": 40.3595375802915, "lng": -4.375186019708497}, "southwest": {"lat": 40.3568396197085, "lng": -4.377883980291502}}}, "icon": "https://maps.gstatic.com/mapfiles/place_api/icons/v1/png_71/generic_business-71.png", "icon_background_color": "#7B9EB0", "icon_mask_base_uri": "https://maps.gstatic.com/mapfiles/place_api/icons/v2/generic_pinlet", "name": "UVI 20 SUMMA112", "place_id": "ChIJCfWaYpizQQ0RtY1rhSTlF_s", "plus_code": {"compound_code": "9J5F+7C San Martín de Valdeiglesias, Spain", "global_code": "8CGQ9J5F+7C"}, "reference": "ChIJCfWaYpizQQ0RtY1rhSTlF_s", "scope": "GOOGLE", "types": ["doctor", "health", "point_of_interest", "establishment"], "vicinity": "Diseminado Cr Alcorcon, 8C, Madrid"}, {"business_status": "CLOSED_TEMPORARILY", "geometry": {"location": {"lat": 40.36285139999999, "lng": -4.3981537}, "viewport": {"northeast": {"lat": 40.3641938302915, "lng": -4.396823619708497}, "southwest": {"lat": 40.36149586970851, "lng": -4.399521580291502}}}, "icon": "https://maps.gstatic.com/mapfiles/place_api/icons/v1/png_71/generic_business-71.png", "icon_background_color": "#7B9EB0", "icon_mask_base_uri": "https://maps.gstatic.com/mapfiles/place_api/icons/v2/generic_pinlet", "international_phone_number": "+34 624 41 57 95", "name": "Clínica Podológica San Antonio", "permanently_closed": true, "photos": [{"height": 3000, "html_attributions": ["<a href=\"https://maps.google.com/maps/contrib/100405010235824641823\">Cristina San Antonio Pérez</a>"], "photo_reference": "AWn5SU4pYa7eXWS1Gc55FvUeIc1rB4NdPAd4ubdTeUn61etJPOkFRuduzXSuTu5cIxGM_k-5W-C-T1d4vdCbc84Y2yuQ2W5eVDy0IKs6cbPunj3gQuzkZTYet5_OaQ5OTrXa8O7-8kHJkSglIEJDcxzHcj_q8uAz1pEk-qcu6ZHOvqZk55J6XLq1Z0OoI1JSqHKhVf12HW8F4-9uNbGxw92HiuLiNDtHrkNF58LzwhsfdVry-fwBIUCQvKziBTlMmTLO7ZcWQkiQdkZH4zbJgQm9KoQPY8MLgGecb9Sht_B0hfZ5uZ1gWoDUQUaqtEbK0N3GQIBnH_COtRgRQdWDwhFJhuES_RGx74GMRis2w2tBzVZ9ekKMC4IwQ4sEM5Op2cTYRdd77CXpvuqplo9hbhF3k1PSq7CPNm3BVLl5idpw-Bxx497ZI9ZufW_FjI8knzZfPpun60BiPrIAW0EyB7jOBdhZGSyUL2grSZMZMN5CXyS3P8rbgxZr-fASu73nmEzZ1ErOz1JIssdni484ATLD_w8jOD4Lm3BsJwkRURt6tV7ZPa1crLzV_zOMaeAIzekE29uMiC-BUPGVZFeKw5SswQeNywvEvClU61T1XlRXZJswwT2kF7QhAC1nzheE-ADHlJ1UVQ", "width": 4000}], "place_id": "ChIJIxX0JgZNQA0RzrMh4XX52kQ", "plus_code": {"compound_code": "9J72+4P San Martín de Valdeiglesias, Spain", "global_code": "8CGQ9J72+4P"}, "rating": 5, "reference": "ChIJIxX0JgZNQA0RzrMh4XX52kQ", "scope": "GOOGLE", "types": ["doctor", "health", "point_of_interest", "establishment"], "user_ratings_total": 9, "vicinity": "Calle de Enrique Capdevila, San Martín de Valdeiglesias"}, {"business_status": "OPERATIONAL", "geometry": {"location": {"lat": 40.3616511, "lng": -4.3995375}, "viewport": {"northeast": {"lat": 40.36294058029149, "lng": -4.398179969708497}, "southwest": {"lat": 40.36024261970849, "lng": -4.400877930291502}}}, "icon": "https://maps.gstatic.com/mapfiles/place_api/icons/v1/png_71/generic_business-71.png", "icon_background_color": "#7B9EB0", "icon_mask_base_uri": "https://maps.gstatic.com/mapfiles/place_api/icons/v2/generic_pinlet", "international_phone_number": "+34 918 61 01 16", "name": "Leandro del Río Guerra", "photos": [{"height": 3024, "html_attributions": ["<a href=\"https://maps.google.com/maps/contrib/114507985490440313925\">José V. Vidal</a>"], "photo_reference": "AWn5SU74eYnz126fB1428XoZYr0NxZ1UcDo_9qLB7YkUYRvhPwQ5801mWgzcAjnHFMBtZ9sschoQYhQYg5BjRft2P2EnqrRITsv45MtmnwMCP6KRJUObpf9DOeboWK1LbRgWU0X5H-wLSXuUzZow7fc0ld1I0pqWMP_Dyglk1Eae6nztGdJdVXb8Oq5sbZbIrVMAtJL25yXg9c0_v8_XcDtIcdk3MWbQhbgItYpS_gJ_4WB6ZEjphHDkGH6-EIinG_FU3nnPFnQopUGZ10Vt2OGLh35281Ea5jKVOF6-qE7DdzEyS8jaXOEmJLKQqztZF73j6K07gdzH-wo1FtuMA_R-0T27drltQ7qz3MpqeCpC7TvZ6q3vhUDcc87_TbJbAkUhajqHoCJznk0hXW_HQVwnl3c37C1sgLWIyaqbTH4gcO9fBa4EPaUPzSG-wj-_zZONR8Db-QXJOLVHtrvpq5fYio4SULj-FN6TIDa9dCrvyFqXlzRfXa9anQhGC0SSSKCkP9vTx-3UVQkZ90PG9ftaao0xyCCejxpjob4U3Kk3lhl3rvLAX42TQV86ceycJu_5qIMa3WBvClXhBFbEQpHkpTPLQBalxna1hV7OtQ92mqiA5LoQGaoAtxFnp_lV5MaLxot8og", "width": 4032}], "place_id": "ChIJIT7GDDNNQA0RtGndi88fAjQ", "plus_code": {"compound_code": "9J62+M5 San Martín de Valdeiglesias, Spain", "global_code": "8CGQ9J62+M5"}, "rating": 4.3, "reference": "ChIJIT7GDDNNQA0RtGndi88fAjQ", "scope": "GOOGLE", "types": ["dentist", "doctor", "health", "point_of_interest", "establishment"], "user_ratings_total": 13, "vicinity": "Calle de las Carretas, 1, San Martín de Valdeiglesias"}, {"business_status": "OPERATIONAL", "geometry": {"location": {"lat": 40.36404319999999, "lng": -4.4006997}, "viewport": {"northeast": {"lat": 40.3653928802915, "lng": -4.399338919708497}, "southwest": {"lat": 40.3626949197085, "lng": -4.402036880291502}}}, "icon": "https://maps.gstatic.com/mapfiles/place_api/icons/v1/png_71/civic_building-71.png", "icon_background_color": "#7B9EB0", "icon_mask_base_uri": "https://maps.gstatic.com/mapfiles/place_api/icons/v2/civic-bldg_pinlet", "international_phone_number": "+34 918 61 10 14", "name": "Centro de Salud San Martín de Valdeiglesias", "opening_hours": {"open_now": false}, "photos": [{"height": 1504, "html_attributions": ["<a href=\"https://maps.google.com/maps/contrib/101289206021694224875\">Zanther Bull</a>"], "photo_reference": "AWn5SU67RG7VRMSkU3uZg8AUhfTsqCH7Jkg4JKXbdsS7I8Je09d3dHp0nuUfxpOHSabbBGPD5dCdnXLhUajPjInlA4S3-QNC646kkIfdirJ9CV-JpD9_iZm-lnCj4TlpdO4FgiEcpP2KzWPOpgdCSPsC7ATRACiAiMrJjaR3CWDOD2Ck2zLAAaXiY1HyGxJv3fvzRvwQjkeA-mrAxpxhAzGlhgysvHyvRMrQo48j8ECbpUxcph4i-rvQ_9-9SpuAqRpmdrD0Edv8FQbVTeC85ZH8qmxSLdbkdNgHLiXnkkwFIV948GQbvYl8r9Dyzo2bRHwCXsL1LPTKcEufczSps8jsI_ldUrO7NmQeC0Vo4BgH-ZN-9gIbhKf4zKu0Vse874oYdxeh0vJYWESYAvqxwduMT3eUZnYV4WGFlE2OYR67qsIzekmyiEo-JLAtF9GtyhZOw3-I7pms7vuH5AEzovsuGmtdRXQICTbYOHSYTcpzuZuXeaTCLjrkf3FNgsiEuYC2wlw63yHf-cw9l6y6gs2lx_vIAhG4RYNIatVfsiR8lizAM7LddcA9qer4FFO1IN0bP6y1zmEZCzO6S-tcR11Z2wFt2oxZTb1pm5TXcVfy-CdhEnAUFiNgIaXXyQ7Wg6v7VxTLgIeb", "width": 3264}], "place_id": "ChIJIdD4XDRNQA0R_3sQA7Z1w30", "plus_code": {"compound_code": "9H7X+JP San Martín de Valdeiglesias, Spain", "global_code": "8CGQ9H7X+JP"}, "rating": 2.7, "reference": "ChIJIdD4XDRNQA0R_3sQA7Z1w30", "scope": "GOOGLE", "types": ["doctor", "health", "point_of_interest", "establishment"], "user_ratings_total": 55, "vicinity": "Calle Bola, 1, San Martín de Valdeiglesias"}, {"business_status": "OPERATIONAL", "geometry": {"location": {"lat": 40.3645642, "lng": -4.4009517}, "viewport": {"northeast": {"lat": 40.3659209802915, "lng": -4.399479169708498}, "southwest": {"lat": 40.3632230197085, "lng": -4.402177130291502}}}, "icon": "https://maps.gstatic.com/mapfiles/place_api/icons/v1/png_71/generic_business-71.png", "icon_background_color": "#7B9EB0", "icon_mask_base_uri": "https://maps.gstatic.com/mapfiles/place_api/icons/v2/generic_pinlet", "international_phone_number": "+34 918 91 11 99", "name": "Medico San Martin", "opening_hours": {"open_now": false}, "place_id": "ChIJRVC4WjRNQA0RVXTtnQsQc-I", "plus_code": {"compound_code": "9H7X+RJ San Martín de Valdeiglesias, Spain", "global_code": "8CGQ9H7X+RJ"}, "rating": 2.5, "reference": "ChIJRVC4WjRNQA0RVXTtnQsQc-I", "scope": "GOOGLE", "types": ["doctor", "health", "point_of_interest", "establishment"], "user_ratings_total": 2, "vicinity": "Calle Bola, 1, San Martín de Valdeiglesias"}, {"business_status": "OPERATIONAL", "geometry": {"location": {"lat": 40.3610257, "lng": -4.402976199999999}, "viewport": {"northeast": {"lat": 40.3623407802915, "lng": -4.401638869708497}, "southwest": {"lat": 40.3596428197085, "lng": -4.404336830291502}}}, "icon": "https://maps.gstatic.com/mapfiles/place_api/icons/v1/png_71/shopping-71.png", "icon_background_color": "#4B96F3", "icon_mask_base_uri": "https://maps.gstatic.com/mapfiles/place_api/icons/v2/shopping_pinlet", "international_phone_number": "+34 918 65 01 16", "name": "Óptica-Audiología San Martin de Valdeiglesias - María Sánchez", "opening_hours": {"open_now": false}, "photos": [{"height": 809, "html_attributions": ["<a href=\"https://maps.google.com/maps/contrib/106634989247380804194\">Óptica San martin de Valdeiglesias - María Sánchez</a>"], "photo_reference": "AWn5SU6BKZwPA_lsQRrMNuCc0wkQgU01Ul_4znXjcV6ZSWYHq0Gtk-W_DYJQCk94iH5PLpxwgdLem4Uc93rbZrRE3ellNi57PkT3B5JLps2DGdy8YyB96kMLUaSSJi2M9otB3LSvWza55TJ2J9eDh8YUzX514aUK7nopjMyV7VHGbGiUzCKS6XrAj1yF_rX1hcVVQcjBcMhwhZMbZwv6f5F81xB2nUnGBmdPuwB4MR6AynaF3CMP_QckxnZU7xqBrhxHjqiPQKzn2aYOjqTXPeZDjBnx_qQ3RQ8jgrv6jT0gQHxXFZ4MT13ZBRnTuSpsDLKBnXtV-JTCt30", "width": 1440}], "place_id": "ChIJLWZuiJpNQA0R4hxj_2a1zIo", "plus_code": {"compound_code": "9H6W+CR San Martín de Valdeiglesias, Spain", "global_code": "8CGQ9H6W+CR"}, "rating": 4.9, "reference": "ChIJLWZuiJpNQA0R4hxj_2a1zIo", "scope": "GOOGLE", "types": ["store", "doctor", "health", "point_of_interest", "establishment"], "user_ratings_total": 67, "vicinity": "Plz. toros, Carretera de Ávila, N° 2, San Martín de Valdeiglesias"}, {"business_status": "OPERATIONAL", "geometry": {"location": {"lat": 40.35934109999999, "lng": -4.406687}, "viewport": {"northeast": {"lat": 40.3608047802915, "lng": -4.405399869708497}, "southwest": {"lat": 40.3581068197085, "lng": -4.408097830291502}}}, "icon": "https://maps.gstatic.com/mapfiles/place_api/icons/v1/png_71/generic_business-71.png", "icon_background_color": "#7B9EB0", "icon_mask_base_uri": "https://maps.gstatic.com/mapfiles/place_api/icons/v2/generic_pinlet", "international_phone_number": "+34 918 61 26 20", "name": "Clínica dental Dr. Tello", "place_id": "ChIJhXFtaTBNQA0RsY92An1-HTE", "plus_code": {"compound_code": "9H5V+P8 San Martín de Valdeiglesias, Spain", "global_code": "8CGQ9H5V+P8"}, "rating": 2.3, "reference": "ChIJhXFtaTBNQA0RsY92An1-HTE", "scope": "GOOGLE", "types": ["doctor", "health", "point_of_interest", "establishment"], "user_ratings_total": 3, "vicinity": "Carretera de Toledo, 7, San Martín de Valdeiglesias"}]