[{"business_status": "OPERATIONAL", "geometry": {"location": {"lat": 40.671808, "lng": -4.090225999999999}, "viewport": {"northeast": {"lat": 40.6731330302915, "lng": -4.088904869708498}, "southwest": {"lat": 40.6704350697085, "lng": -4.091602830291502}}}, "icon": "https://maps.gstatic.com/mapfiles/place_api/icons/v1/png_71/parking-71.png", "icon_background_color": "#7B9EB0", "icon_mask_base_uri": "https://maps.gstatic.com/mapfiles/place_api/icons/v2/parking_pinlet", "name": "Parking Cubierto Subterráneo", "place_id": "ChIJhY17AAANQQ0RDvP8YZIJulw", "plus_code": {"compound_code": "MWC5+PW Guadarrama, Spain", "global_code": "8CGQMWC5+PW"}, "reference": "ChIJhY17AAANQQ0RDvP8YZIJulw", "scope": "GOOGLE", "types": ["parking", "point_of_interest", "establishment"], "vicinity": "Calleja del Potro, 2, Guadarrama"}, {"business_status": "OPERATIONAL", "geometry": {"location": {"lat": 40.67536699999999, "lng": -4.089941299999999}, "viewport": {"northeast": {"lat": 40.67665038029149, "lng": -4.088599969708497}, "southwest": {"lat": 40.67395241970849, "lng": -4.091297930291502}}}, "icon": "https://maps.gstatic.com/mapfiles/place_api/icons/v1/png_71/parking-71.png", "icon_background_color": "#7B9EB0", "icon_mask_base_uri": "https://maps.gstatic.com/mapfiles/place_api/icons/v2/parking_pinlet", "name": "Aparcamiento municipal", "opening_hours": {"open_now": true}, "photos": [{"height": 2080, "html_attributions": ["<a href=\"https://maps.google.com/maps/contrib/100970928644490038920\">Ash Imrani</a>"], "photo_reference": "AWn5SU4GOkXHKtluMvmVtdx2YLDYhYsA7Gr8iRoris6kJcMRwnkFpuFi6VHVS9I7W8PWvunCsUz-7g0L9BHEHCIgleo9EFrpD1-x0-Kusu5M1auvjre7XTq6wBUC1dOPD-yMYkARrGr0H6t4ucKdMrhuvpR3r4uXmf_JHhFw0gNW2n1EgUKCBkLCwPLfSM_vTVsWY3alQnZLirpNTdXT79pyTbFCqEYkEt0WH_jhZh0_A_Gyo2i3HqnSHm2HPIeShtblHwqtORh6WlcXvUyotzJB7Lzvu1GV0pAHnyFhcgHXV6rBVcG9WxMGQoVZedVJijPmGFz6PhiCRSKclASFOEPaZ_sTEGNpWMgDC3pvbCClErSyixaOtZ5dM-acBlaVaxD93RNDYgTVav3qpGvuxSWvNhP5Z0YKJS7KQqSxWVZxJp_LwZDkcJltZwBvxKlEsG-BBJ2du0es_zdWLM-1LSs2tDGA8hsfPfTOrPJJ17ITHW_D7-lWZcDt_adJ5OdceeXgmjvdJ0bKHgMeKBCAv_lURK5Gm3KuGOftcfQk05YXhV5ouAZVZK--gXSw4FbNrlxpu_2uqjPmRTpaSukLeyQ9frkwcB1PKAuZ-5AeYr9a9FG4sz5gRGBvjR_Pn2sMerJrltq0PQ", "width": 4608}], "place_id": "ChIJ-edVjMUNQQ0RfnerlDMu-Po", "plus_code": {"compound_code": "MWG6+42 Guadarrama, Spain", "global_code": "8CGQMWG6+42"}, "rating": 4.3, "reference": "ChIJ-edVjMUNQQ0RfnerlDMu-Po", "scope": "GOOGLE", "types": ["parking", "point_of_interest", "establishment"], "user_ratings_total": 25, "vicinity": "Madrid, Guadarrama"}, {"business_status": "OPERATIONAL", "geometry": {"location": {"lat": 40.6694502, "lng": -4.1171707}, "viewport": {"northeast": {"lat": 40.67070513029149, "lng": -4.115788119708497}, "southwest": {"lat": 40.6680071697085, "lng": -4.118486080291501}}}, "icon": "https://maps.gstatic.com/mapfiles/place_api/icons/v1/png_71/parking-71.png", "icon_background_color": "#7B9EB0", "icon_mask_base_uri": "https://maps.gstatic.com/mapfiles/place_api/icons/v2/parking_pinlet", "name": "Parking Embalse La Jarosa", "opening_hours": {"open_now": true}, "photos": [{"height": 2250, "html_attributions": ["<a href=\"https://maps.google.com/maps/contrib/108255543783694346355\">Deolinda Castillo Alonso</a>"], "photo_reference": "AWn5SU5zlGGNkP3ouc7dtjZfN4Oo_gSIiaNo2t_D-7X0ztNGVTHjDKWnWcaQkl4VwnCnSl4lsEW4hyIwtauBa_FshSBuMsX82oufyLJ1fDT7-i0qQyDmJxpKqaaC2VgAr6hyFSKDi6eVXCAKOjIXWBItKbq9ZS7qBussinELF721aELcBLcAqyG9sgAw6UwgbsuEcCBtOi4GhWpiWwd47oQ4FpcpcEeq4TJzbKEOOxFGFeh1UVvoXRuxZnw_MPf9GIbJRImj3LGyoLS6k-qoqRcY9EPOyxiq9JNHP3sb209UzKAaW-FVHL1LwsMxeJIGSToGhVJq2cZYw_qyLWZJhoq2DviPB1ZXARk2dPuwxoCI8fgwaNvut7p5KPpadVLyuYLoPxKJb9WNF1AUQh5yE1DAyYomderBCAgu4i_yBeoxneB9eBLeIaS0pp4wFldR9_kXontXdPMi0SefGx28Hcaw_zsmAgvzUZhTHX_g308XJ-3Vi5NqhDcV86xla_Le1SruwENkRq8aeNdevOt21KNhEMjlDrpkXINXyRWbADnToKGLWQpLA43YIoPBSKWKm8W8SaAreW46-EAWrHwGPgTuALopSzzev5qfGETZdAmgX3k8J7D1HT_yT1ZPpGibW4iHg253LA", "width": 4000}], "place_id": "ChIJhdXosQ8NQQ0R_BeaRUqozCw", "plus_code": {"compound_code": "MV9M+Q4 Guadarrama, Spain", "global_code": "8CGQMV9M+Q4"}, "rating": 4.2, "reference": "ChIJhdXosQ8NQQ0R_BeaRUqozCw", "scope": "GOOGLE", "types": ["parking", "point_of_interest", "establishment"], "user_ratings_total": 127, "vicinity": "Carretera de La Jarosa, Guadarrama"}, {"business_status": "OPERATIONAL", "geometry": {"location": {"lat": 40.707034, "lng": -4.067622000000001}, "viewport": {"northeast": {"lat": 40.70839193029149, "lng": -4.066277619708498}, "southwest": {"lat": 40.70569396970849, "lng": -4.068975580291502}}}, "icon": "https://maps.gstatic.com/mapfiles/place_api/icons/v1/png_71/parking-71.png", "icon_background_color": "#7B9EB0", "icon_mask_base_uri": "https://maps.gstatic.com/mapfiles/place_api/icons/v2/parking_pinlet", "name": "Parking disuasorio estación Los Molinos", "place_id": "ChIJReEnPABzQQ0RnJRpFHpGROM", "plus_code": {"compound_code": "PW4J+RX Los Molinos, Spain", "global_code": "8CGQPW4J+RX"}, "rating": 4, "reference": "ChIJReEnPABzQQ0RnJRpFHpGROM", "scope": "GOOGLE", "types": ["parking", "point_of_interest", "establishment"], "user_ratings_total": 1, "vicinity": "Paseo Pedro Gutiérrez, 6, Los Molinos"}, {"business_status": "OPERATIONAL", "geometry": {"location": {"lat": 40.714339, "lng": -4.075999599999999}, "viewport": {"northeast": {"lat": 40.7157023302915, "lng": -4.074610919708498}, "southwest": {"lat": 40.7130043697085, "lng": -4.077308880291502}}}, "icon": "https://maps.gstatic.com/mapfiles/place_api/icons/v1/png_71/parking-71.png", "icon_background_color": "#7B9EB0", "icon_mask_base_uri": "https://maps.gstatic.com/mapfiles/place_api/icons/v2/parking_pinlet", "name": "Lanzadera aparcamiento gratuito", "place_id": "ChIJbUhZD2YNQQ0Rmgz2cDtW5Kg", "plus_code": {"compound_code": "PW7F+PJ Los Molinos, Spain", "global_code": "8CGQPW7F+PJ"}, "rating": 5, "reference": "ChIJbUhZD2YNQQ0Rmgz2cDtW5Kg", "scope": "GOOGLE", "types": ["parking", "point_of_interest", "establishment"], "user_ratings_total": 1, "vicinity": "Avenida de 1666, Los Molinos"}, {"business_status": "OPERATIONAL", "geometry": {"location": {"lat": 40.71464139999999, "lng": -4.075808400000001}, "viewport": {"northeast": {"lat": 40.71593513029149, "lng": -4.074612619708498}, "southwest": {"lat": 40.71323716970849, "lng": -4.077310580291502}}}, "icon": "https://maps.gstatic.com/mapfiles/place_api/icons/v1/png_71/parking-71.png", "icon_background_color": "#7B9EB0", "icon_mask_base_uri": "https://maps.gstatic.com/mapfiles/place_api/icons/v2/parking_pinlet", "name": "PARKING LANZADERA Los Molinos-Cotos-Valdesqui", "opening_hours": {"open_now": false}, "photos": [{"height": 1755, "html_attributions": ["<a href=\"https://maps.google.com/maps/contrib/108861173710032234965\">Antonio Coello</a>"], "photo_reference": "AWn5SU56YjECojoVJtJyD8JFIFOYplJS_06yX-dAx1hOi7Urr7V-Y2rQ6FIZ38210soEU2Y4ES6RPvDtXXFnBh4k2Tro-KF8LLrvdAlO-WrnbA1jseHk0TbJQ_sqNo18IwCqaNPC0xz7DA6k2zOfuGYkgCUskg7tD3KhCcMFLw3zPEtZeoIIDgcWVNLxNkpeQjs7XQCGTjQm2KDNIc5sa-X66Jlixmlkb_AJlXdd_CPTbilN0JUQems9D97x77nsTN48AjEHdqdXFc898pScxOjWbecLSDw7GzEY4GhQkcxPmf_ua2yEXMgOcaQyPF7nkrBFw78bCzi9EdBufI1oCX_FBrwn1ctggOAJYa1OoB1BiWZC9JnIpko7gT7-RxsYrqalofwxWg9IaQOIqO8tKWdDfJKpsdAzjucR4C5UoEks8LH4ArBMrsT9xdczpV0La_AAsLX1TTIdnPSVR4nxPtwJgnqlhfMoChP55sULF6L67Ge5duXFHoxX7bGAP_Lftrs06XSvML-IRhZcuT-Jgx_2ljmr2HTl9Z2tPIjPsXhS5HR4lgVyU2zL1ZXh_X6sJJ-ouTAYtUzNQcwaNaOwlqTACMJ1GvLpuBNUUJvJKpm4M5JQmyT19oxa8G0Q1m9CFu2UzuKYLw", "width": 1240}], "place_id": "ChIJa1ut-bINQQ0RQbIfH1XdsS8", "plus_code": {"compound_code": "PW7F+VM Los Molinos, Spain", "global_code": "8CGQPW7F+VM"}, "rating": 3, "reference": "ChIJa1ut-bINQQ0RQbIfH1XdsS8", "scope": "GOOGLE", "types": ["parking", "point_of_interest", "establishment"], "user_ratings_total": 7, "vicinity": "Los Molinos"}, {"business_status": "OPERATIONAL", "geometry": {"location": {"lat": 40.6903483, "lng": -4.037317799999999}, "viewport": {"northeast": {"lat": 40.69169363029149, "lng": -4.035958669708497}, "southwest": {"lat": 40.68899566970849, "lng": -4.038656630291502}}}, "icon": "https://maps.gstatic.com/mapfiles/place_api/icons/v1/png_71/restaurant-71.png", "icon_background_color": "#FF9E67", "icon_mask_base_uri": "https://maps.gstatic.com/mapfiles/place_api/icons/v2/restaurant_pinlet", "international_phone_number": "+34 654 12 99 29", "name": "Restaurante El Caldero de Montegolf hamburguesas gourmet", "opening_hours": {"open_now": false}, "photos": [{"height": 1440, "html_attributions": ["<a href=\"https://maps.google.com/maps/contrib/107516307383347524143\">Cesar messner</a>"], "photo_reference": "AWn5SU5enFUkZtn9liBdItJVIXfZFG_g4huQuG5Ersx0kOIn8HgKOT7Aa7YHNAB1KleYn85tElJW9DzaA4ZqMlfL_jYKOEDqmbss0Fz_XvgX9-R5_yw6ng7c54wIO1fHPROJGe-avNM6eXx1KZlcdWfJYaTLdHWKBbQVyS-8n3iM4DITlnIKP-oWAiKBrrDA5Sh7-E4vPN5Y7YfvzgalJoqQH4DGmqWK3AEnqw8tQioC4BHbAy7MUn7mnaX-DRd99s9L8lEXEf7rVHe3xqIK9F2rPI8O70VEH8KgY6fPsycEgFhsybOzjpC-skOZnAZ6-JvYCs54R8aEWJamApA904O30p7RUpI_coAiAE_S2KlOFospakGqCWkXcQH10i3b5ZJOFGAta2u5qAkWSeNEKdYHRUeI1OUUwsErw7xG3jeQ3rEGBXesdZM2M0wtwj2cIJmv7-KZUf26Y86NTbkLWH52AIQ4cGZRMavakGFHWbsWg0l-yAtokubPu6Qzw4wRpWXaX_WB68KKumV4_1uqGV-CyPj0NtYnEFSaVNDHJAxyfS_FJFNW2fq93EP16smO7SkzgUIAQOSEsQOWcqJ-B6O-DfemxiaH3EtSNs6snncVih5mbd26Uc0tokKwjuLHf5Vy9YRidt0r7zs4I08VpdNt2sug2Ts", "width": 1920}], "place_id": "ChIJkRM_bVBzQQ0RdUq5hek8B4Y", "plus_code": {"compound_code": "MXR7+43 Collado Mediano, Spain", "global_code": "8CGQMXR7+43"}, "rating": 4.8, "reference": "ChIJkRM_bVBzQQ0RdUq5hek8B4Y", "scope": "GOOGLE", "types": ["restaurant", "meal_takeaway", "parking", "bar", "point_of_interest", "food", "establishment"], "user_ratings_total": 32, "vicinity": "Calle Azucenas, Collado Mediano"}, {"business_status": "OPERATIONAL", "geometry": {"location": {"lat": 40.71616969999999, "lng": -4.070715499999999}, "viewport": {"northeast": {"lat": 40.7175173302915, "lng": -4.069378119708499}, "southwest": {"lat": 40.7148193697085, "lng": -4.072076080291503}}}, "icon": "https://maps.gstatic.com/mapfiles/place_api/icons/v1/png_71/parking-71.png", "icon_background_color": "#7B9EB0", "icon_mask_base_uri": "https://maps.gstatic.com/mapfiles/place_api/icons/v2/parking_pinlet", "name": "Aparcamiento gratuito", "place_id": "ChIJZ5S3PQANQQ0RXhaipP1wFds", "plus_code": {"compound_code": "PW8H+FP Los Molinos, Spain", "global_code": "8CGQPW8H+FP"}, "reference": "ChIJZ5S3PQANQQ0RXhaipP1wFds", "scope": "GOOGLE", "types": ["parking", "point_of_interest", "establishment"], "vicinity": "Calle Pradillos, 33, Los Molinos"}, {"business_status": "OPERATIONAL", "geometry": {"location": {"lat": 40.6574566, "lng": -4.0343475}, "viewport": {"northeast": {"lat": 40.65881128029149, "lng": -4.032984119708497}, "southwest": {"lat": 40.6561133197085, "lng": -4.035682080291502}}}, "icon": "https://maps.gstatic.com/mapfiles/place_api/icons/v1/png_71/parking-71.png", "icon_background_color": "#7B9EB0", "icon_mask_base_uri": "https://maps.gstatic.com/mapfiles/place_api/icons/v2/parking_pinlet", "name": "Est Alpedrete", "opening_hours": {"open_now": true}, "photos": [{"height": 1080, "html_attributions": ["<a href=\"https://maps.google.com/maps/contrib/114722827236166328187\">sauce1000</a>"], "photo_reference": "AWn5SU6TvHw-JYzGuCDFoaYupQkws17tybxXOH9g9uNSPz9TFE_8XTaOumXbRVWwn6YrkEd2nwz10o7FiDDQLtWxcYQPldBGFpVhdjdxoAMaGyo76qAUwiQmDPrhJ_gtBCxIDwH0-lbpIdrT0qLEfWT0rjqeDv3F8IDTW_L2BOc22b-4EGBWmh-O3qaJNgPgImKx8lb3WJaG2mpfUUdm8Q7FWYcevdQe3gdiaeonlYBGnP2kWRAw0EsfnXdmp-VWwgwf9q-bwbLh60t0q9jozonN6yFH3kE1z7GBfBgccxLXwxAKa795eAGushH5y7U-htI-1KGD-0IrcZV3V50NrUZxC2VOvd4ME_w4J3ZIel-17Ro7m6NS0FZhnALk4omn7gNuuHXRjTCMKXtFksPr2A7UgZD_FHFTHrunThGT8k9WxqrYlO7yu5M4YCWBuYz91RlMVUfdvKUsg-3Fec2jK7M-ce8HANIDQihydwlm3cvO86APjPrbTqHeq6pseohojvsj79SQYvJra8-lCcI0RTZqDmf769UYYQWQ6ZerAmHbL50bPMz8v3NKJy3xpJ4QLqPZOhl1O-ebF0VWpDGf6GvDLx7-h55P4Fj0bv-_8RoBsMen0WjV4ztFi0jB6nInrYJhtQOAL-Nc", "width": 1920}], "place_id": "ChIJ3Tx1z3BzQQ0RNuz8j8DjWdw", "plus_code": {"compound_code": "MX48+X7 Alpedrete, Spain", "global_code": "8CGQMX48+X7"}, "rating": 3, "reference": "ChIJ3Tx1z3BzQQ0RNuz8j8DjWdw", "scope": "GOOGLE", "types": ["parking", "point_of_interest", "establishment"], "user_ratings_total": 5, "vicinity": "Camino de la Estación, 40, Alpedrete"}, {"business_status": "OPERATIONAL", "geometry": {"location": {"lat": 40.6421577, "lng": -4.0390903}, "viewport": {"northeast": {"lat": 40.64354378029149, "lng": -4.037753119708499}, "southwest": {"lat": 40.6408458197085, "lng": -4.040451080291503}}}, "icon": "https://maps.gstatic.com/mapfiles/place_api/icons/v1/png_71/parking-71.png", "icon_background_color": "#7B9EB0", "icon_mask_base_uri": "https://maps.gstatic.com/mapfiles/place_api/icons/v2/parking_pinlet", "name": "Aparcamiento de camiones", "photos": [{"height": 5712, "html_attributions": ["<a href=\"https://maps.google.com/maps/contrib/114557972046997534035\">DMYTRO</a>"], "photo_reference": "AWn5SU6xxq151pGncgW-GWWxGHG-6BijIThNGC0FMYboXfGVDczQngUuaaYdDT0cI9fcQZUcVs6CZewb5uNba-FDiK8GkEAOrN_g9YdPkjDZEU2__iExmQaPe_w2Cv_Ilm0VDZTxHFzk-28IUqZ4eLzKHTdxuNpnMEYoEGYFuxjKhiHvU2s4HRQhdd3EgJSNhka-wHiGDsCPMQ5LbPo34n14HQa7btRTLlBf1A5ehAX3TH4p9ZrXxqFPcG8qJf31fhJT7hxMGGay0cbI_8_OkJvDF73EvLOaDgYTCLeYldPdEbhX-13xGJgUQIOZ4le7U_9OBmSOdNp8xKLkFGYArBwWsrfbaphswgrRpTE8zIpWjx5UxdC7V1ejr2qOINI1dYYdDuhEwNuIKEFEfsdb0l1nSqWoXxMW17sQOd_nXSyONfux02srj0KKIlkiUcUM2qNdT7O2s0sxR61usZdRUs17kKFmVHkRaEvlmJ8LGGnJ1wApgZmJOgxXNjh6Ub-dk_-LsCbYYR8c3TX92fkv9z6vvQ648YmN4d7qWnTOMpQk8KM1xk3Cnwy1R8u5MPSE3QySw_nBUnXh8chNlVjWO0C_FbS7iG3DTlfuMFxlkZbg15ziIrPgGDNjIe_ktKhONpmtry9g9CZp", "width": 4284}], "place_id": "ChIJ1a7wTlR1QQ0RjvyDrd1pI40", "plus_code": {"compound_code": "JXR6+V9 San Lorenzo de El Escorial, Spain", "global_code": "8CGQJXR6+V9"}, "rating": 4.6, "reference": "ChIJ1a7wTlR1QQ0RjvyDrd1pI40", "scope": "GOOGLE", "types": ["parking", "point_of_interest", "establishment"], "user_ratings_total": 12, "vicinity": "AP-6, San Lorenzo de El Escorial"}, {"business_status": "OPERATIONAL", "geometry": {"location": {"lat": 40.7098858, "lng": -4.139489}, "viewport": {"northeast": {"lat": 40.7112127802915, "lng": -4.138172769708498}, "southwest": {"lat": 40.7085148197085, "lng": -4.140870730291502}}}, "icon": "https://maps.gstatic.com/mapfiles/place_api/icons/v1/png_71/parking-71.png", "icon_background_color": "#7B9EB0", "icon_mask_base_uri": "https://maps.gstatic.com/mapfiles/place_api/icons/v2/parking_pinlet", "name": "Aparcamiento Alto del León", "photos": [{"height": 2052, "html_attributions": ["<a href=\"https://maps.google.com/maps/contrib/114344033653853583347\">Jose Gandia Calabuig</a>"], "photo_reference": "AWn5SU5p0_oN6H2BsYJwu7PrhN04PJSUCRDZnQMfgry0r8hUDuagc0L5hARWJWYbRM-DoVbyaFLd03gs0jAe7sTOvFfv3QjzHyvA_55IaSb0OdnGOfR7HHzGBUzxUHHCEI7uiPs40cefs00vpBbry29XqMJoma4ImNXvf-AfFDMfYDw6DcyM18VSRbMRg5OGxraZMfvwnhIl51aJvU9JoyFMDk6uFVL3moG9CRpctiSULTrPb056sCB2Gkw4x2BkExZrEhG3q5oLQM3KfLVNP1Mmb-KUIK8LBrjueZRNCwozLCND2V2Ih5PL4cPoJ5-c0N35LB0hIb1bK6dxCDt8pP4Y2kgRRMbtZA-RQ0lSU8P3S8f2aHGh7_kg5aTO8ymrgpXqU_aNKqSINpHrKD10cehnyXQsikQtpQ-ugVUtbbgHQE66t8t3DJlLBdbtjjmzNjAKJ_IqR1HH4PJUEKzWiN8M3RhgOF5lqeRUIMz5ivWtFuDxVAkcewoJ-WL18hrL0tHSnaT7jWYF6pi-bMnPB_lho-_oeWGzz4H1B9bC-jfYyKUrTX2zzSMy2q4kBElCN8Dt7L8kaNp96fK9wZDtfNsG21GpEGOcJQr3s9O-fX1bD2oRoIbydIGhwUJ8BlPvbBGQ-PZXrQ", "width": 3872}], "place_id": "ChIJSTpV4RANQQ0RdrmvpYjvO50", "plus_code": {"compound_code": "PV56+X6 Guadarrama, Spain", "global_code": "8CGQPV56+X6"}, "rating": 4, "reference": "ChIJSTpV4RANQQ0RdrmvpYjvO50", "scope": "GOOGLE", "types": ["parking", "point_of_interest", "establishment"], "user_ratings_total": 5, "vicinity": "Guadarrama"}, {"business_status": "OPERATIONAL", "geometry": {"location": {"lat": 40.6610331, "lng": -4.023732599999999}, "viewport": {"northeast": {"lat": 40.66241763029151, "lng": -4.022369269708498}, "southwest": {"lat": 40.65971966970851, "lng": -4.025067230291501}}}, "icon": "https://maps.gstatic.com/mapfiles/place_api/icons/v1/png_71/parking-71.png", "icon_background_color": "#7B9EB0", "icon_mask_base_uri": "https://maps.gstatic.com/mapfiles/place_api/icons/v2/parking_pinlet", "name": "Parking Municipal", "opening_hours": {"open_now": true}, "place_id": "ChIJWTGtAZxzQQ0RQkTnYBZd_eo", "plus_code": {"compound_code": "MX6G+CG Alpedrete, Spain", "global_code": "8CGQMX6G+CG"}, "rating": 3.6, "reference": "ChIJWTGtAZxzQQ0RQkTnYBZd_eo", "scope": "GOOGLE", "types": ["parking", "point_of_interest", "establishment"], "user_ratings_total": 14, "vicinity": "Calle de la Beneficencia, 9, Alpedrete"}, {"business_status": "OPERATIONAL", "geometry": {"location": {"lat": 40.6600622, "lng": -4.0240366}, "viewport": {"northeast": {"lat": 40.6614174802915, "lng": -4.022709169708498}, "southwest": {"lat": 40.6587195197085, "lng": -4.025407130291502}}}, "icon": "https://maps.gstatic.com/mapfiles/place_api/icons/v1/png_71/parking-71.png", "icon_background_color": "#7B9EB0", "icon_mask_base_uri": "https://maps.gstatic.com/mapfiles/place_api/icons/v2/parking_pinlet", "international_phone_number": "+34 918 54 36 90", "name": "Intor Concesiones S A", "opening_hours": {"open_now": true}, "place_id": "ChIJ0R6lCJxzQQ0Rrg056jzsFt8", "plus_code": {"compound_code": "MX6G+29 Alpedrete, Spain", "global_code": "8CGQMX6G+29"}, "rating": 1, "reference": "ChIJ0R6lCJxzQQ0Rrg056jzsFt8", "scope": "GOOGLE", "types": ["parking", "point_of_interest", "establishment"], "user_ratings_total": 2, "vicinity": "Calle del Collado Mediano, 0, Alpedrete"}, {"business_status": "OPERATIONAL", "geometry": {"location": {"lat": 40.6927789, "lng": -4.0252378}, "viewport": {"northeast": {"lat": 40.6941576302915, "lng": -4.023902369708497}, "southwest": {"lat": 40.6914596697085, "lng": -4.026600330291502}}}, "icon": "https://maps.gstatic.com/mapfiles/place_api/icons/v1/png_71/parking-71.png", "icon_background_color": "#7B9EB0", "icon_mask_base_uri": "https://maps.gstatic.com/mapfiles/place_api/icons/v2/parking_pinlet", "name": "Parking Público", "place_id": "ChIJHaoZJwBzQQ0RUPK56ln846g", "plus_code": {"compound_code": "MXVF+4W Collado Mediano, Spain", "global_code": "8CGQMXVF+4W"}, "reference": "ChIJHaoZJwBzQQ0RUPK56ln846g", "scope": "GOOGLE", "types": ["parking", "point_of_interest", "establishment"], "vicinity": "Collado Mediano"}, {"business_status": "OPERATIONAL", "geometry": {"location": {"lat": 40.6935583, "lng": -4.0230119}, "viewport": {"northeast": {"lat": 40.6949546802915, "lng": -4.021637619708498}, "southwest": {"lat": 40.6922567197085, "lng": -4.024335580291502}}}, "icon": "https://maps.gstatic.com/mapfiles/place_api/icons/v1/png_71/parking-71.png", "icon_background_color": "#7B9EB0", "icon_mask_base_uri": "https://maps.gstatic.com/mapfiles/place_api/icons/v2/parking_pinlet", "name": "Parking", "opening_hours": {"open_now": true}, "photos": [{"height": 1184, "html_attributions": ["<a href=\"https://maps.google.com/maps/contrib/115055383090176917276\">Miguel angel Manzaneque gallego</a>"], "photo_reference": "AWn5SU64N9u9m5T6fcQeJgWhKWlH-mj3oJJz6wYdNT92eAt5mJWvDlqFd5QLfzPoPgdBj3UgpRi4EIPz0wnuNL-BATD_L-uPT369V38Rs9YetisCdPxbVHxR0ZtB-mRUvcwpOzMduvvz0okgxQsXDVSoOYUSwJkXCKVV1t2dyvP5OIAHZe1ds9W4E69h03Azm5NnFrYu3n6QqgyFsVzWJyvc_aAkUUNxtgDNa2FVczDNsI0ntJhCcF1uzTdH8J3JCN2L_86IF3FU6WITDR8D3_dZUzLnaNZjoi03VIkDIMnLqVkXuKs7zP11MMtXJ-w1B8yHqF2W4ZssjCUTRukDDefBYc_g6N7abmYYdzuPrew21rlcyV0FyHb7HqXXC3EyvRKANQtiXBPPFY-MWJwLCOGniHWE4_5c8QaB3XOjQb-G6byh_wG5Tv3-g_cc9nXJJuD5YjTD4gPwKUSo9nIfq2UTj3gUgyAQy1V3-QTKx7q6U2SNJ5d8XOBghzRv2YDyqxDV06aR1LWgKjhlcOrB_Npwi7rJJd9sXotm96r_GeZcbKsuxon9meRJTIgF2bGCfwpZ1WAMsCaPf6RxqmtN_3NEwa4xxcOH6NdD1faHNJsW3NRHWGRCjF1ZJTklBqEoNjZvKzqrSDtC", "width": 2560}], "place_id": "ChIJp2aVL1FyQQ0RwDjqbZQ5oLc", "plus_code": {"compound_code": "MXVG+CQ Collado Mediano, Spain", "global_code": "8CGQMXVG+CQ"}, "rating": 3.3, "reference": "ChIJp2aVL1FyQQ0RwDjqbZQ5oLc", "scope": "GOOGLE", "types": ["parking", "point_of_interest", "establishment"], "user_ratings_total": 3, "vicinity": "Avenida de Buenos Aires, 2, Collado Mediano"}]