[{"business_status": "OPERATIONAL", "geometry": {"location": {"lat": 40.3691547, "lng": -3.2202871}, "viewport": {"northeast": {"lat": 40.3705421802915, "lng": -3.218881419708498}, "southwest": {"lat": 40.3678442197085, "lng": -3.221579380291502}}}, "icon": "https://maps.gstatic.com/mapfiles/place_api/icons/v1/png_71/generic_business-71.png", "icon_background_color": "#7B9EB0", "icon_mask_base_uri": "https://maps.gstatic.com/mapfiles/place_api/icons/v2/generic_pinlet", "international_phone_number": "+34 918 72 55 26", "name": "Consultorio Médico", "place_id": "ChIJ7YwDUQpbQg0Ry1bIViCRnXg", "plus_code": {"compound_code": "9Q9H+MV Olmeda de las Fuentes, Spain", "global_code": "8CGR9Q9H+MV"}, "rating": 5, "reference": "ChIJ7YwDUQpbQg0Ry1bIViCRnXg", "scope": "GOOGLE", "types": ["doctor", "health", "point_of_interest", "establishment"], "user_ratings_total": 2, "vicinity": "Calle del Pintor Álvaro Delgado, 4, Olmeda de las Fuentes"}, {"business_status": "OPERATIONAL", "geometry": {"location": {"lat": 40.4642763, "lng": -3.1759852}, "viewport": {"northeast": {"lat": 40.4656605302915, "lng": -3.174652469708498}, "southwest": {"lat": 40.4629625697085, "lng": -3.177350430291502}}}, "icon": "https://maps.gstatic.com/mapfiles/place_api/icons/v1/png_71/generic_business-71.png", "icon_background_color": "#7B9EB0", "icon_mask_base_uri": "https://maps.gstatic.com/mapfiles/place_api/icons/v2/generic_pinlet", "international_phone_number": "+34 663 82 11 58", "name": "Clinica Dental Mayor 8- Pioz", "opening_hours": {"open_now": false}, "photos": [{"height": 2268, "html_attributions": ["<a href=\"https://maps.google.com/maps/contrib/107647748480234716709\">Clinica Dental Mayor 8- Pioz</a>"], "photo_reference": "AWn5SU7E8HhMvTX6-OuYrt_W0Sk3fSIDxA9JOitOAyjIBkOKFw7y_8dGxxVWIjKgcH8cTttk28uWPC_0aW4m0zB8umZ-VW83tIhJ3gQNaXhk7YlLagZbe-q9hQNr7FL8BO9aLHgi-AIcDfhur50fwJxh0YADa8RrRoxi_MLuKXSDHy58WIL7KfklRjgvieDf0Iyn78LqBToo5FhZ2bQElt5aFVRKitOx_1yViQhMGHmieHki5JOuR8eWQsvPiw76NkteXr6uYZbwJZkNKimg5fWKxq4LcbmMt8SDgvJWySOg64ocsk5BxeyLdot0w20DUPTV1hsDOEuEnRM", "width": 4032}], "place_id": "ChIJl2oeNqtXQg0ReIRkgt87KXU", "plus_code": {"compound_code": "FR7F+PJ Guadalajara, Spain", "global_code": "8CGRFR7F+PJ"}, "rating": 4.8, "reference": "ChIJl2oeNqtXQg0ReIRkgt87KXU", "scope": "GOOGLE", "types": ["dentist", "doctor", "health", "point_of_interest", "establishment"], "user_ratings_total": 37, "vicinity": "Calle Mayor, 14, local, Guadalajara"}, {"business_status": "OPERATIONAL", "geometry": {"location": {"lat": 40.3691564, "lng": -3.220312499999999}, "viewport": {"northeast": {"lat": 40.37054828029149, "lng": -3.218900269708498}, "southwest": {"lat": 40.3678503197085, "lng": -3.221598230291502}}}, "icon": "https://maps.gstatic.com/mapfiles/place_api/icons/v1/png_71/generic_business-71.png", "icon_background_color": "#7B9EB0", "icon_mask_base_uri": "https://maps.gstatic.com/mapfiles/place_api/icons/v2/generic_pinlet", "international_phone_number": "+34 918 72 52 64", "name": "Consultorio Local Olmeda De Las Fuentes", "opening_hours": {"open_now": false}, "photos": [{"height": 3024, "html_attributions": ["<a href=\"https://maps.google.com/maps/contrib/114278459179602537566\">Xu Cai</a>"], "photo_reference": "AWn5SU5xwn9tKOT--9Jz4mtZfcTnBwJchQdgrQ3G6Eyg0rrSXELSUe64JK-UzzrSj8wJEGVmib6a2-5NmsWwi8aZ-gWL2r84zHBNTt5xyxKfLs4-bd1CKM2sWNRnYwdD6HiVFi3abvq--TI-XKSNQWVplOCcNjanapOvGOqZ6ZOF6Kirws_J_8ELPTkRUBYgrwy219aadvhmUtcioJeJsGlKMgUzpZqau1pTyouTaFweiLJYgq70286W_-GYjPTupsT-P2lAt3020_qK7yPDjkRpC3nybhkO8hOQLxWKHJ9zQ7R4j2V8OtGLGwBpTOOTF25pXugqKkyuhEsUFJ0xet0sCp2Bh5TywcAHMKe_AUDu-GqNElDboUWnHhUGoe8ZaqwoyW8OZQdROwO3b3YrS-F1wEWO9HlJ7FJ9bs32z8r-aHjALMEZ9Wa0jdmYqdVzF37yKLnDtBaxzZT3ak_fTh0XN9i8QQYetKl-mGaOwdT48-BEki2CCFDkAZMLJkfub3MVYFR1BAefmgAj4FVlTK6F29BQY21GHAQ8qY5Zpl-vh590HpgJN1qamWOc5Gq1cWRMqPHposTkHzmDSdwK_NSXZnPK6vv6oFhFB7a4dBZFti0C4sBBm_HEBn3a-fK1MGkCfIh_mw", "width": 4032}], "place_id": "ChIJLWlzTQpbQg0REsrhh7Ngz3Y", "plus_code": {"compound_code": "9Q9H+MV Olmeda de las Fuentes, Spain", "global_code": "8CGR9Q9H+MV"}, "reference": "ChIJLWlzTQpbQg0REsrhh7Ngz3Y", "scope": "GOOGLE", "types": ["doctor", "health", "point_of_interest", "establishment"], "vicinity": "Calle del Pintor Álvaro Delgado, 4, Olmeda de las Fuentes"}, {"business_status": "OPERATIONAL", "geometry": {"location": {"lat": 40.3671196, "lng": -3.2184295}, "viewport": {"northeast": {"lat": 40.3684877802915, "lng": -3.217021519708499}, "southwest": {"lat": 40.3657898197085, "lng": -3.219719480291502}}}, "icon": "https://maps.gstatic.com/mapfiles/place_api/icons/v1/png_71/generic_business-71.png", "icon_background_color": "#7B9EB0", "icon_mask_base_uri": "https://maps.gstatic.com/mapfiles/place_api/icons/v2/generic_pinlet", "international_phone_number": "+34 689 56 36 56", "name": "MASAKI Bienestar integral", "opening_hours": {"open_now": false}, "photos": [{"height": 673, "html_attributions": ["<a href=\"https://maps.google.com/maps/contrib/117178823605201408147\">MASAKI Bienestar integral</a>"], "photo_reference": "AWn5SU6ZdmQYXjxmGxniQh7TtnFD25i0gCtKjK_VFHQxZOTx4Ie9Zdw0pG8KqvcztY1tTSYW1cXNRTS1TvlazzC4j3XiYN4dbpcxmUrU9HPbHWLMnDDg-SDKeN04JdFOpGadiTBnhD9r6hs0REYqS3tDhTT4Q3FnCBKwNWi6nYTVftC7au7STCl3CaFi8qqoxjBDuKAOSJnks7F_bLkSZTjBDwhBR8iqtZ1jvglx5zIi0HfR4Wo0e_I9QcX0EDvp_SAjgK2-CnDiexp5mNWhxEJbvUF-N8nDF_MWFat6KDFdQ14tjLawntuMwOCoMM1cjoaIyymRDTHqKwM", "width": 1200}], "place_id": "ChIJZ0OgAAdbQg0RWi-gKndts7M", "plus_code": {"compound_code": "9Q8J+RJ Olmeda de las Fuentes, Spain", "global_code": "8CGR9Q8J+RJ"}, "rating": 5, "reference": "ChIJZ0OgAAdbQg0RWi-gKndts7M", "scope": "GOOGLE", "types": ["doctor", "health", "point_of_interest", "establishment"], "user_ratings_total": 252, "vicinity": "Calle Fuente de la Teja, 13, Olmeda de las Fuentes"}]