[{"business_status": "OPERATIONAL", "geometry": {"location": {"lat": 40.5759232, "lng": -4.152602600000001}, "viewport": {"northeast": {"lat": 40.5772061302915, "lng": -4.150925369708498}, "southwest": {"lat": 40.5745081697085, "lng": -4.153623330291503}}}, "icon": "https://maps.gstatic.com/mapfiles/place_api/icons/v1/png_71/parking-71.png", "icon_background_color": "#7B9EB0", "icon_mask_base_uri": "https://maps.gstatic.com/mapfiles/place_api/icons/v2/parking_pinlet", "name": "Parking Herreria / Silla Felipe II", "opening_hours": {"open_now": true}, "photos": [{"height": 3000, "html_attributions": ["<a href=\"https://maps.google.com/maps/contrib/109048332008526281981\">Rahijosa G</a>"], "photo_reference": "AWn5SU6mz7Fhe5V1dikFIEcNc6JSkLWzT-sO6OBXLUvSkM0Yu4XnujLST4CO8wK32ATxNfbZ21ZQicwTEHD8ZySAKfWGwZL2nslHpCHI6v9A703ata7O0lhdHq5sI944quE_QJRmlv6t3OeRXBti_dY425avPVHlzJnTJbDamaDA_SOuF-a0n3MA_NitL8-l2-jVl1eeNPQjbjX6ElbeAwbt5Ol8Fu7DB3Fj-Td_hhc7mZqBPASuBkNcON_Uw_YIzTPHUbf1VK4fhnsFjhlrQgUWLO7-vCGd2UcBjiJTHTfnXeVPqtU9cM6Lr5mI8ZfzDzmOnAu2vOMt6erym7m9oUeGooE2a47Tkzl7qaZtw_48sbYI9P_A0kz7XVlWHiDnapTgImUmCMJkGFhSPMPl6m3Ks6EOcEyE7LYJVZ3rgFhVBj_Yhaymsij8ODfm8weFW2rNVRZGqkCEVl08WQ9OzOxm4Xi_52ra6QEZiDwjpt5DfHZEiZ4eFJOeKTzEV4a-LnfwycnDUq0TfkpqpjAEvWUEthOzfZzQAH6NiIcZt4GTicuE2z_Ljy30Bl6xoWL2c7xL_l9MhkFpsFlKyw28nDonknAtNFGE67WDsOgBO_SAvqFMUHiFzb_k0xQC1KDBZgNwcJQToSiK", "width": 4000}], "place_id": "ChIJXSdu5_UJQQ0RThvovQohNMs", "plus_code": {"compound_code": "HRGW+9X San Lorenzo de El Escorial, Spain", "global_code": "8CGQHRGW+9X"}, "rating": 4.5, "reference": "ChIJXSdu5_UJQQ0RThvovQohNMs", "scope": "GOOGLE", "types": ["parking", "point_of_interest", "establishment"], "user_ratings_total": 114, "vicinity": "San Lorenzo de El Escorial"}, {"business_status": "OPERATIONAL", "geometry": {"location": {"lat": 40.5594233, "lng": -4.1968679}, "viewport": {"northeast": {"lat": 40.5607466302915, "lng": -4.195533669708498}, "southwest": {"lat": 40.55804866970851, "lng": -4.198231630291502}}}, "icon": "https://maps.gstatic.com/mapfiles/place_api/icons/v1/png_71/parking-71.png", "icon_background_color": "#7B9EB0", "icon_mask_base_uri": "https://maps.gstatic.com/mapfiles/place_api/icons/v2/parking_pinlet", "international_phone_number": "+34 639 15 24 17", "name": "Cruz Verde", "photos": [{"height": 2416, "html_attributions": ["<a href=\"https://maps.google.com/maps/contrib/109670300283454952106\">Carlos Peinado</a>"], "photo_reference": "AWn5SU440q2162BYtP2G4Yn4ZUD3Jjcpfe0tzr6MvrnbjgGp6P_7ZGojsXR9zOFQcTRQCcLSREQHvV3XtFD171z1HPyH9nTCWulgOvJGtJT9amSJ7rLHbuI1_RBTxxHdcCpHwml23L_Fod1CsyRKFRGrK8IgeX5RyBldXwjJ0HZndaaiMpVbeuRa5Cf1C5gA4eQg98E-2P3bj7nmwiADbCC24spqKrdkRGXBC44huhfWtWCtZ04v4o_Lbe5Tt1Ock5QD_J2cw4woNyrAaDRtET7g9r_8Hp7iINU7E4UcmdFA0oILuBekA6BBftJiP_Z2Ig9wQmEOeBOYScIJhTgqRGnOWaaBocMVjvU7RCnVbYd6lOlvoxnnyIOuIhCA2SQhPUyyaBb7-oc-d9sl_vqC9sPGg5j-3757yxVkcc92AggNB6T8bZRXuiXao35dAdCFwLNMxwXvNZ3B3i_4gqrMc46eIlcfa7iC0EfncznWA1m56pca-jEASXBFZhJPKnv9ibOLNChz20Ze805PwBKzYGKuDD2CUtELLMPHZL8O79FtPTU9eokEVqQl6qANvdTO5eYz6fOj01w65oLK0aApbrMAE6By_CwrEAwAwAe3XUDrJNnwIDJPlhVxrPd4Hkao_oEK6ZeDGQ", "width": 3221}], "place_id": "ChIJ18ILECoIQQ0RLuGD_iXG-F0", "plus_code": {"compound_code": "HR53+Q7 Santa María de la Alameda, Spain", "global_code": "8CGQHR53+Q7"}, "rating": 3.9, "reference": "ChIJ18ILECoIQQ0RLuGD_iXG-F0", "scope": "GOOGLE", "types": ["parking", "point_of_interest", "establishment"], "user_ratings_total": 348, "vicinity": "M-505, Santa María de la Alameda"}, {"business_status": "OPERATIONAL", "geometry": {"location": {"lat": 40.5903184, "lng": -4.1436787}, "viewport": {"northeast": {"lat": 40.5916242302915, "lng": -4.142365169708498}, "southwest": {"lat": 40.5889262697085, "lng": -4.145063130291502}}}, "icon": "https://maps.gstatic.com/mapfiles/place_api/icons/v1/png_71/parking-71.png", "icon_background_color": "#7B9EB0", "icon_mask_base_uri": "https://maps.gstatic.com/mapfiles/place_api/icons/v2/parking_pinlet", "international_phone_number": "+34 918 90 72 40", "name": "Aparcamiento Monasterio", "opening_hours": {"open_now": true}, "photos": [{"height": 4032, "html_attributions": ["<a href=\"https://maps.google.com/maps/contrib/118058123826971448487\">Arquilex</a>"], "photo_reference": "AWn5SU7k3voXNB4pnxkbP08RmKIFwQrhtYOmymDslF_slcIHnQyI_qvTXHKUEo2majd_n0HjTwScb4JuRg5LY6EmXFPzRWrY5M0bOPaKict80p9Z8_UglkUY-vvHhMSGx7vLmUUFswBsRjeUuas4YXk_X5HAXx0Kpugtv3nVXW_IWzym85sSHwSiGZOvdpQFEl6U8nyvy-yqHLY_0XBD9HouPaLxu6Y7EzjZ-CkzxqGMlybC-AgGrChZBYMHhPR-sl2wXsp7qe_So3Pe81BkkNI0TR8kiV4-KIY7da4AIwP9xbdqAFiIaLMQ4UdM1HHkLwe7uPD96aJA64qTdGzgyzYq-_3IB4ME03WV4V4siLlzL6-kYbHIOQKSjcjGhmDciPKLx2Vd91v4hXm89qSSrE_3OwDLkpWaXoF2OwnNAujiXlO33coS6ADCbFrY5yVC4M1p5az5D5xh3iEQ4H7hWYaZ8jKVMKayUaxt-TN8NMaD-BA-s8g022KUlDIJmxrEFA-feny19Q2CSqoVZ4CfqTe_0e7mAXJ6fr95U4IjZzN2YfCyMPoEMccB9Ido-GGjxy9Z4X_NogrWlgnoHzFPcSBxFki5Y8FU-SeN4uNL9BsNurQhdmgDAAEytZ9ezFSTap2BWZCAxA", "width": 3024}], "place_id": "ChIJ8eVejyUKQQ0Rvnh8ZqQ2kY8", "plus_code": {"compound_code": "HVR4+4G San Lorenzo de El Escorial, Spain", "global_code": "8CGQHVR4+4G"}, "rating": 3, "reference": "ChIJ8eVejyUKQQ0Rvnh8ZqQ2kY8", "scope": "GOOGLE", "types": ["parking", "point_of_interest", "establishment"], "user_ratings_total": 171, "vicinity": "Calle del Rey, 45, San Lorenzo de El Escorial"}, {"business_status": "OPERATIONAL", "geometry": {"location": {"lat": 40.59106999999999, "lng": -4.148561}, "viewport": {"northeast": {"lat": 40.5924007302915, "lng": -4.147216069708497}, "southwest": {"lat": 40.5897027697085, "lng": -4.149914030291502}}}, "icon": "https://maps.gstatic.com/mapfiles/place_api/icons/v1/png_71/parking-71.png", "icon_background_color": "#7B9EB0", "icon_mask_base_uri": "https://maps.gstatic.com/mapfiles/place_api/icons/v2/parking_pinlet", "international_phone_number": "+34 918 90 24 96", "name": "Public parking BENCAR EGS, S.A.", "opening_hours": {"open_now": true}, "photos": [{"height": 1536, "html_attributions": ["<a href=\"https://maps.google.com/maps/contrib/111308273681777020184\">Parking Plaza de la Constitución | iPark</a>"], "photo_reference": "AWn5SU6RbehFBhTx4P6NFLflC-8N-n0eQmD2Or-Ptt7jHXRm6Xs4rTaqdmVXxCv4uNkQ1rYQB6EpFb8aOqpkji26dNyzL5i5ms9dKcg4uFW74wr9cksj08X02I7kLWNtAcRYGBQLyz3Ek71rMYf_NdeeecfWWyJHWT6o31IWovGWko51YBlYBrxO12Dt4anIzyWrxRCP_3vUlZxcOQudmuYhubT1nZeoWXYFLCThzIY1ZPm9jHTPMwv1_AOZnuuy3jM-NLqSTJw4E1_yhb1TDc6XHNY2_sDLirSRUgturuJ8zuJx8omVo0QX9op77FlXT04MqlnCO631-co", "width": 2048}], "place_id": "ChIJXfFrgSgKQQ0RJhT3pWmPrac", "plus_code": {"compound_code": "HVR2+CH San Lorenzo de El Escorial, Spain", "global_code": "8CGQHVR2+CH"}, "rating": 2.8, "reference": "ChIJXfFrgSgKQQ0RJhT3pWmPrac", "scope": "GOOGLE", "types": ["parking", "point_of_interest", "establishment"], "user_ratings_total": 171, "vicinity": "Calle Floridablanca, 9, San Lorenzo de El Escorial"}, {"business_status": "OPERATIONAL", "geometry": {"location": {"lat": 40.59098700000001, "lng": -4.146652}, "viewport": {"northeast": {"lat": 40.5923283802915, "lng": -4.145295169708498}, "southwest": {"lat": 40.58963041970851, "lng": -4.147993130291503}}}, "icon": "https://maps.gstatic.com/mapfiles/place_api/icons/v1/png_71/parking-71.png", "icon_background_color": "#7B9EB0", "icon_mask_base_uri": "https://maps.gstatic.com/mapfiles/place_api/icons/v2/parking_pinlet", "name": "Aparcamiento Moto El Escorial", "opening_hours": {"open_now": true}, "photos": [{"height": 4000, "html_attributions": ["<a href=\"https://maps.google.com/maps/contrib/105502150683790327285\">Carlos Lopez Bravo</a>"], "photo_reference": "AWn5SU4O15Pg_3boqjrYgNp6QzhcUIuDu41DQYqnt-9eFvDmszJEizkTgylrzUKF5GvA6y8rNcKeKyzw-eQwo19vVm679wNJKTAPMIjcJqJT5spVObKI77AWtJ9u_CpHmypexoLVYGtXrMCV8J6WRAyTOgFR8vKwN3toQMn-PrWi01jeerGme-E_SI_IOAVYnoBNRR8TS1MCCoQgEFYcg3NgMOHxbSA8CqwcghkvQm8uERsqwD9Srby7xDdrXG-gAnDiCxIHKni4xDgfTta_ctpyuA1f6973F7OtprY6-Faxm1Q_uvY0k-zjb-3-rJ3zno79mgnyx10afoEJkevG6cl8tQ-u96eJLijUssJBDF3fUo1FVtOsPsUXFvJjwCdsoj7xFKY9O0nUMMp-7T8anjrX2dxk-mpPNRLBvDgp67ORmkwft3v4v4at4oMDw_psdEsv1xOSawQB1mvDy1xRnacdADWxic-bPaqN6YqCNiY1zeRdX6Oi5oWM5ZLgGyz0NsWZyL0atelGzOYJd7Uf_U_L2PJYhgYTOHttrLhKSH2ueMcPk66FK_ggiadzwISCS4sIA5nnYcqxDgMynj-ClxiNSGwW9lOU9PF7_l3QaHknbRgywbjZiGPr02YI8D2O69-hz1VzlA", "width": 3000}], "place_id": "ChIJHVzqqSgKQQ0RI3CjMmZHdQQ", "plus_code": {"compound_code": "HVR3+98 San Lorenzo de El Escorial, Spain", "global_code": "8CGQHVR3+98"}, "reference": "ChIJHVzqqSgKQQ0RI3CjMmZHdQQ", "scope": "GOOGLE", "types": ["parking", "point_of_interest", "establishment"], "vicinity": "Calle Mariano Benavente, 3, San Lorenzo de El Escorial"}, {"business_status": "OPERATIONAL", "geometry": {"location": {"lat": 40.590494, "lng": -4.1463067}, "viewport": {"northeast": {"lat": 40.5916820302915, "lng": -4.145003819708498}, "southwest": {"lat": 40.5889840697085, "lng": -4.147701780291502}}}, "icon": "https://maps.gstatic.com/mapfiles/place_api/icons/v1/png_71/parking-71.png", "icon_background_color": "#7B9EB0", "icon_mask_base_uri": "https://maps.gstatic.com/mapfiles/place_api/icons/v2/parking_pinlet", "name": "Parking", "place_id": "ChIJvZQTYAALQQ0R31g-dL1st6E", "plus_code": {"compound_code": "HVR3+5F San Lorenzo de El Escorial, Spain", "global_code": "8CGQHVR3+5F"}, "reference": "ChIJvZQTYAALQQ0R31g-dL1st6E", "scope": "GOOGLE", "types": ["parking", "point_of_interest", "establishment"], "vicinity": "Avenida de Juan de Borbón y Battenberg, 2, San Lorenzo de El Escorial"}, {"business_status": "OPERATIONAL", "geometry": {"location": {"lat": 40.5919111, "lng": -4.1434906}, "viewport": {"northeast": {"lat": 40.5932301802915, "lng": -4.142165419708498}, "southwest": {"lat": 40.5905322197085, "lng": -4.144863380291502}}}, "icon": "https://maps.gstatic.com/mapfiles/place_api/icons/v1/png_71/parking-71.png", "icon_background_color": "#7B9EB0", "icon_mask_base_uri": "https://maps.gstatic.com/mapfiles/place_api/icons/v2/parking_pinlet", "name": "Aparcamiento Discapacitados", "place_id": "ChIJi6kpTbQLQQ0RzI_g-gMRZWM", "plus_code": {"compound_code": "HVR4+QJ San Lorenzo de El Escorial, Spain", "global_code": "8CGQHVR4+QJ"}, "reference": "ChIJi6kpTbQLQQ0RzI_g-gMRZWM", "scope": "GOOGLE", "types": ["parking", "point_of_interest", "establishment"], "vicinity": "Plaza Juan de Herrera, 1, San Lorenzo de El Escorial"}, {"business_status": "OPERATIONAL", "geometry": {"location": {"lat": 40.59424469999999, "lng": -4.1546952}, "viewport": {"northeast": {"lat": 40.59560838029149, "lng": -4.153320619708498}, "southwest": {"lat": 40.5929104197085, "lng": -4.156018580291502}}}, "icon": "https://maps.gstatic.com/mapfiles/place_api/icons/v1/png_71/parking-71.png", "icon_background_color": "#7B9EB0", "icon_mask_base_uri": "https://maps.gstatic.com/mapfiles/place_api/icons/v2/parking_pinlet", "name": "Aparcamiento El Escorial Monte Abantos", "opening_hours": {"open_now": true}, "photos": [{"height": 4608, "html_attributions": ["<a href=\"https://maps.google.com/maps/contrib/116985680496721098454\">Carlos Alejandro Obregón Lazcano</a>"], "photo_reference": "AWn5SU51XUl2CuCBmvULzB0TKD47cBvHU4UPb4Qf8DfpOBFZpx22uHiWQ6E3pTGzPsM9qH9-tEXNBjzDfSjTQZJ7tBAA59IwkeZnArKUQzwCggyckNAQwzuep2-HVbiA3oXdL04JIjOj-LUbOJgLA5lOD7hz7LJHsTIH-iolLHzcj90y_Kk_EnQVAZt6rqOaNTRDH1MvFO5Pw6Ftkf5F5SSjBA8thH4TOOWvW_t1EJ5FMSqE6Lx08gcs3pp-adUnTZfcaBo6-mhDdZS9WCC-nr8kcDGx0TmQJGGK603Ezw6BRRcduSHzb-DhTAmwIl1Cr4Swb305nCVvoz3nwEw4w8cqN2KQjkx7kOHIADEPGNxAFSwJPdd1QPo5EbY7aTF60bzMcmY_1148jbSKPAotrtUcVFVxOZemuJyK-ue4sfO03H2oOiShgf-MzcE8SK-Kk9x4uz1MXb1m_mU9vxAkoM4PaWw3HISMv0jNP88MyKdSO-J1Wk2u2XbbxVCOXeT8QIc_XVRTVuxTpAOTfABt2qiFFsOtbiHHV3RHAsUBM1CC70da64meaO4NHoBcNSadoA973oUSizjcoPZr3OSky2oL7T8AKkeVDya8DtWX6lzvZWxg3M-ABYa7vowoKsBbEiNOcv6z5Q", "width": 3456}], "place_id": "ChIJRdLi7oYJQQ0RhKxcrFVewcQ", "plus_code": {"compound_code": "HRVW+M4 San Lorenzo de El Escorial, Spain", "global_code": "8CGQHRVW+M4"}, "rating": 4.1, "reference": "ChIJRdLi7oYJQQ0RhKxcrFVewcQ", "scope": "GOOGLE", "types": ["parking", "point_of_interest", "establishment"], "user_ratings_total": 204, "vicinity": "Arroyo del Romeral"}, {"business_status": "OPERATIONAL", "geometry": {"location": {"lat": 40.5924345, "lng": -4.1423231}, "viewport": {"northeast": {"lat": 40.59377963029149, "lng": -4.140965819708499}, "southwest": {"lat": 40.59108166970849, "lng": -4.143663780291504}}}, "icon": "https://maps.gstatic.com/mapfiles/place_api/icons/v1/png_71/parking-71.png", "icon_background_color": "#7B9EB0", "icon_mask_base_uri": "https://maps.gstatic.com/mapfiles/place_api/icons/v2/parking_pinlet", "name": "Aparcamiento discapacitados", "place_id": "ChIJgxcKWQALQQ0RVgzUtyj8PCk", "plus_code": {"compound_code": "HVR5+X3 San Lorenzo de El Escorial, Spain", "global_code": "8CGQHVR5+X3"}, "reference": "ChIJgxcKWQALQQ0RVgzUtyj8PCk", "scope": "GOOGLE", "types": ["parking", "point_of_interest", "establishment"], "vicinity": "Calle Infantes, 6, San Lorenzo de El Escorial"}, {"business_status": "OPERATIONAL", "geometry": {"location": {"lat": 40.5860138, "lng": -4.1543562}, "viewport": {"northeast": {"lat": 40.58736538029149, "lng": -4.152979169708498}, "southwest": {"lat": 40.5846674197085, "lng": -4.155677130291503}}}, "icon": "https://maps.gstatic.com/mapfiles/place_api/icons/v1/png_71/parking-71.png", "icon_background_color": "#7B9EB0", "icon_mask_base_uri": "https://maps.gstatic.com/mapfiles/place_api/icons/v2/parking_pinlet", "name": "Parking Herrería", "photos": [{"height": 2976, "html_attributions": ["<a href=\"https://maps.google.com/maps/contrib/105171566497081628211\">Joram Julián Real San Julián</a>"], "photo_reference": "AWn5SU7IlOOcmnKfqjxrlssTyfreV_n06MmfgSHMzq8POlfVulE0d_bf2zmLSpeumvgiNttFgam5-1CYzP9tCtEMDaKye71NlJdbdPLSZbZYt3-hbRGARsGU_b03Y1wdL4qTZQWf3hr5oju6eJQJkfghnSaeopEvC0eSu74TYHb45OtoeuJ7ZxC6ZXv4SeeiP2KWtMhP1fvy83G0H-9-qqcIXf5d2yusO0SmmtmqymgrsWEEzQDgAAOmrm9Jooa_IJU3iAnRgD5LvSQJM6DnXZ7HYLxFqPE_7bc-1naNksOx4_G5roi5KioFCOAPqvGeI2OaJrCfn_I9idvGUaTa6hLFm3b8-dC-aRNfqwgwH7Pobp3r3W8S6vwRvrN9WcWBILLFBdZjJ6xunDT74In5af0zeenb_UqOjM3dPb9EEO2lNp9KohNMSzwiTq-yYjd8poJngTVZDjpXM8Nb590N7o_LOo-PDZ5OIQJeqK91apQQcXminZdknadhXvSc4JSSwbAClC7awOUejrBvetpMB3XrcBLQHHmpccQ6QacB7K4KZV3uVKk1Y4ApO5T9hgh_wML1g3KdbNJ9F2_IhRiOGCbJ3eNyy2UWfUitj8hrALMxf4EC9ubSL7sT1hjHQ662m_W7", "width": 3968}], "place_id": "ChIJ7fq4HxEJQQ0ReJNMX3Iv8rk", "plus_code": {"compound_code": "HRPW+C7 San Lorenzo de El Escorial, Spain", "global_code": "8CGQHRPW+C7"}, "rating": 4.3, "reference": "ChIJ7fq4HxEJQQ0ReJNMX3Iv8rk", "scope": "GOOGLE", "types": ["parking", "point_of_interest", "establishment"], "user_ratings_total": 32, "vicinity": "San Lorenzo de El Escorial"}, {"business_status": "OPERATIONAL", "geometry": {"location": {"lat": 40.5858056, "lng": -4.158423099999999}, "viewport": {"northeast": {"lat": 40.5871357302915, "lng": -4.157061319708498}, "southwest": {"lat": 40.5844377697085, "lng": -4.159759280291503}}}, "icon": "https://maps.gstatic.com/mapfiles/place_api/icons/v1/png_71/parking-71.png", "icon_background_color": "#7B9EB0", "icon_mask_base_uri": "https://maps.gstatic.com/mapfiles/place_api/icons/v2/parking_pinlet", "name": "Glorieta de Juan Selgas", "place_id": "ChIJVzx2WAAJQQ0R85QbEThYpqw", "plus_code": {"compound_code": "HRPR+8J San Lorenzo de El Escorial, Spain", "global_code": "8CGQHRPR+8J"}, "reference": "ChIJVzx2WAAJQQ0R85QbEThYpqw", "scope": "GOOGLE", "types": ["parking", "point_of_interest", "establishment"], "vicinity": "Paseo Carlos III, 120, San Lorenzo de El Escorial"}, {"business_status": "OPERATIONAL", "geometry": {"location": {"lat": 40.5858247, "lng": -4.1621171}, "viewport": {"northeast": {"lat": 40.5871795802915, "lng": -4.160772269708498}, "southwest": {"lat": 40.5844816197085, "lng": -4.163470230291503}}}, "icon": "https://maps.gstatic.com/mapfiles/place_api/icons/v1/png_71/parking-71.png", "icon_background_color": "#7B9EB0", "icon_mask_base_uri": "https://maps.gstatic.com/mapfiles/place_api/icons/v2/parking_pinlet", "name": "Fácil de aparcar", "place_id": "ChIJl_VOJJYJQQ0Rcuzdo5bT-rM", "plus_code": {"compound_code": "HRPQ+85 San Lorenzo de El Escorial, Spain", "global_code": "8CGQHRPQ+85"}, "reference": "ChIJl_VOJJYJQQ0Rcuzdo5bT-rM", "scope": "GOOGLE", "types": ["parking", "point_of_interest", "establishment"], "vicinity": "Calle los Cerezos, 6, San Lorenzo de El Escorial"}, {"business_status": "OPERATIONAL", "geometry": {"location": {"lat": 40.586715, "lng": -4.132442999999999}, "viewport": {"northeast": {"lat": 40.58804668029151, "lng": -4.130978819708497}, "southwest": {"lat": 40.58534871970851, "lng": -4.133676780291502}}}, "icon": "https://maps.gstatic.com/mapfiles/place_api/icons/v1/png_71/parking-71.png", "icon_background_color": "#7B9EB0", "icon_mask_base_uri": "https://maps.gstatic.com/mapfiles/place_api/icons/v2/parking_pinlet", "name": "Parking disuasorio estación El Escorial", "opening_hours": {"open_now": true}, "photos": [{"height": 1080, "html_attributions": ["<a href=\"https://maps.google.com/maps/contrib/110028701288020611757\">León Project</a>"], "photo_reference": "AWn5SU7vPBha9uJ7vHYBXcElte-d34Enp4JdH3_dsHibCnSkQ7V8wSnlUXTiS3WcWYXVw93iDl8wS6okUJsd3aGP-GX_8M9of4VX9UbPimKp0JNH2kkb6Ng-_62nZ4S4V5w6NzUkYj2nP5dX4-aoAnIOTv0EzymxYoRZnrS6ssNl9lfXuGlRUDkdi1_QWiywCcTotjskk1w3-unT5SE0zoB7vsfPAPQxMGZxzfM79yaV1sBMnZhQ6OpwCJCeZNKCI4IJFt3D7-CH7bPcXxY1QlktLb5SjB83i8bY-Eerb9MkrCRy9jI97vFj3jS2j36NI10ocFHRX6gI4mRq8Iz3h4K6mkjOerXnQebxo4NJdW3LEKr_tiek_skrYpicZconNvv9B47a-OqIzFdxgzVB2_L5EPP59APPtvd4DHloD_QmmlDTO-yVMKqhUGEy7ztSak2lVul5JJ_FNZfXTD19ki1eDJ5pTYOLqsTOKb5zaVPZQxW_0Hz98r27jLZBfZd05A6PBfgWNMaG1ee8djpwN8PzRIuF7I3_nPLSpHmQRmRmXW5kVN1UIuxsNAyEmw3pwQgIvsy8Pvxecj_tKX8ED7SXa6nT25PAWGMoNqdDMaRVieS9rjBsKcVOgw-vh4eHb_9n", "width": 1920}], "place_id": "ChIJr0RDyTgKQQ0RU3098WWP-UI", "plus_code": {"compound_code": "HVP9+M2 El Escorial, Spain", "global_code": "8CGQHVP9+M2"}, "rating": 3.6, "reference": "ChIJr0RDyTgKQQ0RU3098WWP-UI", "scope": "GOOGLE", "types": ["parking", "point_of_interest", "establishment"], "user_ratings_total": 11, "vicinity": "Calle de Santa Rosa, 85B, El Escorial"}, {"business_status": "OPERATIONAL", "geometry": {"location": {"lat": 40.5862663, "lng": -4.1322886}, "viewport": {"northeast": {"lat": 40.5873470302915, "lng": -4.131068669708498}, "southwest": {"lat": 40.5846490697085, "lng": -4.133766630291502}}}, "icon": "https://maps.gstatic.com/mapfiles/place_api/icons/v1/png_71/parking-71.png", "icon_background_color": "#7B9EB0", "icon_mask_base_uri": "https://maps.gstatic.com/mapfiles/place_api/icons/v2/parking_pinlet", "name": "Calle de Sta. Rosa, 85A Parking", "place_id": "ChIJw5cWNT8KQQ0R5YCFJkCiXi8", "plus_code": {"compound_code": "HVP9+G3 El Escorial, Spain", "global_code": "8CGQHVP9+G3"}, "rating": 4, "reference": "ChIJw5cWNT8KQQ0R5YCFJkCiXi8", "scope": "GOOGLE", "types": ["parking", "point_of_interest", "establishment"], "user_ratings_total": 1, "vicinity": "Calle de Sta. Rosa, 85A, El Escorial"}, {"business_status": "OPERATIONAL", "geometry": {"location": {"lat": 40.6019598, "lng": -4.1301986}, "viewport": {"northeast": {"lat": 40.60327618029151, "lng": -4.128828269708499}, "southwest": {"lat": 40.60057821970851, "lng": -4.131526230291503}}}, "icon": "https://maps.gstatic.com/mapfiles/place_api/icons/v1/png_71/parking-71.png", "icon_background_color": "#7B9EB0", "icon_mask_base_uri": "https://maps.gstatic.com/mapfiles/place_api/icons/v2/parking_pinlet", "name": "Parking", "place_id": "ChIJ_Z0tfuwLQQ0R7U7r6bmTxCc", "plus_code": {"compound_code": "JV29+QW San Lorenzo de El Escorial, Spain", "global_code": "8CGQJV29+QW"}, "reference": "ChIJ_Z0tfuwLQQ0R7U7r6bmTxCc", "scope": "GOOGLE", "types": ["parking", "point_of_interest", "establishment"], "vicinity": "Calle los Pintores, 19, San Lorenzo de El Escorial"}, {"business_status": "OPERATIONAL", "geometry": {"location": {"lat": 40.5816422, "lng": -4.129639399999999}, "viewport": {"northeast": {"lat": 40.5830036802915, "lng": -4.128315719708498}, "southwest": {"lat": 40.58030571970851, "lng": -4.131013680291503}}}, "icon": "https://maps.gstatic.com/mapfiles/place_api/icons/v1/png_71/parking-71.png", "icon_background_color": "#7B9EB0", "icon_mask_base_uri": "https://maps.gstatic.com/mapfiles/place_api/icons/v2/parking_pinlet", "name": "Parking", "place_id": "ChIJgyVZH0AKQQ0RB63noCAON64", "plus_code": {"compound_code": "HVJC+M4 El Escorial, Spain", "global_code": "8CGQHVJC+M4"}, "rating": 4.5, "reference": "ChIJgyVZH0AKQQ0RB63noCAON64", "scope": "GOOGLE", "types": ["parking", "point_of_interest", "establishment"], "user_ratings_total": 2, "vicinity": "Calle Segovia, 1, El Escorial"}, {"business_status": "OPERATIONAL", "geometry": {"location": {"lat": 40.6012951, "lng": -4.127981399999999}, "viewport": {"northeast": {"lat": 40.60263928029151, "lng": -4.126628319708498}, "southwest": {"lat": 40.59994131970851, "lng": -4.129326280291502}}}, "icon": "https://maps.gstatic.com/mapfiles/place_api/icons/v1/png_71/parking-71.png", "icon_background_color": "#7B9EB0", "icon_mask_base_uri": "https://maps.gstatic.com/mapfiles/place_api/icons/v2/parking_pinlet", "name": "Parking", "opening_hours": {"open_now": true}, "place_id": "ChIJMZ-4AS0LQQ0RlnkPBb4o8ko", "plus_code": {"compound_code": "JV2C+GR San Lorenzo de El Escorial, Spain", "global_code": "8CGQJV2C+GR"}, "rating": 5, "reference": "ChIJMZ-4AS0LQQ0RlnkPBb4o8ko", "scope": "GOOGLE", "types": ["parking", "point_of_interest", "establishment"], "user_ratings_total": 1, "vicinity": "Calle las Pozas, 138, San Lorenzo de El Escorial"}, {"business_status": "OPERATIONAL", "geometry": {"location": {"lat": 40.5680527, "lng": -4.1526543}, "viewport": {"northeast": {"lat": 40.5693929802915, "lng": -4.151328619708498}, "southwest": {"lat": 40.5666950197085, "lng": -4.154026580291502}}}, "icon": "https://maps.gstatic.com/mapfiles/place_api/icons/v1/png_71/parking-71.png", "icon_background_color": "#7B9EB0", "icon_mask_base_uri": "https://maps.gstatic.com/mapfiles/place_api/icons/v2/parking_pinlet", "name": "Aparcamiento Silla Felipe II", "photos": [{"height": 9000, "html_attributions": ["<a href=\"https://maps.google.com/maps/contrib/118442098448300288042\">Francisco Caceres</a>"], "photo_reference": "AWn5SU7Vvcn_NS6Bl_UdjEmsN-0HgU61gxfmX3oGCGxnVxKpk31RIkSxchWgsY49fYvpbDc4PQLsyd0vieLrUgRTBnp56TQS4tB1n__TP87SJXgGxKVRw5VRJZagCE5XjrpbY_LuYY0nFwyEEApO8FyQo3-PfbybjJiXqEw4xQWWjkJdzvC0hlIrnQsvZCa-MtfbflrrHt46nfuu1qd48zd37MbV526MbfDuBTT47OBUd-9ycTwp9njrIMKulSnWHhEViDDXPHn1RXT9gOwHqLfpen-kckzT7fBR1jpslf94ZbQYssy4sghCdMEbt3Wbxr3VEgYR8nyLS0WtN9ifNGnUk2T69t667MfcO-SzeR8iKs4qDX4yMCcVQGG55LZ3lU2JEywbEMMpFSG17tmxMBuSWrjY5d_Ux9VkEJVuoI24uTbkIJizHznQLOThh9j_ipHxKNpNPMpOHZ_OFEto7m-vKkQj7JQcx5xsLQlPBNXYLb2PHgRUGBRKa0gvp3e9bgn9zXZpnRJBt2IaCYGxFaRH2pvFI4Btl4sll46ttSHDU5vOb_NGq3Kgebd10tsikzXdIIozLDTSSIKcDJeCPWSfnScHWJGNjSzvXT83KbqztItROdCduGLo6FmggZUuIjvyVf_aBw", "width": 12000}], "place_id": "ChIJpXqL1ZwJQQ0RD9navlQwOis", "plus_code": {"compound_code": "HR9W+6W San Lorenzo de El Escorial, Spain", "global_code": "8CGQHR9W+6W"}, "rating": 4.1, "reference": "ChIJpXqL1ZwJQQ0RD9navlQwOis", "scope": "GOOGLE", "types": ["parking", "point_of_interest", "establishment"], "user_ratings_total": 16, "vicinity": "Casa del Sordo, San Lorenzo de El Escorial"}, {"business_status": "OPERATIONAL", "geometry": {"location": {"lat": 40.610747, "lng": -4.1209416}, "viewport": {"northeast": {"lat": 40.6121010302915, "lng": -4.119623869708497}, "southwest": {"lat": 40.6094030697085, "lng": -4.122321830291502}}}, "icon": "https://maps.gstatic.com/mapfiles/place_api/icons/v1/png_71/parking-71.png", "icon_background_color": "#7B9EB0", "icon_mask_base_uri": "https://maps.gstatic.com/mapfiles/place_api/icons/v2/parking_pinlet", "name": "Aparcamiento súperior Insectario", "place_id": "ChIJySYjvy4LQQ0Rp2MPmn_GuOI", "plus_code": {"compound_code": "JV6H+7J San Lorenzo de El Escorial, Spain", "global_code": "8CGQJV6H+7J"}, "rating": 4.5, "reference": "ChIJySYjvy4LQQ0Rp2MPmn_GuOI", "scope": "GOOGLE", "types": ["parking", "point_of_interest", "establishment"], "user_ratings_total": 6, "vicinity": "Calle Eduardo Rosales, 16, San Lorenzo de El Escorial"}, {"business_status": "OPERATIONAL", "geometry": {"location": {"lat": 40.6090924, "lng": -4.1164623}, "viewport": {"northeast": {"lat": 40.6105290302915, "lng": -4.114920469708498}, "southwest": {"lat": 40.6078310697085, "lng": -4.117618430291501}}}, "icon": "https://maps.gstatic.com/mapfiles/place_api/icons/v1/png_71/parking-71.png", "icon_background_color": "#7B9EB0", "icon_mask_base_uri": "https://maps.gstatic.com/mapfiles/place_api/icons/v2/parking_pinlet", "name": "Aparcamiento merenderos", "photos": [{"height": 1080, "html_attributions": ["<a href=\"https://maps.google.com/maps/contrib/114676599660082247458\">Javier González (jaglez)</a>"], "photo_reference": "AWn5SU5Bi7Z71lAoXlI5WS2QHTkmNPOgbHvg8-jyXcvQkjXbfS8R9pWD0j7Aqmiy4Lo3SG6tdGyQ6GSBKtjwjVRfUXX-4iXMMi1fepdxOEzN2NFc2aHTkgTDKdbhX4xGC88hUQ0_lNZZ9CTyMGr7AHBEgaBOVYmW79jsZO7EjhMlFP7kAqZhMcKqe1lK0jILHrb6-zb96YztJ2ZklPhDXEhrWX-4Wzs4xxb2T4Df4wZWT9zh-aThhynC8c85M-gVNIEvbsWOjWE-GoLNO4BbtPU4VRQULORgqFZBimgKSq2LIvBJKVFPQlkrHTGssxnFQrJjOibXBSuG8ONt96Sb_NkWDXBay-h026E-hJMHNPI8rk9sfZWUoF03QHMfpNYineS9MBgrqLjKs5p1UY4BjBDJ7MvB0EBhqSsjYn5hS1TzCnB8q838OWm-DjFVl_O6sFSQV2Q-swElcvnXmxMueSn4WKrUXvVy-MwYMbc4EzLejk-5Y504U5ku_Efks97OjJJvqCrCjhK7QOmxjq9BCeCy0cuUOYiAcCc-PHu29Hn1Ekrv5W_-OCOJ71_o43Cvez4hDVKlSN0QW9FrpZ271IoGiGdP5VH6v_0Gk3Sp6NukJ9oE7VER6sZHBXBIPlsZAg", "width": 4912}], "place_id": "ChIJ_Tmmz7YLQQ0RWIZx6Ji9oC0", "plus_code": {"compound_code": "JV5M+JC San Lorenzo de El Escorial, Spain", "global_code": "8CGQJV5M+JC"}, "rating": 4.2, "reference": "ChIJ_Tmmz7YLQQ0RWIZx6Ji9oC0", "scope": "GOOGLE", "types": ["parking", "point_of_interest", "establishment"], "user_ratings_total": 12, "vicinity": "Carretera de Guadarrama, 1760, San Lorenzo de El Escorial"}]