[{"business_status": "OPERATIONAL", "geometry": {"location": {"lat": 40.7342069, "lng": -3.584201299999999}, "viewport": {"northeast": {"lat": 40.7355596302915, "lng": -3.582843919708498}, "southwest": {"lat": 40.7328616697085, "lng": -3.585541880291502}}}, "icon": "https://maps.gstatic.com/mapfiles/place_api/icons/v1/png_71/parking-71.png", "icon_background_color": "#7B9EB0", "icon_mask_base_uri": "https://maps.gstatic.com/mapfiles/place_api/icons/v2/parking_pinlet", "name": "Parking Público", "opening_hours": {"open_now": true}, "place_id": "ChIJsbyMMRHRQw0RK8lN89G6GSE", "plus_code": {"compound_code": "PCM8+M8 El Molar, Spain", "global_code": "8CGRPCM8+M8"}, "rating": 3.8, "reference": "ChIJsbyMMRHRQw0RK8lN89G6GSE", "scope": "GOOGLE", "types": ["parking", "point_of_interest", "establishment"], "user_ratings_total": 6, "vicinity": "Calle de Jacoba Díaz Benito, 13, El Molar"}, {"business_status": "OPERATIONAL", "geometry": {"location": {"lat": 40.734661, "lng": -3.5797938}, "viewport": {"northeast": {"lat": 40.7358843802915, "lng": -3.578566769708498}, "southwest": {"lat": 40.7331864197085, "lng": -3.581264730291501}}}, "icon": "https://maps.gstatic.com/mapfiles/place_api/icons/v1/png_71/parking-71.png", "icon_background_color": "#7B9EB0", "icon_mask_base_uri": "https://maps.gstatic.com/mapfiles/place_api/icons/v2/parking_pinlet", "name": "Aparcamiento cuevas del Molar", "photos": [{"height": 4032, "html_attributions": ["<a href=\"https://maps.google.com/maps/contrib/112785528980594567543\">Álvaro Casado Manso</a>"], "photo_reference": "AWn5SU7bpKhp-Bbel_ws_k6RxsNVhjAryMX4YcM874zgkXk648UJGwU13w3BwUEr6SuHncVt7ldwPuI1z1hlKBhAjP4vI1wWNNN2brKEpu6JRPbi989jRbV9P3lLVTFnB2wJA-JFrAdcltTgRNU3dvJ3BgSLTmgg2RJq2JTM39npSedtrcslTNbwV29a_shKTXTn-KpzgYTeof8-bwgZOlyQhL-LQsrqx_bI2myqf2p0UJU43e1XsOQAzltFt0Q0b4ap4gKqJQU_BjZYgjgfpiKyOaGykZNVk0KpJv-qjH0gt9RcvGZtegfyLumsM4j4RmkXRn0THw2an7kOrG_mKgztezxdGOHo9F-sRAJmfZ52WZ5L_nDbXbHLM9nxhtV2A-VUNRKfZotyxmY0VUTc12Me8fUz43aG43WZ33izlXkKR6U5BBx2hzQKg298BtPDz6tmixrvjM9dfQtSf-27doGP5LnUPshAEKojwzJSLrTJf4Yvf-vvVlVcmW5TYOTZ0_QCIqAifqSMaI7zGpG2iK6vCZNAGNR3BXltKbdUZgMPyPp1j9E2rsY3CFW3kHmPuuz1HETmOd2a3guJSEM4kZ3NX3N2a6q76hxI7SBdvY8HgkhrsnsPWMT8VTaCEkou9Ki9a0l8Qw", "width": 3024}], "place_id": "ChIJ9QtDycnPQw0RtBNWKBTunhc", "plus_code": {"compound_code": "PCMC+V3 El Molar, Spain", "global_code": "8CGRPCMC+V3"}, "rating": 4.8, "reference": "ChIJ9QtDycnPQw0RtBNWKBTunhc", "scope": "GOOGLE", "types": ["parking", "point_of_interest", "establishment"], "user_ratings_total": 4, "vicinity": "Calle de Santa María de la Cuesta, 20, El Molar"}, {"business_status": "OPERATIONAL", "geometry": {"location": {"lat": 40.7356558, "lng": -3.578957}, "viewport": {"northeast": {"lat": 40.73699208029149, "lng": -3.577606669708498}, "southwest": {"lat": 40.73429411970849, "lng": -3.580304630291502}}}, "icon": "https://maps.gstatic.com/mapfiles/place_api/icons/v1/png_71/parking-71.png", "icon_background_color": "#7B9EB0", "icon_mask_base_uri": "https://maps.gstatic.com/mapfiles/place_api/icons/v2/parking_pinlet", "name": "Aparcamiento público cuevas del Molar", "place_id": "ChIJL3rkRmbPQw0RL29_JemByP8", "plus_code": {"compound_code": "PCPC+7C El Molar, Spain", "global_code": "8CGRPCPC+7C"}, "rating": 3, "reference": "ChIJL3rkRmbPQw0RL29_JemByP8", "scope": "GOOGLE", "types": ["parking", "point_of_interest", "establishment"], "user_ratings_total": 5, "vicinity": "Calle Tejera Vieja, 14, El Molar"}, {"business_status": "OPERATIONAL", "geometry": {"location": {"lat": 40.7379328, "lng": -3.5813331}, "viewport": {"northeast": {"lat": 40.7392796802915, "lng": -3.579935519708498}, "southwest": {"lat": 40.7365817197085, "lng": -3.582633480291503}}}, "icon": "https://maps.gstatic.com/mapfiles/place_api/icons/v1/png_71/parking-71.png", "icon_background_color": "#7B9EB0", "icon_mask_base_uri": "https://maps.gstatic.com/mapfiles/place_api/icons/v2/parking_pinlet", "name": "Aparcamiento de carga eléctrica", "place_id": "ChIJaZGJDsLRQw0R2K2CbLcfgU8", "plus_code": {"compound_code": "PCQ9+5F El Molar, Spain", "global_code": "8CGRPCQ9+5F"}, "reference": "ChIJaZGJDsLRQw0R2K2CbLcfgU8", "scope": "GOOGLE", "types": ["parking", "point_of_interest", "establishment"], "vicinity": "El Molar"}, {"business_status": "OPERATIONAL", "geometry": {"location": {"lat": 40.743023, "lng": -3.601609100000001}, "viewport": {"northeast": {"lat": 40.7441887302915, "lng": -3.600177669708498}, "southwest": {"lat": 40.74149076970851, "lng": -3.602875630291503}}}, "icon": "https://maps.gstatic.com/mapfiles/place_api/icons/v1/png_71/parking-71.png", "icon_background_color": "#7B9EB0", "icon_mask_base_uri": "https://maps.gstatic.com/mapfiles/place_api/icons/v2/parking_pinlet", "international_phone_number": "+34 918 43 30 53", "name": "Free public parking", "opening_hours": {"open_now": true}, "photos": [{"height": 3000, "html_attributions": ["<a href=\"https://maps.google.com/maps/contrib/112830342181364181960\">Anibal Rivera</a>"], "photo_reference": "AWn5SU5h6_PGzzyrBlrpS3H9nwnBgqdwR9tY-EpQbVvcqLu5_HK6KCIqcyqMTCk72YNG6GeLhRSWUx-BRvmij5LkjmYD82WAmyRHTNxk1LJV9H-HLmhWgmu6Rc4oRaTzUUPOzSsTxtlNKuwTCAHsqYoTRZItJwQ6afUth1WDGgJGttLC16PGGTwua_7GmZZ89P0JV9h4SfytQQRURlHk3PWyvWTU4CnXQX4CJ_LKFBGupddrOGnr92M_sNqka9cTRkJop-DaXxiwI8rCflmRSEna6QSqMyNpRYhBuZYkZu7bSGmqnMT5xrQi2TK-0VyGhdYHxhcZ0rgFFCGPOeb7VL0KmRU4dC24S-i25p68AJ89scFUPQJxN34TGEUXeSK-eCcK4SM58582vF-iQ5B4Zd-kKC-vvN4j9v7On-RxUYo_6COpgDP3bPEMx3_a7HIEyGrW0bEH4cpWmFpihPYqJEfDkVRhZGKryexH2CE5vnP9KTXeLMzp6Gk8TxSrdTv-AnO4YT06h_6zT-ZHLiQ4kQnNBlaVNyz74Aa-VWQJfnqUYYc5o378bg4CJ2pvTsLzN2Yry3SzeQmGp1VK-0P0VEYH5kzJ3Gv3xC8Ca6Lzb0C_4jFCILDG0fi-WKRQOerQH8_fLnDQ8vejFm05IM2Y9j9S7YkXGio", "width": 4000}], "place_id": "ChIJO4-moVHbQw0RPtqK9dWCgoQ", "plus_code": {"compound_code": "P9VX+69 Pedrezuela, Spain", "global_code": "8CGRP9VX+69"}, "rating": 4.5, "reference": "ChIJO4-moVHbQw0RPtqK9dWCgoQ", "scope": "GOOGLE", "types": ["parking", "point_of_interest", "establishment"], "user_ratings_total": 4, "vicinity": "Avenida de los Toreros, 7Z, Pedrezuela"}, {"business_status": "OPERATIONAL", "geometry": {"location": {"lat": 40.7456443, "lng": -3.602353599999999}, "viewport": {"northeast": {"lat": 40.7469222802915, "lng": -3.601029369708497}, "southwest": {"lat": 40.7442243197085, "lng": -3.603727330291501}}}, "icon": "https://maps.gstatic.com/mapfiles/place_api/icons/v1/png_71/parking-71.png", "icon_background_color": "#7B9EB0", "icon_mask_base_uri": "https://maps.gstatic.com/mapfiles/place_api/icons/v2/parking_pinlet", "name": "Parking publico", "opening_hours": {"open_now": true}, "photos": [{"height": 2608, "html_attributions": ["<a href=\"https://maps.google.com/maps/contrib/117933242523959421927\">David Cuesta Capa</a>"], "photo_reference": "AWn5SU66LgYh2Y7gBf3mYJkbNCepHYE_hX54lyp8RkCnDmP2t1iSou8r0HfY3Z4JU9Qya6_tMtWac-tq5O4oswOBFjPxPs693xoGspYKoCHtWMfMXM4awfkNIbV40FkwNG6EPONLbRhLvb04cGvvg3R2rAj3zschtsG7UA5-lQOoj2zdAevtlEiEzYnbYkFeYxjr5vdQnjpZBBlkNGWwrP-pB-JQAR7GC2pcU1MKrSHNsjk9HNhs5kwhNPLVVZ_0SuBYZvMMVOVDgHqErA27arnn5iPQFqnj5zd1GWBzvz3Nn3iUIWXCrK14EgQyHslEj7s2Zb_m__dvAnkk3-7pZcux1uR4R7qdGU8VY-CNRu5GujRRy5dhg_h_ep2gE2MDLQQWBBTNI5EWWulD4t5DubhDcTB_K7HDgHJ3FAUpCOaNT2YgZ8B4KJURGA8n1TCbvIHG89VTY7vNjhAWGPrRz47gHiQUs1kV6WhaGCN5rJLEUNEYLH-aa5VMvaxTEuFvDBcNQEFsG_pqIP5GbaOXy4hf4P4zLJBzyde_FwY44kF6yZcBoeRSflEEp9LM_hOR_H14ag5MWnmCYDED2K4xGnh6373GiEfFfaC08oJG6w6RjQ33zdr5t2PHrCOsn79xEOKUBv_KWg", "width": 4624}], "place_id": "ChIJX5DmRQDbQw0RKuhnj0-XUNE", "plus_code": {"compound_code": "P9WX+73 Pedrezuela, Spain", "global_code": "8CGRP9WX+73"}, "reference": "ChIJX5DmRQDbQw0RKuhnj0-XUNE", "scope": "GOOGLE", "types": ["parking", "point_of_interest", "establishment"], "vicinity": "Calle San Isidro, 7, Pedrezuela"}, {"business_status": "OPERATIONAL", "geometry": {"location": {"lat": 40.71278, "lng": -3.57785}, "viewport": {"northeast": {"lat": 40.7141668302915, "lng": -3.576506469708498}, "southwest": {"lat": 40.7114688697085, "lng": -3.579204430291501}}}, "icon": "https://maps.gstatic.com/mapfiles/place_api/icons/v1/png_71/parking-71.png", "icon_background_color": "#7B9EB0", "icon_mask_base_uri": "https://maps.gstatic.com/mapfiles/place_api/icons/v2/parking_pinlet", "name": "Tankování El Molar", "opening_hours": {"open_now": true}, "place_id": "ChIJx8_x4AzPQw0RLgNGZfAqgFk", "plus_code": {"compound_code": "PC7C+4V El Molar, Spain", "global_code": "8CGRPC7C+4V"}, "rating": 2.8, "reference": "ChIJx8_x4AzPQw0RLgNGZfAqgFk", "scope": "GOOGLE", "types": ["parking", "point_of_interest", "establishment"], "user_ratings_total": 8, "vicinity": "Poligono 21, 5P, El Molar"}, {"business_status": "OPERATIONAL", "geometry": {"location": {"lat": 40.7429926, "lng": -3.6065063}, "viewport": {"northeast": {"lat": 40.74443623029151, "lng": -3.605260519708497}, "southwest": {"lat": 40.74173826970851, "lng": -3.607958480291502}}}, "icon": "https://maps.gstatic.com/mapfiles/place_api/icons/v1/png_71/parking-71.png", "icon_background_color": "#7B9EB0", "icon_mask_base_uri": "https://maps.gstatic.com/mapfiles/place_api/icons/v2/parking_pinlet", "international_phone_number": "+34 691 59 81 99", "name": "Aparcamiento público", "opening_hours": {"open_now": true}, "place_id": "ChIJIXrYwhrbQw0RQplR0JrTqfg", "plus_code": {"compound_code": "P9VV+59 Pedrezuela, Spain", "global_code": "8CGRP9VV+59"}, "rating": 3.7, "reference": "ChIJIXrYwhrbQw0RQplR0JrTqfg", "scope": "GOOGLE", "types": ["parking", "point_of_interest", "establishment"], "user_ratings_total": 3, "vicinity": "Calle de las Eras, 59, Pedrezuela"}, {"business_status": "OPERATIONAL", "geometry": {"location": {"lat": 40.740241, "lng": -3.6147816}, "viewport": {"northeast": {"lat": 40.74169123029149, "lng": -3.613373969708498}, "southwest": {"lat": 40.73899326970849, "lng": -3.616071930291502}}}, "icon": "https://maps.gstatic.com/mapfiles/place_api/icons/v1/png_71/parking-71.png", "icon_background_color": "#7B9EB0", "icon_mask_base_uri": "https://maps.gstatic.com/mapfiles/place_api/icons/v2/parking_pinlet", "name": "[P] Área de Corepo", "opening_hours": {"open_now": true}, "photos": [{"height": 1920, "html_attributions": ["<a href=\"https://maps.google.com/maps/contrib/113362449953685263548\">Deivi Perez</a>"], "photo_reference": "AWn5SU4CpQ-4XjpZkLN_Vv2N1iTpUoTCTkbaBlKrpVUMdflo0jMS7MSlIpJIMTyfga3L87CwiQ-bd9tS3iITur2UC-HeRanfkljqoJMH5UKG22CEa0YQ5jcdDZiZsmhVZses-k_YUGAv0xi4YR8miJjbf4sjotTFhTlf_SsNwGr-g1e_XiSxiN64CoXsI6px1BPU3lQVfyp2uOoRxPgoqtw3tbgwk36zfH8e8S3xvpmSprcD3HQwLizbP1tcCzmfRc9quIINoWh_RXH8vWh-Y6-ntpNrAoIYtoWyotm94My_d0dVvgeoy9J8Ivu65I64J-TblcEyt4DrrQvQchA8jSCLP9lx6VCH8GupVBug4H6JviyOeJ-jcvxKm72PF67Tgy-cxt9K8woQOBlhofGQf76Dz59wcryp_ckeCoIZa4ybtqRA53jEGpdlZK1k_1oLZEwvfDbQ39sUIDMbGnGhLw6RWB2JD5JGRyfO7S5MZ-ws9AhGN30CuCKsZE64ZJhjmEC0Ze2H-RqA0eoUmPbwtnCQAI9ybvnOLWktM9rzwmPPjeOzfwyXbICfrbkLITci8TPJbHx0TwKcmWkp0IsiKCLobWsB_eU46revjTGwqmdrLMvO1Ng2wjdGxMynOPhklAOTaU2lqKMn", "width": 1080}], "place_id": "ChIJxwWeMX_RQw0RPUfoej_Nmr0", "plus_code": {"compound_code": "P9RP+33 Pedrezuela, Spain", "global_code": "8CGRP9RP+33"}, "rating": 4.4, "reference": "ChIJxwWeMX_RQw0RPUfoej_Nmr0", "scope": "GOOGLE", "types": ["parking", "point_of_interest", "establishment"], "user_ratings_total": 7, "vicinity": "Pedrezuela"}, {"business_status": "OPERATIONAL", "geometry": {"location": {"lat": 40.7665826, "lng": -3.5835694}, "viewport": {"northeast": {"lat": 40.76782108029149, "lng": -3.582255619708498}, "southwest": {"lat": 40.7651231197085, "lng": -3.584953580291502}}}, "icon": "https://maps.gstatic.com/mapfiles/place_api/icons/v1/png_71/parking-71.png", "icon_background_color": "#7B9EB0", "icon_mask_base_uri": "https://maps.gstatic.com/mapfiles/place_api/icons/v2/parking_pinlet", "name": "Parking Municipal", "opening_hours": {"open_now": true}, "place_id": "ChIJ1znU3NrbQw0RpcSnw7dtq-E", "plus_code": {"compound_code": "QC88+JH El Vellón, Spain", "global_code": "8CGRQC88+JH"}, "rating": 4.5, "reference": "ChIJ1znU3NrbQw0RpcSnw7dtq-E", "scope": "GOOGLE", "types": ["parking", "point_of_interest", "establishment"], "user_ratings_total": 2, "vicinity": "Calle de la Magdalena, 14, El Vellón"}, {"business_status": "OPERATIONAL", "geometry": {"location": {"lat": 40.7673992, "lng": -3.5780819}, "viewport": {"northeast": {"lat": 40.7687429802915, "lng": -3.576794719708498}, "southwest": {"lat": 40.76604501970851, "lng": -3.579492680291502}}}, "icon": "https://maps.gstatic.com/mapfiles/place_api/icons/v1/png_71/parking-71.png", "icon_background_color": "#7B9EB0", "icon_mask_base_uri": "https://maps.gstatic.com/mapfiles/place_api/icons/v2/parking_pinlet", "name": "Parking municipal", "opening_hours": {"open_now": true}, "photos": [{"height": 3072, "html_attributions": ["<a href=\"https://maps.google.com/maps/contrib/117041431892373425152\">Mery H.</a>"], "photo_reference": "AWn5SU4VHFLszAYxC0k_CcKwueIiZc5n7fQi9spLCRDtwMrEzhdOflpd1WeJPK2Z24yMSa-KH-97Q7WUn4EjBR_U0SX6UvRALTR-HEEaHH_5zWP9UvFHCUQ1KcREB_IKBHAj8KZNkZwbYyVK__iNHm0r1UVpqAMfJ_Frxyw3wz4kT42p3d-LKkwVn5Age-iQu_pnAnCNzN5FCCsoCJ76T9ycD8Ep028dJxBlgg28Mz2k5t-Tt0Dt6rwYJaNJ8AiI5HFokOB38M0u5KsVJofTQialYmmNUiE6-oHSIh4YBdJFzgQyUwW8G2aP8CRbf4mAIISWAzA7B6ktMb8bHNu6fA_ycNEPTM6tCwoqM0Y7q_KApfX6HF5SWCRrQcfPYLxkpt3uUIt3XV9rmo9rDkeXJFIXD_-PZNIDz27YWgTUGkw3CQI_G7yz3x4rkyOJhqwYQQ9AickXCMpnRL5Kb-nsmmWoYPgDu96AxOp6wgqP04q4PoE9nin700CH96TfXti4Htu9rYI9Bx41xg5h1CVIIW7QJBo_WQ8HssmEDKPxC_52OdrcpyfM1tldBd_hEvt_IvULH9mwuNh8Sn4N23wd3NIZsjKBpoO26bO14lliJx7p7gtGJVOD3hgDEIypZYN-ezP5KpP3ZA6RRn_r3pH0PhWhEDuf6dw", "width": 4096}], "place_id": "ChIJXTrIdwDFQw0RNxK6t_91NQ8", "plus_code": {"compound_code": "QC8C+XQ El Vellón, Spain", "global_code": "8CGRQC8C+XQ"}, "rating": 5, "reference": "ChIJXTrIdwDFQw0RNxK6t_91NQ8", "scope": "GOOGLE", "types": ["parking", "point_of_interest", "establishment"], "user_ratings_total": 1, "vicinity": "Calle de los Huertos, 7, El Vellón"}, {"business_status": "OPERATIONAL", "geometry": {"location": {"lat": 40.6914287, "lng": -3.6095878}, "viewport": {"northeast": {"lat": 40.6927088802915, "lng": -3.608218719708497}, "southwest": {"lat": 40.6900109197085, "lng": -3.610916680291501}}}, "icon": "https://maps.gstatic.com/mapfiles/place_api/icons/v1/png_71/parking-71.png", "icon_background_color": "#7B9EB0", "icon_mask_base_uri": "https://maps.gstatic.com/mapfiles/place_api/icons/v2/parking_pinlet", "name": "Parking Dia", "photos": [{"height": 1184, "html_attributions": ["<a href=\"https://maps.google.com/maps/contrib/115055383090176917276\">Miguel angel Manzaneque gallego</a>"], "photo_reference": "AWn5SU7LnZzzOSFqB6oSmf2BE7GIgJhaBW-Br1wvPokdjx1AL0KCLCijPo_fr8L6IVSt-60WrCvtDNq24ZAfYjqWjPebSpFYMigoxD-YhhXF-eAcJsG1Y6FCfw7aWej_75bRWTj4rluD_vjrB4K60VFFBOtgsNzNQJlkOblNrVVg3R_E0hfkSh4YSww9-7tyouje0_Ct_9P0a16gH6EJTQ_TJO3JgxTKSAITbPh0CEkuzqyzMOEGETpDhdXgy8tPgCowDuNQV3RjpE2XYoioL3xQv6HdrXucGFVeQsESIMMyPGdnSRLGLgCfCJ-b_oXkxqk3rSRbs-5xEn05Yp4fhaYbgL23RWWleVhwIS8EvXCn45cg_ijfzOp5TUPx1qhirKLbqFreHzlN_mfyDo9wD_H3JHmV6w76NkhO2VzlfWrkt71UCaGUPr-n1WMGmWqGMGR4ZBMrc2i2mCsDmVm8TZryyDLI9Cjrnv3Zy217t3ZL0pDW1xap8MUx0RP6jW3TCwhgp_HPv7jT4KIsiQtaopm5eA8-7mZ8R0GICNgiima3p93AE_666K58OZxWm1jRbnFqtin1fN8Y-gZKt7kvCCjE5oapMSZEq_nV7oGdZL2Ze1iTi64V_20Sexxuz2EFhcpNH_qYYSfs", "width": 2560}], "place_id": "ChIJS4qqXbDRQw0R4rltLp15ZTM", "plus_code": {"compound_code": "M9RR+H5 San Agustín del Guadalix, Spain", "global_code": "8CGRM9RR+H5"}, "rating": 3.8, "reference": "ChIJS4qqXbDRQw0R4rltLp15ZTM", "scope": "GOOGLE", "types": ["parking", "point_of_interest", "establishment"], "user_ratings_total": 4, "vicinity": "Calle del Mesto, San Agustín del Guadalix"}, {"business_status": "OPERATIONAL", "geometry": {"location": {"lat": 40.6860991, "lng": -3.6120056}, "viewport": {"northeast": {"lat": 40.68729938029149, "lng": -3.610464819708498}, "southwest": {"lat": 40.6846014197085, "lng": -3.613162780291503}}}, "icon": "https://maps.gstatic.com/mapfiles/place_api/icons/v1/png_71/parking-71.png", "icon_background_color": "#7B9EB0", "icon_mask_base_uri": "https://maps.gstatic.com/mapfiles/place_api/icons/v2/parking_pinlet", "name": "Aparcamiento para bicicletas", "opening_hours": {"open_now": true}, "place_id": "ChIJCxCppqzRQw0RT5cqYFzXI6M", "plus_code": {"compound_code": "M9PQ+C5 San Agustín del Guadalix, Spain", "global_code": "8CGRM9PQ+C5"}, "reference": "ChIJCxCppqzRQw0RT5cqYFzXI6M", "scope": "GOOGLE", "types": ["parking", "point_of_interest", "establishment"], "vicinity": "Avenida Alcalde Lorenzo Ginés Brandín, 2, San Agustín del Guadalix"}, {"business_status": "OPERATIONAL", "geometry": {"location": {"lat": 40.6860373, "lng": -3.6119052}, "viewport": {"northeast": {"lat": 40.6872649802915, "lng": -3.610411519708498}, "southwest": {"lat": 40.6845670197085, "lng": -3.613109480291502}}}, "icon": "https://maps.gstatic.com/mapfiles/place_api/icons/v1/png_71/parking-71.png", "icon_background_color": "#7B9EB0", "icon_mask_base_uri": "https://maps.gstatic.com/mapfiles/place_api/icons/v2/parking_pinlet", "international_phone_number": "+34 918 48 75 66", "name": "Aparcamiento Supermercados Hiber", "opening_hours": {"open_now": false}, "place_id": "ChIJ-9v3OVDRQw0Ruyj-7f3k44o", "plus_code": {"compound_code": "M9PQ+C6 San Agustín del Guadalix, Spain", "global_code": "8CGRM9PQ+C6"}, "reference": "ChIJ-9v3OVDRQw0Ruyj-7f3k44o", "scope": "GOOGLE", "types": ["parking", "point_of_interest", "establishment"], "vicinity": "Avenida Alcalde Lorenzo Ginés Brandín, 2, San Agustín del Guadalix"}, {"business_status": "OPERATIONAL", "geometry": {"location": {"lat": 40.743332, "lng": -3.5121281}, "viewport": {"northeast": {"lat": 40.74471303029149, "lng": -3.510771069708498}, "southwest": {"lat": 40.7420150697085, "lng": -3.513469030291501}}}, "icon": "https://maps.gstatic.com/mapfiles/place_api/icons/v1/png_71/parking-71.png", "icon_background_color": "#7B9EB0", "icon_mask_base_uri": "https://maps.gstatic.com/mapfiles/place_api/icons/v2/parking_pinlet", "name": "Aparcamiento público", "opening_hours": {"open_now": true}, "place_id": "ChIJC0aKsQ_PQw0RK9MP9diWfXU", "plus_code": {"compound_code": "PFVQ+84 Talamanca de Jarama, Spain", "global_code": "8CGRPFVQ+84"}, "rating": 4.5, "reference": "ChIJC0aKsQ_PQw0RK9MP9diWfXU", "scope": "GOOGLE", "types": ["parking", "point_of_interest", "establishment"], "user_ratings_total": 4, "vicinity": "Avenida de Alcalá, 9, Talamanca de Jarama"}, {"business_status": "OPERATIONAL", "geometry": {"location": {"lat": 40.7472962, "lng": -3.5127702}, "viewport": {"northeast": {"lat": 40.7486308302915, "lng": -3.511424419708498}, "southwest": {"lat": 40.7459328697085, "lng": -3.514122380291502}}}, "icon": "https://maps.gstatic.com/mapfiles/place_api/icons/v1/png_71/parking-71.png", "icon_background_color": "#7B9EB0", "icon_mask_base_uri": "https://maps.gstatic.com/mapfiles/place_api/icons/v2/parking_pinlet", "name": "Báscula municipal", "place_id": "ChIJ-dU8UQDFQw0RuPGgq6-g7pg", "plus_code": {"compound_code": "PFWP+WV Talamanca de Jarama, Spain", "global_code": "8CGRPFWP+WV"}, "reference": "ChIJ-dU8UQDFQw0RuPGgq6-g7pg", "scope": "GOOGLE", "types": ["parking", "point_of_interest", "establishment"], "vicinity": "Calle de la Soledad, 2D, Talamanca de Jarama"}, {"business_status": "OPERATIONAL", "geometry": {"location": {"lat": 40.7796875, "lng": -3.6233125}, "viewport": {"northeast": {"lat": 40.7811432302915, "lng": -3.621893569708497}, "southwest": {"lat": 40.7784452697085, "lng": -3.624591530291502}}}, "icon": "https://maps.gstatic.com/mapfiles/place_api/icons/v1/png_71/parking-71.png", "icon_background_color": "#7B9EB0", "icon_mask_base_uri": "https://maps.gstatic.com/mapfiles/place_api/icons/v2/parking_pinlet", "name": "Public Parking Space", "photos": [{"height": 1800, "html_attributions": ["<a href=\"https://maps.google.com/maps/contrib/101321764474141234821\">ricardo fernández del Blanco</a>"], "photo_reference": "AWn5SU7y-WguI6PXfBxBH5THqBqoWkRUUM-2sTbJCgy0UqJrYyimsjLrgWMBOtFdRUPXkiUqRxfSDPQez_U2zV9Ae77EUHBy0tyXCCUwBbfouNmm9qRr0DpzLl0JXbcV4qgF2J_yVAJBBrYsazCKEG6hhpve-b-tWzOlM81qThGZvbEHiC-KC91uOuzcfNWUbk-dBnPpcEuSEihnPYkbyCAdDsuPuL4TcINR8wv62S63xV8JmCTWmAjCVKb863sjsQa8keUVlitwlXJOwQKSp-5yFytLXAZJf2Ihexuu5oc8caTMhYIRExa6UPEg3MnyvBQ9cbR4v1a9dsL9nUy1_IEspMKKym0BbYWuvr_Xwuwqswbh5L8mdu0IRSJ-9tWWegFWxX8mHS_omjsNEon-DzS2loGE3ucul40AGjvzwz1K3nW_OmxFDBavnc4zewtsSuYXinuo3fRSE0m9r63-k1fjHl3kR6J-GFSk8CWDLU0e1RRLOdqecR5TGQ22FVXZ4sH07o5NssXC5pq5Gwxjt3LP9tgLlB9hEa8TC3nyNzp9mKLqmTNAnOk5ki9Uz5CmWZPP8UeDazgB0ywMZ9ZNx81QhXWLLZUuBO7ICjGbuT0JGPcZX26E5XaRo0CpsCX9Z6MDxVrhcqiU", "width": 4000}], "place_id": "ChIJZYl26nHbQw0R-aafUXhJVXU", "rating": 3.2, "reference": "ChIJZYl26nHbQw0R-aafUXhJVXU", "scope": "GOOGLE", "types": ["parking", "point_of_interest", "establishment"], "user_ratings_total": 5, "vicinity": "Q9HG+VM, Guadalix de la Sierra"}, {"business_status": "OPERATIONAL", "geometry": {"location": {"lat": 40.680575, "lng": -3.617679999999999}, "viewport": {"northeast": {"lat": 40.6817447802915, "lng": -3.616296319708497}, "southwest": {"lat": 40.6790468197085, "lng": -3.618994280291501}}}, "icon": "https://maps.gstatic.com/mapfiles/place_api/icons/v1/png_71/parking-71.png", "icon_background_color": "#7B9EB0", "icon_mask_base_uri": "https://maps.gstatic.com/mapfiles/place_api/icons/v2/parking_pinlet", "name": "Parking", "photos": [{"height": 948, "html_attributions": ["<a href=\"https://maps.google.com/maps/contrib/115055383090176917276\">Miguel angel Manzaneque gallego</a>"], "photo_reference": "AWn5SU7hTkQxyr9mV60pngB0E5TQFzyzWwXO24YlnWA5hpHx61TIJLT1E4-29vv41eiFEHZU1tCBDVSOnHx_snd8wi5o6aoriyMfaRlVdnOgfcDpl9udONRyZYNb1pYD95YFCsksQjiARrXOsFn9b4DOs9xwuxOpntlLlhkjVlfDNcrIUk4JSp8_kJALdOEee5Auw1mQUcKj9fr5RxDLu2h__UQTCz32JRzZuG-7NkzSreG8uj_3rPUj1RPMXVJbKaJ6EOPhWSRojLXvUqqyMe_OJh5m5HdRJgRxvpCRGWGiF3rMmVx3lnKVUrua7xB0RWfDPmeNFJa6skn1W7MDEQOE4o9r25yERQ9yeH2kXOlsNunlinWQnbI2jgIwbxcWkIse4G5l6kRFzJckdjFrUdiWMPo_0e_o2OTwk-eTEAz8sIJWyBDI1GScz8m7CHX1BseJ_hMb0lb86ljXANgLVxttHLUOulYqQQeY9d7QGeo3FLJAOiCn3Pym0la1nEIW6Z0Yj7DleY8weBcPWBEwSQszN7vazH6EzDfd7YZegtrSROAXEeGHXMEJyzxvAiuK9KlBx05HPfjso8PUV63CX8wX0Wly-bvIsIbZSQXmT_gifGAyFUR0k5470Ojf1InrZkKm_1AOiWcs50_rMabg13n7Yk5PQ1I", "width": 2048}], "place_id": "ChIJj-tV6aHRQw0RYCcYCAN6pEg", "plus_code": {"compound_code": "M9JJ+6W San Agustín del Guadalix, Spain", "global_code": "8CGRM9JJ+6W"}, "rating": 3.9, "reference": "ChIJj-tV6aHRQw0RYCcYCAN6pEg", "scope": "GOOGLE", "types": ["parking", "point_of_interest", "establishment"], "user_ratings_total": 17, "vicinity": "Calle Castilla y León, 24, San Agustín del Guadalix"}, {"business_status": "OPERATIONAL", "geometry": {"location": {"lat": 40.6802554, "lng": -3.6171275}, "viewport": {"northeast": {"lat": 40.6815770802915, "lng": -3.615779369708497}, "southwest": {"lat": 40.6788791197085, "lng": -3.618477330291502}}}, "icon": "https://maps.gstatic.com/mapfiles/place_api/icons/v1/png_71/parking-71.png", "icon_background_color": "#7B9EB0", "icon_mask_base_uri": "https://maps.gstatic.com/mapfiles/place_api/icons/v2/parking_pinlet", "name": "Aparcamiento de movilidad reducida", "photos": [{"height": 1184, "html_attributions": ["<a href=\"https://maps.google.com/maps/contrib/115055383090176917276\">Miguel angel Manzaneque gallego</a>"], "photo_reference": "AWn5SU55M6x6AWnwh1r2N8DTgehEacAGpyOgCUMSkl2gEQnsaFri1of_JKo4G8ME3rN4bIqoIx0vWHQpMRLU1ba_JH7LnrNA5CXx64QZS2Qct_X40X7Qlw6X4P2jnlUn8645g10yvfLnubbeGhII1zJoP3k7C6csio6F__WZnc6KhxdERAF6oM3kefiZibtx1krRR6_8mrjMwPOvQPXQdWZbW8dkOV8e1n5A4sCiS0YDta55cTP5BaI3rdtvNBwExCgKveg5LxH26P__DZhzFtjln1uocTOnsIy8yPhGWgnbgt90IwMli8DTvvoWHkOfl5ac7Pssy9LhgEdvUaNNizIAkD-jmLGhzOFIjbH3X0M4c6VWtOCn3DV0jbW28WKHuiriD0oaaZK6XesNb29NAl29CkWCrVzqKjnrDDzYLP8_amPz7_da9_TrYWoVu03Y2BZMCXKtoYiOa7NOQInA75jYU4vOErTy-3m74l1u_k0zKO8aWZwObWuLYr8yCvWk_-4-qQytN9T8xo2t9IF0Rwneg9OFSWsEU75OE9SGaScMtVtf-XOsdPMAyYeLRp0nimwd_jIuED_Fpw3GHWsCgkjnzouHtMxowYVCydbfh3It9yYX6F2uEeAFADXGPps40OrnNiiAAg", "width": 1539}], "place_id": "ChIJnVZ56EvRQw0RH6soKFnPNgQ", "plus_code": {"compound_code": "M9JM+44 San Agustín del Guadalix, Spain", "global_code": "8CGRM9JM+44"}, "reference": "ChIJnVZ56EvRQw0RH6soKFnPNgQ", "scope": "GOOGLE", "types": ["parking", "point_of_interest", "establishment"], "vicinity": "Calle de Julián Berrendero, 16, San Agustín del Guadalix"}, {"business_status": "OPERATIONAL", "geometry": {"location": {"lat": 40.6784811, "lng": -3.6156345}, "viewport": {"northeast": {"lat": 40.67984243029151, "lng": -3.614269369708498}, "southwest": {"lat": 40.67714446970851, "lng": -3.616967330291502}}}, "icon": "https://maps.gstatic.com/mapfiles/place_api/icons/v1/png_71/parking-71.png", "icon_background_color": "#7B9EB0", "icon_mask_base_uri": "https://maps.gstatic.com/mapfiles/place_api/icons/v2/parking_pinlet", "international_phone_number": "+34 918 43 57 02", "name": "Parking Restaurante Casa Juaneca", "photos": [{"height": 2976, "html_attributions": ["<a href=\"https://maps.google.com/maps/contrib/109485523394870586166\">Mariano Martín Álvarez</a>"], "photo_reference": "AWn5SU5SAcmWUs2KKrt5YNR6_nFUrN1KjX9AAnCQHNMf13rUFNMxc7WXSSjROdD9kMeaLt5PEro5UNVvYknrw_ccWMpS2JxvL76qPrCv-ejuNVq4tzaTBrHbNtKNZcL9HG9175fMRh_uTohYOdLQ00oUWx4vapVWlSJRi1srYfiKD0VDvsf64LjGDilPqIp-5zsR70areE2NJIOjhvFTyBHUHdPvhWiYXpuNKsusmCH0hYZOqGbaQeTKwkjZfmxRg881F2jXbjVlq86ZaNrHQ7KQExqVm48GgDLcd1P0hhUAEbOMsy39bd8wcYxYqSgUesDaZ6dqzT696fJakLzzMH8ekep67nzCT6qZlIwv4y4_qrnGCLnr-Q0ms0zoEdHWf8v6KOJ6JHql0AKvQzR6quT2n35BQ1aW2pcpoBhLQluLeud7VGCePvv57oh5JDs9F11cvGbqFjx_XHK45FwE5MZl3LvU1ptWvGbTh1ecYgpX_XJ1A4ZdVA3m6HSWs0Z2ZHqM1PmhQtQQvHi8eECz8lbtCAWZgoV1w16F1KR8Gc0-V5_evMoyD7WEC_LeCMud0Tp-DOxrhaWprRMbta9Iu-Ck9_RbME-HI0YUje-VfJhUXiKgYAB6Jbp8Uirsi6DXrmB3h4yLEg", "width": 3968}], "place_id": "ChIJA_TVNgDRQw0RpmXu3Ppl3D8", "plus_code": {"compound_code": "M9HM+9P San Agustín del Guadalix, Spain", "global_code": "8CGRM9HM+9P"}, "rating": 4, "reference": "ChIJA_TVNgDRQw0RpmXu3Ppl3D8", "scope": "GOOGLE", "types": ["parking", "point_of_interest", "establishment"], "user_ratings_total": 2, "vicinity": "Calle del Olivar, 4-8, San Agustín del Guadalix"}]