[{"geometry": {"location": {"lat": 40.395861, "lng": -3.4838312}, "viewport": {"northeast": {"lat": 40.42215833294959, "lng": -3.440607727043106}, "southwest": {"lat": 40.38346536747525, "lng": -3.495840436034218}}}, "icon": "https://maps.gstatic.com/mapfiles/place_api/icons/v1/png_71/geocode-71.png", "icon_background_color": "#7B9EB0", "icon_mask_base_uri": "https://maps.gstatic.com/mapfiles/place_api/icons/v2/generic_pinlet", "name": "Mejorada del Campo", "photos": [{"height": 433, "html_attributions": ["<a href=\"https://maps.google.com/maps/contrib/101128624263604710343\">Julio Bernabéu gonzalez</a>"], "photo_reference": "AWn5SU4jY33CJ03mAmlIy-IsHLO2yanFLIS3_YSsBd9TsLVxrViK3ykJ0zJ9W8NjEq2zlxchgsZM_rQRJOVOooZ8vtdWrq3z80fZ_OPorQjIuUdlN_XWPoT6pg1KHcBlguq9nADk54msce66QgY1rv1nLyElXoB2Wq7PmhLd0W1VZAqlk3zDywWkTkaEtNSwkqI6Aln5GDCWAg6jZPC0_usu8515FEgDdvr4-SdWEcdukt9kfRxhKzEbZlXrUoEiRcMPp575FlP5FbXJnL4Yrft5_NKZxT_4nlnmNHjAEA3vpZqzuom4rtI8BdSeJDFS3RlZ3SLttQGnEjyq0Z3a__3P4CUMlNRHyJdoa_OHppZphSta0Y0HWKlrwUBp76HQ-lA9klPEpb5BMy6Nk90X_uJCeekdGCFY4Qj0dTHOGAk528cA0-AUyhrhMn7pVaOwYHku9RtMFX-vaHVVFOoc6JuqoUxdNf2vN8GsBMAKFxI6W1x9jla6gQmL8yI_h_6rIxchXK7eVgZcSuanfGT7xZAERSb1tR7ti7esePG42C-MAIiUQaL1y6_dhCuByws-UUlJbgiAqiPfQP0SSUov8qgClxKRMou-QDeuuctbQb04ZpqSAf3hJfJsaYyiTHcIbHI4CvKigQ", "width": 675}], "place_id": "ChIJsVCg5ZM5Qg0R_Yiru5a3Sdo", "reference": "ChIJsVCg5ZM5Qg0R_Yiru5a3Sdo", "scope": "GOOGLE", "types": ["locality", "political"], "vicinity": "Mejorada del Campo"}, {"business_status": "OPERATIONAL", "geometry": {"location": {"lat": 40.3525631, "lng": -3.4772124}, "viewport": {"northeast": {"lat": 40.3537676802915, "lng": -3.475944369708498}, "southwest": {"lat": 40.3510697197085, "lng": -3.478642330291502}}}, "icon": "https://maps.gstatic.com/mapfiles/place_api/icons/v1/png_71/lodging-71.png", "icon_background_color": "#909CE1", "icon_mask_base_uri": "https://maps.gstatic.com/mapfiles/place_api/icons/v2/hotel_pinlet", "international_phone_number": "+34 916 60 76 49", "name": "Mirador", "opening_hours": {"open_now": false}, "photos": [{"height": 1298, "html_attributions": ["<a href=\"https://maps.google.com/maps/contrib/110503821739118379520\">HOSTAL MIRADOR DEL RIO S.L.</a>"], "photo_reference": "AWn5SU6ZXr7hLdBPM4Bupy84ec-2UEYR_lnZuzx2mxWUFqLxywAS-ujt2ipkEuUZZKsCGzWS8-v_eEf5uIMj-HoDps2z5BP0PnuW3ZVNgMauslf66ZW0oyxTOaqAnSRYxxjpfSGfwVKbbQxGRVZ00e-57rnAEe1HfS5em5N5rd33isT8_a3rZ_beCL6hfXi-ec0pyx_te90SPAc36kbsWbF_Dq0mBv6QURJIGcNtnoNt4CEIrcGCyXuVmsQIPaOsdrNCHfM2GIP58ue0G9rAuo0R0QKMMYJtIgLDW8zMNuI8bkm_uRs4tcZF87brMG7x5Q6_J82ufESxUkA", "width": 2163}], "place_id": "ChIJ2fKQITk5Qg0RUzbo_59l10o", "plus_code": {"compound_code": "9G3F+24 Velilla de San Antonio, Spain", "global_code": "8CGR9G3F+24"}, "rating": 3.8, "reference": "ChIJ2fKQITk5Qg0RUzbo_59l10o", "scope": "GOOGLE", "types": ["lodging", "point_of_interest", "establishment"], "user_ratings_total": 736, "vicinity": "Calle Ebanistas, 9, Velilla de San Antonio"}, {"business_status": "OPERATIONAL", "geometry": {"location": {"lat": 40.3647273, "lng": -3.4844936}, "viewport": {"northeast": {"lat": 40.3661258302915, "lng": -3.483095419708498}, "southwest": {"lat": 40.3634278697085, "lng": -3.485793380291502}}}, "icon": "https://maps.gstatic.com/mapfiles/place_api/icons/v1/png_71/lodging-71.png", "icon_background_color": "#909CE1", "icon_mask_base_uri": "https://maps.gstatic.com/mapfiles/place_api/icons/v2/hotel_pinlet", "international_phone_number": "+34 916 55 31 30", "name": "Velilla", "photos": [{"height": 4608, "html_attributions": ["<a href=\"https://maps.google.com/maps/contrib/103139475225331332102\">Reima Saukonoja</a>"], "photo_reference": "AWn5SU4TyTlQM3yRO4mgLFPBN-mp5dZQLQ2QGwdfXJOpwCO36LHD7QS0XY-XBJsHVF2yYwJjQc_608DE1Ned2k6V9qhwRkHN_WjZWN38O_yIWC7xx8c0tx8YS-TTjcO_FEb0nqIbyyiiYx6WN6QYaQJGtKJj3vX2pR8N38MLJ8owL9S2e7MP-eQuDo9Owd4SA7ssXy0im3umKF7sSwJB1LgnN1_RsPvVfzHdB0aiJM3HSIUk2B8_1y0Z6N-ijPlwvTvko2XZs8dYakpf-Xg6GTvLkVf2vqESL9hXepUhGYLp3HvlTomNniXNTPmCliJV8t1CBnOUVFGBJsjizXvrEp64llR3q5Ds--hunLi9yG8TOveALvyj9TlGsvVQLkZeyyTFC9VJhbVPinxeGZ1xIofzyE9-MatxrQLgr4Ntjg35bLP0OjDuE0LsmZwZQFVu1SVLEIwN-BaqCYE5UoF98C4MvpGcyv0mLII7lRiV45oEbJXTI6iZfN8Sh1MtfMEpAULznZs88eZ-COcnAFsKiec4Kc2fP2_YSTxePsjf8KQbNryvoUICW7JbqFzC4NkcPTJqRV4_gk57RRlzaNU3prXkwsQ3hzfV8gN9oIlkYQLtIVwNT-6eqtzXTAZ2jNlr16fadUtjdn-2", "width": 3456}], "place_id": "ChIJM7dzF2w5Qg0RzJb9e13op6c", "plus_code": {"compound_code": "9G78+V6 Velilla de San Antonio, Spain", "global_code": "8CGR9G78+V6"}, "rating": 3.9, "reference": "ChIJM7dzF2w5Qg0RzJb9e13op6c", "scope": "GOOGLE", "types": ["lodging", "point_of_interest", "establishment"], "user_ratings_total": 285, "vicinity": "Calle de Doctor Alcorta, 34, Velilla de San Antonio"}, {"business_status": "OPERATIONAL", "geometry": {"location": {"lat": 40.3841077, "lng": -3.4086156}, "viewport": {"northeast": {"lat": 40.3854565302915, "lng": -3.407320319708497}, "southwest": {"lat": 40.3827585697085, "lng": -3.410018280291501}}}, "icon": "https://maps.gstatic.com/mapfiles/place_api/icons/v1/png_71/bank-71.png", "icon_background_color": "#909CE1", "icon_mask_base_uri": "https://maps.gstatic.com/mapfiles/place_api/icons/v2/bank-intl_pinlet", "international_phone_number": "+34 918 86 22 02", "name": "BBVA", "opening_hours": {"open_now": false}, "photos": [{"height": 720, "html_attributions": ["<a href=\"https://maps.google.com/maps/contrib/107346531487481304707\">BBVA</a>"], "photo_reference": "AWn5SU4WuZN5VcyjaqEyIW8JierF6nspksRzmSRBsZ-ENf1gqD8TgTJKyPaY8Tfqd39sqNoinQ52S3nACqmAalJalMMJH7aePZaBIoZaeRpanZIOhh6Uka_kaffsCH15253suJtlIx8F2LXgXuPqBqtGDaEXcY6gezvA5TmzAGH-4pS20Rk_YZtsCxjxXOlFaglxJfRJpdSaCgSwgGn4O7jGfY3LiP9NXNgIlI_ea13qXa0LNKcUrYfjtmVjEEugH4xe1QuIewOQH3wJp8_nHTYrLhUB0qlOGYP1HMNYeJcpdSf9Xk2FQrhhPY4sCkdo-6Kpa_26QRZW794", "width": 1280}], "place_id": "ChIJ4fIy2pxHQg0RTCV0FehsGBU", "plus_code": {"compound_code": "9HMR+JH Loeches, Spain", "global_code": "8CGR9HMR+JH"}, "rating": 1.7, "reference": "ChIJ4fIy2pxHQg0RTCV0FehsGBU", "scope": "GOOGLE", "types": ["bank", "atm", "accounting", "finance", "point_of_interest", "establishment"], "user_ratings_total": 25, "vicinity": "Calle la Chorrera, 4, Loeches"}, {"business_status": "OPERATIONAL", "geometry": {"location": {"lat": 40.33820779999999, "lng": -3.380190099999999}, "viewport": {"northeast": {"lat": 40.33959298029149, "lng": -3.378854519708498}, "southwest": {"lat": 40.33689501970849, "lng": -3.381552480291502}}}, "icon": "https://maps.gstatic.com/mapfiles/place_api/icons/v1/png_71/bank-71.png", "icon_background_color": "#909CE1", "icon_mask_base_uri": "https://maps.gstatic.com/mapfiles/place_api/icons/v2/bank-intl_pinlet", "international_phone_number": "+34 918 76 54 37", "name": "BBVA", "opening_hours": {"open_now": false}, "photos": [{"height": 720, "html_attributions": ["<a href=\"https://maps.google.com/maps/contrib/111255528663521723100\">BBVA</a>"], "photo_reference": "AWn5SU7KcMr-eZgQyBwPeCfcMkZjaSbm1bmctPyObDiZ2xnMn9MnjHVHIc8FrAVMSJi68cP4MH8drDKahG7aKa3SxOafKMBpnp6WmRJaV3OrXMTUFTQZ-2489JDmsctPTMH56MIvy2L0seeN66ht63CXRYkPzywOYF6ePFzxqK8_H74M-7IUdmdtdwJQ4DL7yfC9A8D4D9nOqmprumIGswoZ2XQk5eIRTFMBmrRBt9Pd_7vrtCQ_HbDOLNaxBoLchNsQO0QJ9Z-6oYie6RO3aLlx9KEMxJc7BWdgHLApzy2qu8gSmniXg9UVyKi92JMAp0wEoXCIbF_z3fQ", "width": 1280}], "place_id": "ChIJPWnum9VAQg0RZBTcWiGJSOI", "plus_code": {"compound_code": "8JQ9+7W Campo Real, Spain", "global_code": "8CGR8JQ9+7W"}, "rating": 2.8, "reference": "ChIJPWnum9VAQg0RZBTcWiGJSOI", "scope": "GOOGLE", "types": ["bank", "atm", "accounting", "finance", "point_of_interest", "establishment"], "user_ratings_total": 16, "vicinity": "Carr. de, Carretera Villar del Olmo, 6, Campo Real"}, {"business_status": "OPERATIONAL", "geometry": {"location": {"lat": 40.3905495, "lng": -3.4830111}, "viewport": {"northeast": {"lat": 40.3918865302915, "lng": -3.482032919708498}, "southwest": {"lat": 40.3891885697085, "lng": -3.484730880291502}}}, "icon": "https://maps.gstatic.com/mapfiles/place_api/icons/v1/png_71/school-71.png", "icon_background_color": "#7B9EB0", "icon_mask_base_uri": "https://maps.gstatic.com/mapfiles/place_api/icons/v2/school_pinlet", "international_phone_number": "+34 916 79 25 51", "name": "Public School Europe", "opening_hours": {"open_now": false}, "place_id": "ChIJdX3U5pY5Qg0R0_iR_j-SXJg", "plus_code": {"compound_code": "9GR8+6Q Mejorada del Campo, Spain", "global_code": "8CGR9GR8+6Q"}, "reference": "ChIJdX3U5pY5Qg0R0_iR_j-SXJg", "scope": "GOOGLE", "types": ["school", "point_of_interest", "establishment"], "vicinity": "Avenida Juan Gris, 33, Mejorada del Campo"}, {"business_status": "OPERATIONAL", "geometry": {"location": {"lat": 40.40480179999999, "lng": -3.360356399999999}, "viewport": {"northeast": {"lat": 40.4061080302915, "lng": -3.359011569708498}, "southwest": {"lat": 40.4034100697085, "lng": -3.361709530291502}}}, "icon": "https://maps.gstatic.com/mapfiles/place_api/icons/v1/png_71/restaurant-71.png", "icon_background_color": "#FF9E67", "icon_mask_base_uri": "https://maps.gstatic.com/mapfiles/place_api/icons/v2/restaurant_pinlet", "international_phone_number": "+34 918 86 89 59", "name": "Restaurante La Taberna", "opening_hours": {"open_now": false}, "photos": [{"height": 3024, "html_attributions": ["<a href=\"https://maps.google.com/maps/contrib/112360238367312137722\">Restaurante La Taberna</a>"], "photo_reference": "AWn5SU6kuLuXHxpNm_hcwQyC-IMfhUy-05xi_04ZalFTOw08oEs20yzFMm18xAjIiPpmUfykvIilSoXTWQJ11IeSZcvV5rhxxBt-HWE1-hDTbvr9-YMILu53jNtMIdIdUQPY15kMM7rezq9gQmpAr27RUCP6l5w-3zTIRIFJYQ97YvXk1eFBDM5B7f6I7PbzT2cCzfnQ6RKGt9YZ6wR8zMpLFPyijVpc2CYHs-esmVivK1K2lpxTfvzkivnM1Rr2EkzmHs3GqH8gITdb_7nNZEhbR93hYu60I6pTAJaclYIiT8daTGZ2orBGMomMyVSw487QLN393Gm31ag", "width": 4032}], "place_id": "ChIJbTpCxD9GQg0RDmllW-KVrXo", "plus_code": {"compound_code": "CJ3Q+WV Torres de la Alameda, Spain", "global_code": "8CGRCJ3Q+WV"}, "price_level": 1, "rating": 4.5, "reference": "ChIJbTpCxD9GQg0RDmllW-KVrXo", "scope": "GOOGLE", "types": ["bar", "restaurant", "food", "point_of_interest", "establishment"], "user_ratings_total": 1155, "vicinity": "Calle de las Escuelas, 3, Torres de la Alameda"}, {"business_status": "OPERATIONAL", "geometry": {"location": {"lat": 40.33778469999999, "lng": -3.3832692}, "viewport": {"northeast": {"lat": 40.3391449802915, "lng": -3.381933569708498}, "southwest": {"lat": 40.3364470197085, "lng": -3.384631530291502}}}, "icon": "https://maps.gstatic.com/mapfiles/place_api/icons/v1/png_71/generic_business-71.png", "icon_background_color": "#7B9EB0", "icon_mask_base_uri": "https://maps.gstatic.com/mapfiles/place_api/icons/v2/generic_pinlet", "international_phone_number": "+34 918 73 35 67", "name": "Aceitunas Uceda SL", "opening_hours": {"open_now": false}, "photos": [{"height": 3024, "html_attributions": ["<a href=\"https://maps.google.com/maps/contrib/111563929695853725526\">Mariano González Gómez</a>"], "photo_reference": "AWn5SU5PsPsi4o8wv91dl6z9pHP5fNYUYEPmHnpWzg7KabbIKvRfJrqaH2Cw0hMTWPKhu3MpXbMrMsEnbnU79v5c3gCJq5GeGkiTGSx4Amxdfx_zI6Aad4QITJpwBQ7GfYgbQSdbsrUcPRTpGEFordf4VNBuPjGFYwcHoXKrtNtA8nkUJNS1A8DG6_PxQ1uFFwQB-H7zg3BtAtyNl5gnwsd0rJqlPA-J5xUqdexBQpz7wpb4tCwQ7gy0WtDTXbqvB7vpF_toUj8sekv6vQz39zWZFygWlgBqIrShKxmbqk0QE1HqGLUrJyaWg5AoROPVw3jQOE3gT1lf0AcZVwoLs5GsS1HuC5ZcsZrKlMzgbcXtu_byOgcxaT5XnQHmgbPqf6DHi75eN5hBDqb-6Q2Zd4h_ZpIyBUDZonwAZS5NT6jv0pF6aB_SaNxOlZ7Fw-2jbxhKT3TU6wDYZly16e3L8UByI5Gx0eZ7met2XxzXa0w9oErzp_i2jjf3A0iXTEl234yVSu8wgvWb_sKQOYi7gaPpmWJUyURjJrTWpUFeeBXy4rMPoCQQs9xiqt-nbp1jDeM76p_C-paUlbe33LsD82FpyYbHQFJnXmf6oudOwURlW8IKr4TLlfFuGHbbThnZqW8OkfTxmw", "width": 3024}], "place_id": "ChIJMW_9aNRAQg0RjPrzd60AXcc", "plus_code": {"compound_code": "8JQ8+4M Campo Real, Spain", "global_code": "8CGR8JQ8+4M"}, "rating": 4.9, "reference": "ChIJMW_9aNRAQg0RjPrzd60AXcc", "scope": "GOOGLE", "types": ["grocery_or_supermarket", "store", "food", "point_of_interest", "establishment"], "user_ratings_total": 17, "vicinity": "Calle Vilches, 19, Campo Real"}, {"business_status": "OPERATIONAL", "geometry": {"location": {"lat": 40.3893059, "lng": -3.483382999999999}, "viewport": {"northeast": {"lat": 40.3905986302915, "lng": -3.482032519708499}, "southwest": {"lat": 40.3879006697085, "lng": -3.484730480291502}}}, "icon": "https://maps.gstatic.com/mapfiles/place_api/icons/v1/png_71/generic_business-71.png", "icon_background_color": "#7B9EB0", "icon_mask_base_uri": "https://maps.gstatic.com/mapfiles/place_api/icons/v2/generic_pinlet", "international_phone_number": "+34 916 79 25 93", "name": "Cerrajería R. Morales", "opening_hours": {"open_now": false}, "photos": [{"height": 3168, "html_attributions": ["<a href=\"https://maps.google.com/maps/contrib/104727926600605245742\">Cerrajería R. Morales</a>"], "photo_reference": "AWn5SU4yzBvphLgGmPoOan1X-fGKlgNk8oKrE6M0u049EHa1gHr2hU8ZYeO-zIUQIMaqBT2Vo8g2eJk57HSrNBVH9oxv_2x0-FfHlrP6UwwNutdCTczAuwDpsxLNFQnBuyOTz8b-hYJgsK_Hec5smkbm0n2W2bWnWjV3haeNg6OiAJsA0yWwTVeSGjpXw6Fkxh4qtqLg82QP1Wy7orO5qsMGzobZKj_GYt745NiFpbH-UDxnwpZxjDItnpkb1tqYR_s0JPRqwxj-_HYq3Fn9UJdBtgUbWdH8ywne8Pogvo0B7MxsYUIt6DfaAZ5EBFAtaXWK6EtlOl0gl9k", "width": 4224}], "place_id": "ChIJiwLDw5k5Qg0RSoZi7hJ1UO0", "plus_code": {"compound_code": "9GQ8+PJ Mejorada del Campo, Spain", "global_code": "8CGR9GQ8+PJ"}, "rating": 5, "reference": "ChIJiwLDw5k5Qg0RSoZi7hJ1UO0", "scope": "GOOGLE", "types": ["point_of_interest", "establishment"], "user_ratings_total": 3, "vicinity": "Calle Castilla, 3, Nave 53, Mejorada del Campo"}, {"business_status": "OPERATIONAL", "geometry": {"location": {"lat": 40.4016786, "lng": -3.3623211}, "viewport": {"northeast": {"lat": 40.4030747802915, "lng": -3.360995769708498}, "southwest": {"lat": 40.4003768197085, "lng": -3.363693730291502}}}, "icon": "https://maps.gstatic.com/mapfiles/place_api/icons/v1/png_71/shopping-71.png", "icon_background_color": "#4B96F3", "icon_mask_base_uri": "https://maps.gstatic.com/mapfiles/place_api/icons/v2/shopping_pinlet", "international_phone_number": "+34 918 85 88 84", "name": "Ecoconsulting Tienda online", "opening_hours": {"open_now": false}, "photos": [{"height": 960, "html_attributions": ["<a href=\"https://maps.google.com/maps/contrib/104676415428649673565\">Ecoconsulting Tienda online</a>"], "photo_reference": "AWn5SU4oflPUpfH8PFxD2NjhhNPEiZ-aq0wSWx_RLNAx1s8GRelfNc7vmMltWQX7IkIx42Zrd2JOngV5YidIKmaTTMyUHprhu4gC6IRkx0S-bQgq6Rg7hlEHJrJH5bhywIhX8oPKoIzdMIE7_gncED73RhFUAWhft0O-nvk6SKf1G5kzU3DJBqJ5WdCDcBQOhMoxitJR5JnZ4xG6ZOco-njMpgs50xrPpiMM_B9APUvE8_uk7B1iytHe1toHHdNYHO6kAY-z-fE6EWCHVhBUdPFU5HPVKQg1BzWycOo-fHQWn7W5lO2UoN0y23D_yj9C5RaNIPnq2XQOMjQ", "width": 1280}], "place_id": "ChIJszpkk0BGQg0REj1JAhhiwE0", "plus_code": {"compound_code": "CJ2Q+M3 Torres de la Alameda, Spain", "global_code": "8CGRCJ2Q+M3"}, "rating": 4.8, "reference": "ChIJszpkk0BGQg0REj1JAhhiwE0", "scope": "GOOGLE", "types": ["store", "point_of_interest", "establishment"], "user_ratings_total": 6, "vicinity": "Calle Geranio, 19, Torres de la Alameda"}, {"business_status": "OPERATIONAL", "geometry": {"location": {"lat": 40.4040711, "lng": -3.3680489}, "viewport": {"northeast": {"lat": 40.40541063029149, "lng": -3.366757419708499}, "southwest": {"lat": 40.40271266970849, "lng": -3.369455380291503}}}, "icon": "https://maps.gstatic.com/mapfiles/place_api/icons/v1/png_71/generic_business-71.png", "icon_background_color": "#7B9EB0", "icon_mask_base_uri": "https://maps.gstatic.com/mapfiles/place_api/icons/v2/generic_pinlet", "international_phone_number": "+34 918 85 88 68", "name": "Residencia de Mayores La Alameda", "opening_hours": {"open_now": false}, "photos": [{"height": 4032, "html_attributions": ["<a href=\"https://maps.google.com/maps/contrib/113487683715120185627\">Residencia de Mayores La Alameda</a>"], "photo_reference": "AWn5SU6JQQLQLBk8mcNwL5h_nJ2gX2CZ1mHk0idU1SAlM8pQtYJoX77z_20o-HpAb2IwuOT1F9SMxUcKLrDx9xrOUlgy4hMTmacR5oyBx6PL1FGqhudp8aFkxIFQS2fwxQm39KtiP6McsvLT3UXlI2Jy8C-bzxsYwqNRXahOB3T811sBsH__MJ3zvwavsVBMibivowDNw5xtScFtfUhtCoI1WQhClmDMltK9YIeOD5hoDKGmyNMcw7evuh3d1DcTb-E3gj4teToiihlU8WSD3KsNPHJrjBAnj-Pf786BBIlmEF0hxLawZeyf2mj_WqtHx8BkQdhWOBtTrIU", "width": 3024}], "place_id": "ChIJPVQyPjhGQg0Ri1126xqgty8", "plus_code": {"compound_code": "CJ3J+JQ Torres de la Alameda, Spain", "global_code": "8CGRCJ3J+JQ"}, "rating": 4.3, "reference": "ChIJPVQyPjhGQg0Ri1126xqgty8", "scope": "GOOGLE", "types": ["health", "point_of_interest", "establishment"], "user_ratings_total": 145, "vicinity": "Calle Miguel de Unamuno, 43, Torres de la Alameda"}, {"business_status": "OPERATIONAL", "geometry": {"location": {"lat": 40.4009007, "lng": -3.4052628}, "viewport": {"northeast": {"lat": 40.4022406802915, "lng": -3.404057719708498}, "southwest": {"lat": 40.3995427197085, "lng": -3.406755680291502}}}, "icon": "https://maps.gstatic.com/mapfiles/place_api/icons/v1/png_71/generic_business-71.png", "icon_background_color": "#7B9EB0", "icon_mask_base_uri": "https://maps.gstatic.com/mapfiles/place_api/icons/v2/generic_pinlet", "international_phone_number": "+34 918 86 74 24", "name": "Oscylight", "opening_hours": {"open_now": false}, "photos": [{"height": 2448, "html_attributions": ["<a href=\"https://maps.google.com/maps/contrib/110998196353453023421\">sebastiano di carlo</a>"], "photo_reference": "AWn5SU6v9Yhm5uBIuoO_EalDTSkiI5xk3zUzU9S10LsU9p5LOXD4bXf8eRNMra3NTC4wKZY4Nv0qqccjrT1SAKc7CPfyUTvbXcohR50UpWVOh1z_glohypt2xH_Zuzh5gh9py9P1Lb9OsRNkjLB1KramlrwI6k3Pf120XEnJOlbI6WbtJcvKmYzo-_q8hRv4nNbTU-JBQZ8RY0r0wMBARfAQZC7EC9NQzvaD7W6FuEa4ww1q4i-L3bVRp7Fhn5nGy0JwY3aw9n-NJZXz7C8OPd1WkPsNOZAVtechFoiX2WludVPB6rO5iBv2rd7qwaRtYTWlhG-ezCG1oHIL3rZVPyJUwPCN5-cebKIBnw9Mds9dkBmnMvjzccyQRDzuNinVhsoJjm-48-g23W56d_6wDE5XC3eElXj0e7Q1t4gbrkVBz70jsm58_wdCpUjzRtjt7mCx96ImS8djZuI70UjGab-NU8ZQvv9ELh1_Iv8zijwIsFBqizl309r51lWfnVrqR_oT4wuuFO4d89Sp7LWo9KCdWnhMagVBLQPykG2OawSDT7WDwL9OboB8liEroazNaGw-m4puK3vcflrmdEPAD7Gi9ACdDEcZhz6Zn8X_ObLlM7-4GRk9YQdpdnMarCEod3T-_T9E8g", "width": 3264}], "place_id": "ChIJzxggRJNHQg0RPvL-33J5GI0", "plus_code": {"compound_code": "CH2V+9V Loeches, Spain", "global_code": "8CGRCH2V+9V"}, "rating": 4.8, "reference": "ChIJzxggRJNHQg0RPvL-33J5GI0", "scope": "GOOGLE", "types": ["movie_theater", "store", "point_of_interest", "establishment"], "user_ratings_total": 14, "vicinity": "Calle Plomo, polígono, nave 59, Loeches"}, {"business_status": "OPERATIONAL", "geometry": {"location": {"lat": 40.39288859999999, "lng": -3.4110393}, "viewport": {"northeast": {"lat": 40.3940959302915, "lng": -3.409998669708498}, "southwest": {"lat": 40.3913979697085, "lng": -3.412696630291502}}}, "icon": "https://maps.gstatic.com/mapfiles/place_api/icons/v1/png_71/generic_business-71.png", "icon_background_color": "#7B9EB0", "icon_mask_base_uri": "https://maps.gstatic.com/mapfiles/place_api/icons/v2/generic_pinlet", "international_phone_number": "+34 607 61 71 57", "name": "Maderas Irenoe", "opening_hours": {"open_now": false}, "photos": [{"height": 2988, "html_attributions": ["<a href=\"https://maps.google.com/maps/contrib/105224993766853847267\">miguel angel camarena</a>"], "photo_reference": "AWn5SU6k-8nrwMcsH-ISTAgED288zBmgO9-oc6Vcu3sRatmmgL4Pt2YXsSsZ7uufpE5ah7xzLeYSuuNQp-HEWNbjvYC7oZdkpZgxODGtA0DmkOzy36fHoXw_wfVDFnxqxC9roTQc1NAFGN659m6U0UTBVMBVuudY1oLPI44q9-u6816yLE1f41X0JCi3KwgUDOeo8AiPCgzRVZ8s13g6ltB8AiPeGCqj5UqDNWnLPHWaCw20Au0_fy7WWVfJ39FGsyBQJti9OYCUH9yf696QK1lp7EC_buNT7A0W1D0H0k5CXVjdMfbadkr_y0O_QgIZhmlrD0X_RMw88WeI3Sthx-qkSDSIJPgQsJB-lwdKtbYgm4TpZdVy7j_Tt_ZVp8TdzXrqLKG9QzrLUFQfE7U6ZGhTacvMVjg7zTij_3juh_PJwJedyliOmKBMCWf8ZHGYnqueKcLu0jr0aZNv0gP013RANN5tzLfHgimx03z5tN0lVUjZH2NK9fLVtzCqFg-GvOneL-UeN7ILNkxoLH-bTv6gNqIrYp8gtdY9FXcZrTVPiqGsPiqmka_nrs03NVKwxf59iodYi5f_EAjNbpjnsBEx2dhRpwAVYN2wFBFTVs3Di30XpfBG1I11btKCQZ43pLRsfLkLIA", "width": 5312}], "place_id": "ChIJW7D-Xn9HQg0RB9jt_31obmA", "plus_code": {"compound_code": "9HVQ+5H Loeches, Spain", "global_code": "8CGR9HVQ+5H"}, "rating": 5, "reference": "ChIJW7D-Xn9HQg0RB9jt_31obmA", "scope": "GOOGLE", "types": ["point_of_interest", "establishment"], "user_ratings_total": 2, "vicinity": "Polígono Industrial el Caballo, Parcela, 72, Nave 7, 28890"}, {"business_status": "OPERATIONAL", "geometry": {"location": {"lat": 40.4004604, "lng": -3.4149232}, "viewport": {"northeast": {"lat": 40.4018750802915, "lng": -3.413582869708498}, "southwest": {"lat": 40.3991771197085, "lng": -3.416280830291502}}}, "icon": "https://maps.gstatic.com/mapfiles/place_api/icons/v1/png_71/restaurant-71.png", "icon_background_color": "#FF9E67", "icon_mask_base_uri": "https://maps.gstatic.com/mapfiles/place_api/icons/v2/restaurant_pinlet", "international_phone_number": "+34 918 86 22 50", "name": "Restaurante El Rincón de Loeches", "opening_hours": {"open_now": false}, "photos": [{"height": 2592, "html_attributions": ["<a href=\"https://maps.google.com/maps/contrib/109242924458097838679\">Daniel Ballesteros</a>"], "photo_reference": "AWn5SU5v2VnH_C1ZgCZHpm8A9ye-mx7VdkbxINkGphO0OVRRAKMBsVIKWCk-CxG7wptlrA8_AtdrlKuLubYR35yeM6D0C_IdGvis9vAW0CrRzuuGoy7QSlVLtb8m7wZ00sPYX8DgVRsSm7IUa5uMtA0imVWP-JkG9-ARn0Bkj2LszoWnQY76GkRcDsNAQkGwuDAeH8P4mMCiC0iDnBJOS46iSK9PztMP5sNqhK8wEG_tMMbGOkcoQjweJqn2kK9RTv1uc-knIGlX7AW39YDkpnT7sHduNPOdXHEL8QLdGFMn9baEEQS-0Cg65CdbHn4mY3Ppv06SMUrpgL8Xvvn-Zj0KE_BjWggIJQS2SmKVU9PcXLbFpDxqbvnU4a7DtIIF-PLaFqxA6KHkBJdzKNMi_ad_ofF7tOUczBqqw93nsw6fP44LoaIZ55LEfsUzsOLMBF6EvqNoHLPOXYgsS_VMAP3bkGyT3M0DTwba1NWT1wyClXgHFncpT1H3Csq148taAfApOC3NKBUvuKCSQxlYTPQRWLznaq_a3_b6s_zeE6rPkIAuxiB08P-3JrZL0jgvs028eWZu6ryg8jiwnMHR2MUwhLQAqeykjf8ID4K1X8B5fOb9p4KGKla4V5porARwU3du", "width": 4608}], "place_id": "ChIJCWbmW4tHQg0ReiXhWJ9rulU", "plus_code": {"compound_code": "CH2P+52 Loeches, Spain", "global_code": "8CGRCH2P+52"}, "price_level": 2, "rating": 4.3, "reference": "ChIJCWbmW4tHQg0ReiXhWJ9rulU", "scope": "GOOGLE", "types": ["restaurant", "food", "point_of_interest", "establishment"], "user_ratings_total": 172, "vicinity": "Calle Sanglas, 10, Loeches"}, {"business_status": "OPERATIONAL", "geometry": {"location": {"lat": 40.3826193, "lng": -3.4090944}, "viewport": {"northeast": {"lat": 40.3839639302915, "lng": -3.407735619708498}, "southwest": {"lat": 40.3812659697085, "lng": -3.410433580291502}}}, "icon": "https://maps.gstatic.com/mapfiles/place_api/icons/v1/png_71/shopping-71.png", "icon_background_color": "#4B96F3", "icon_mask_base_uri": "https://maps.gstatic.com/mapfiles/place_api/icons/v2/shopping_pinlet", "international_phone_number": "+34 918 86 71 80", "name": "Carpintería Hierro y Aluminio Camacho", "opening_hours": {"open_now": false}, "photos": [{"height": 896, "html_attributions": ["<a href=\"https://maps.google.com/maps/contrib/114698779126682003726\">Carpintería Hierro y Aluminio Camacho</a>"], "photo_reference": "AWn5SU78O5DatUkDpttahK0UJ3XX4UWS__4cLepsPUa2lxxZxjQ6_wIN3iOLWmLB7m6vfA3Qe-KkrN_X84_y8TOYq2d64n1e_HUE2ylO5tl23PHM6vidfRLUPH93WGIgJlxtVqVY9BsgW4EVdYe0AHQ_odyUkl0N3fGwFy_B03h3ISLuaor5jEffzt6XVgr4oPqT3bD5YaXKWscsnKatAK8WsGxGXJP58Hm26bAd3ydRIjx2P3Pxbpa2Xo2iTV_jqBn01aSREUfXCgiAtL-K3_cMtDZUU0J3jiy6DM5YBfbYe_yJenV5LREZEFh4o_e_1aB2qIldnzZmwK8", "width": 1606}], "place_id": "ChIJZ1zMTp1HQg0RlCAmXF46Mbs", "plus_code": {"compound_code": "9HMR+29 Loeches, Spain", "global_code": "8CGR9HMR+29"}, "rating": 4.3, "reference": "ChIJZ1zMTp1HQg0RlCAmXF46Mbs", "scope": "GOOGLE", "types": ["store", "point_of_interest", "establishment"], "user_ratings_total": 72, "vicinity": "Calle Carreteros, 12, Loeches"}, {"business_status": "OPERATIONAL", "geometry": {"location": {"lat": 40.40079539999999, "lng": -3.4142145}, "viewport": {"northeast": {"lat": 40.40215433029149, "lng": -3.412924619708498}, "southwest": {"lat": 40.3994563697085, "lng": -3.415622580291502}}}, "icon": "https://maps.gstatic.com/mapfiles/place_api/icons/v1/png_71/generic_business-71.png", "icon_background_color": "#7B9EB0", "icon_mask_base_uri": "https://maps.gstatic.com/mapfiles/place_api/icons/v2/generic_pinlet", "international_phone_number": "+34 918 86 25 37", "name": "Mingorance - Taller mecánico de automóviles e impresión digital en Loeches.", "opening_hours": {"open_now": false}, "place_id": "ChIJuQ9-zppHQg0R3gshAORvxcI", "plus_code": {"compound_code": "CH2P+88 Loeches, Spain", "global_code": "8CGRCH2P+88"}, "rating": 4.4, "reference": "ChIJuQ9-zppHQg0R3gshAORvxcI", "scope": "GOOGLE", "types": ["car_repair", "store", "point_of_interest", "establishment"], "user_ratings_total": 52, "vicinity": "Polígono Industrial Prado Concejil, Calle Ossa, Nº 10"}, {"business_status": "OPERATIONAL", "geometry": {"location": {"lat": 40.3947103, "lng": -3.4124778}, "viewport": {"northeast": {"lat": 40.39615858029149, "lng": -3.411200969708498}, "southwest": {"lat": 40.3934606197085, "lng": -3.413898930291502}}}, "icon": "https://maps.gstatic.com/mapfiles/place_api/icons/v1/png_71/generic_business-71.png", "icon_background_color": "#7B9EB0", "icon_mask_base_uri": "https://maps.gstatic.com/mapfiles/place_api/icons/v2/generic_pinlet", "international_phone_number": "+34 918 85 17 20", "name": "Molicen S.L.", "opening_hours": {"open_now": false}, "photos": [{"height": 263, "html_attributions": ["<a href=\"https://maps.google.com/maps/contrib/112339550104387040207\">Juan Carlos Fernandez</a>"], "photo_reference": "AWn5SU4dP9jfa-fd_pXuI_saLxQKDNBQZuep8Ld_vzObhLKbGME9zmzDJsMOxUy2Aoz-KqbNIULH_vEFhV-8g2YIxBQ-1JTRT4p7Y-a5FfL1W928rCnSfBpq4Atqgt_6wSj4XatGqX_NrBq7tTVz4sywWDIQDk00QuBwdUWePYHAg1PK57tvFp5DjGNiC3R0N4K6yckveqdynLtoL-ecnreqMfSun2cuwbnEUUGFcl-nvl5uVu7EPyj7-z67ZwtOLw1LwM_IJtZ5rhAVr6qzxFFfrkdPLhvmLzwm6enelqP7YIwN9uKWux-csO6ehy1szUZZslyOEAhj8jMl1ZyuGZMdpEimTSlmlg7MwnJ-dpeHjdGVuMHNL0Z5VyKBbNFAYzueEShU15RYANp67Iv2ts0kDn_IUD9ZuSr4K8TMwpCOFi3GOlPrFw20B6z2ItcPlHZQ8W0u6E59P6vsoDyCVHuDEtQeUlAVZ8Wla1LDVb1CzZrMenENmSrniwXBI4efQ8kxmwarnn1Iu_kWRKMp_pMx-ERjtWnGDa1RXlH5wE3Bn3LYb5n_rlPTTu3FxGtEYaUbwiaupayRRPbKDWPV-4VwDb7en0-X-DjDddZ-urCZoiu60MTBzTDk7DJKR522nnlXnyV-qwhC", "width": 350}], "place_id": "ChIJO3zc_ItHQg0RS3oKMVoKB9Q", "plus_code": {"compound_code": "9HVQ+V2 Loeches, Spain", "global_code": "8CGR9HVQ+V2"}, "reference": "ChIJO3zc_ItHQg0RS3oKMVoKB9Q", "scope": "GOOGLE", "types": ["point_of_interest", "establishment"], "vicinity": "Polígono Ind. El Caballo, Loeches"}, {"business_status": "OPERATIONAL", "geometry": {"location": {"lat": 40.382202, "lng": -3.4112619}, "viewport": {"northeast": {"lat": 40.38353943029151, "lng": -3.409887169708498}, "southwest": {"lat": 40.38084146970851, "lng": -3.412585130291502}}}, "icon": "https://maps.gstatic.com/mapfiles/place_api/icons/v1/png_71/generic_business-71.png", "icon_background_color": "#7B9EB0", "icon_mask_base_uri": "https://maps.gstatic.com/mapfiles/place_api/icons/v2/generic_pinlet", "international_phone_number": "+34 918 85 14 13", "name": "MAPFRE", "opening_hours": {"open_now": false}, "photos": [{"height": 2541, "html_attributions": ["<a href=\"https://maps.google.com/maps/contrib/111186530198671076379\">MAPFRE</a>"], "photo_reference": "AWn5SU745fNFRS1qNZ0oc1ubtgX7PD43A-Fs9oXaimvThLNZE6GMrTu6SL2X19U0wnSvhaa_X-S6QCb2ISijOGDZ089vFVYfkS1mzeMmReA3739D6bhI4zIBNN0Iul0lYsZC8QutRe2dFoioegOuv9zEhItM7P2M2dpiuUIpK9GUEWaaXg01pNfLAD6cwTvUAk8_1onCv86IcZxsrZZOYUQhpFqUUNS7x4Q5K2cBxZRO7fQGACiWoiYbATxC0t5bUqyvDCeT9OJJ9SzYZlvVHgEM-JGtoZjagfhG6JjSna0V9qrxAWYEfOYNUPAxKuDp4e5KimLqzaHy-GM", "width": 3812}], "place_id": "ChIJCUNUkoJHQg0RggJEbGV1Z5w", "plus_code": {"compound_code": "9HJQ+VF Loeches, Spain", "global_code": "8CGR9HJQ+VF"}, "rating": 4.6, "reference": "ChIJCUNUkoJHQg0RggJEbGV1Z5w", "scope": "GOOGLE", "types": ["insurance_agency", "accounting", "finance", "health", "point_of_interest", "establishment"], "user_ratings_total": 9, "vicinity": "La, Calle la Estrella, 2, Loeches"}, {"business_status": "OPERATIONAL", "geometry": {"location": {"lat": 40.4014586, "lng": -3.405518599999999}, "viewport": {"northeast": {"lat": 40.40279838029149, "lng": -3.404111869708498}, "southwest": {"lat": 40.40010041970849, "lng": -3.406809830291502}}}, "icon": "https://maps.gstatic.com/mapfiles/place_api/icons/v1/png_71/generic_business-71.png", "icon_background_color": "#7B9EB0", "icon_mask_base_uri": "https://maps.gstatic.com/mapfiles/place_api/icons/v2/generic_pinlet", "international_phone_number": "+34 918 86 21 61", "name": "Motociclismo Clásico - Moto Clásica", "place_id": "ChIJnfleSpNHQg0R5ZlaWXi0U1w", "plus_code": {"compound_code": "CH2V+HQ Loeches, Spain", "global_code": "8CGRCH2V+HQ"}, "rating": 5, "reference": "ChIJnfleSpNHQg0R5ZlaWXi0U1w", "scope": "GOOGLE", "types": ["point_of_interest", "establishment"], "user_ratings_total": 1, "vicinity": "Calle Cobre, 86, Loeches"}, {"geometry": {"location": {"lat": 40.38348209999999, "lng": -3.4170301}, "viewport": {"northeast": {"lat": 40.39516617466114, "lng": -3.407185892439179}, "southwest": {"lat": 40.37528046683276, "lng": -3.432718435910312}}}, "icon": "https://maps.gstatic.com/mapfiles/place_api/icons/v1/png_71/geocode-71.png", "icon_background_color": "#7B9EB0", "icon_mask_base_uri": "https://maps.gstatic.com/mapfiles/place_api/icons/v2/generic_pinlet", "name": "Loeches", "photos": [{"height": 1440, "html_attributions": ["<a href=\"https://maps.google.com/maps/contrib/115313481566348847409\">Princess Nohay</a>"], "photo_reference": "AWn5SU73_qHZNh18QUqgM45kfR5VxKdutIBOIqXzp6VhhzzX3PnldFe5wYIh6kErWcIBtZJfxU-U1ocnoWDLLsCjDT1iDnPN93FfaUTmLCGUVja_rj3vTUg3W8-ew2328ysAeohWW_quvKp4pvnfy1Q7rQk3TVWq04bEBoA1Eh6ieYQR3odtWvVmD-yZ4yqxVg20F1ZmJDdZa-HmqUkcOiJc-LHOD-pwj6NvVckKxhrBLokYkwg__R8P3BiTIkXb5dO5yyy-_wk51TdgCmvLlzIpsXQRvPUfKpQrwOjpd80R9Amtg7fl9Gp8R69HeCbjaXCkzi6efzqRzr0RA15MzzVdIqljZfiAsAE5k16P4pskkKE5KqTfFfUsdqRQONcacKYGmrNvgbcIoaskx1c7rodhrK-wCEye-ruiNBbeGjjuoT14ISNc_mhXsnFytZqvHRR0Ms43M4fp4JCc3jQyA6Cd4GbhjZMnC5TAW0PCgHV7HO2jBxuZeFCrywWhk9IlVDiLaaeqt7Y8yyxhcvpFTPaMowdULd-HoImRN4DtRz_3Z_OuTOx9dOaAUHcLmX3M2AbWvRtBXzC1IMZ3YnL-b9coy7zqCPVg4TSaYCLRndwyjUehXOAKGBTyOwzGOYt92O1utNKKA_pZ", "width": 3200}], "place_id": "ChIJ5fVwX4JHQg0R4dbDLSg_r-c", "reference": "ChIJ5fVwX4JHQg0R4dbDLSg_r-c", "scope": "GOOGLE", "types": ["locality", "political"], "vicinity": "Loeches"}]