[{"business_status": "OPERATIONAL", "geometry": {"location": {"lat": 40.1598726, "lng": -3.6105487}, "viewport": {"northeast": {"lat": 40.1612055802915, "lng": -3.609202619708498}, "southwest": {"lat": 40.1585076197085, "lng": -3.611900580291503}}}, "icon": "https://maps.gstatic.com/mapfiles/place_api/icons/v1/png_71/parking-71.png", "icon_background_color": "#7B9EB0", "icon_mask_base_uri": "https://maps.gstatic.com/mapfiles/place_api/icons/v2/parking_pinlet", "name": "Parking Cercanías", "place_id": "ChIJt6igz00bQg0RM4EC58SOi7c", "plus_code": {"compound_code": "595Q+WQ Ciempozuelos, Spain", "global_code": "8CGR595Q+WQ"}, "rating": 2.5, "reference": "ChIJt6igz00bQg0RM4EC58SOi7c", "scope": "GOOGLE", "types": ["parking", "point_of_interest", "establishment"], "user_ratings_total": 2, "vicinity": "Unnamed Road, 28350, Ciempozuelos"}, {"business_status": "OPERATIONAL", "geometry": {"location": {"lat": 40.159291, "lng": -3.6102446}, "viewport": {"northeast": {"lat": 40.16063253029149, "lng": -3.608929019708497}, "southwest": {"lat": 40.15793456970849, "lng": -3.611626980291502}}}, "icon": "https://maps.gstatic.com/mapfiles/place_api/icons/v1/png_71/parking-71.png", "icon_background_color": "#7B9EB0", "icon_mask_base_uri": "https://maps.gstatic.com/mapfiles/place_api/icons/v2/parking_pinlet", "name": "Aparcamiento movilidad reducida", "place_id": "ChIJsz8Mw5kbQg0RRkyzEOtXmrw", "plus_code": {"compound_code": "595Q+PW Ciempozuelos, Spain", "global_code": "8CGR595Q+PW"}, "reference": "ChIJsz8Mw5kbQg0RRkyzEOtXmrw", "scope": "GOOGLE", "types": ["parking", "point_of_interest", "establishment"], "vicinity": "Ciempozuelos"}, {"business_status": "OPERATIONAL", "geometry": {"location": {"lat": 40.16604399999999, "lng": -3.6287016}, "viewport": {"northeast": {"lat": 40.1673053302915, "lng": -3.627715919708498}, "southwest": {"lat": 40.1646073697085, "lng": -3.630413880291502}}}, "icon": "https://maps.gstatic.com/mapfiles/place_api/icons/v1/png_71/parking-71.png", "icon_background_color": "#7B9EB0", "icon_mask_base_uri": "https://maps.gstatic.com/mapfiles/place_api/icons/v2/parking_pinlet", "name": "Parking. ALCAMPO", "opening_hours": {"open_now": false}, "place_id": "ChIJufL4E_gbQg0RLLB7rI1N_8c", "plus_code": {"compound_code": "598C+CG Ciempozuelos, Spain", "global_code": "8CGR598C+CG"}, "reference": "ChIJufL4E_gbQg0RLLB7rI1N_8c", "scope": "GOOGLE", "types": ["parking", "point_of_interest", "establishment"], "vicinity": "Ciempozuelos"}, {"business_status": "OPERATIONAL", "geometry": {"location": {"lat": 40.1659118, "lng": -3.6297014}, "viewport": {"northeast": {"lat": 40.1672286302915, "lng": -3.628326719708497}, "southwest": {"lat": 40.1645306697085, "lng": -3.631024680291501}}}, "icon": "https://maps.gstatic.com/mapfiles/place_api/icons/v1/png_71/parking-71.png", "icon_background_color": "#7B9EB0", "icon_mask_base_uri": "https://maps.gstatic.com/mapfiles/place_api/icons/v2/parking_pinlet", "name": "Aparcamiento de movilidad reducida", "place_id": "ChIJSU-f-IUbQg0RjS7USiEqdWc", "plus_code": {"compound_code": "598C+94 Ciempozuelos, Spain", "global_code": "8CGR598C+94"}, "reference": "ChIJSU-f-IUbQg0RjS7USiEqdWc", "scope": "GOOGLE", "types": ["parking", "point_of_interest", "establishment"], "vicinity": "Calle Cedro, 3, Ciempozuelos"}, {"business_status": "OPERATIONAL", "geometry": {"location": {"lat": 40.1687, "lng": -3.62588}, "viewport": {"northeast": {"lat": 40.1698704302915, "lng": -3.624461769708498}, "southwest": {"lat": 40.1671724697085, "lng": -3.627159730291502}}}, "icon": "https://maps.gstatic.com/mapfiles/place_api/icons/v1/png_71/parking-71.png", "icon_background_color": "#7B9EB0", "icon_mask_base_uri": "https://maps.gstatic.com/mapfiles/place_api/icons/v2/parking_pinlet", "international_phone_number": "+34 626 07 19 79", "name": "Parking Camiones", "opening_hours": {"open_now": true}, "photos": [{"height": 3060, "html_attributions": ["<a href=\"https://maps.google.com/maps/contrib/100909114870896117475\">Robert Adamczyk</a>"], "photo_reference": "AWn5SU6VZYd1bks0ZDuNezSG9MT9aYTnCr1PUZoDtd3E80eQ8qUPG0P2SAJfcsE4j5QxJF9glS3w4zUsEF-cNeOyj08r5Z6fopc3RWQ2Xf-TMxWqN-EWzJRKCDP0maACLL6CIdDyLDcunkfjCkyOBkDCBtS06SZU-DHUe8PhgQc_3suPOmFG7-hF5CRuZ9H2eCl2bqYfU46IPvbtJbmaG8K-C3bYRuKbYGiZaAmT8AjGhKeqAGPNxfO8i_3QAwNtfh8u4XiubS-UcEvjE1GGUBusJ20H94QaLtPnuwDUR4QrAOMA0jmmskLngpUWn6b4Lx9nAGwa8r57q0kTV1vz4TkpLSEM4Yilww15M5Y2WDtRyG6guCnATz1QPXehwSYwBBCCIovKR46WfT03RT_306IZRBjVX9B4dnUcLgTpBwRPahsIQM877kXiTX0l7odSsgZB8-X-WscYRucPqduNyf9VQoCCJi7qmZ5Q-lh_VAKFqhJVfP6orf1pHOA8uVK-sIQ8Ip8BgOlpFYUO4jqCn1_XXuz1gR96ZXawUUQArFogUxI6agPnO_ZlpiORgs-OMNcFL1l38_pAyWChWdzK-pvNUy40ypdeFIJ9GC6_RLIlvmXgmyiU7Ch7udi8M_0_2vBKfVBkAYrIc7pMmuo9BpFSyqBRLok", "width": 4080}], "place_id": "ChIJl6DoYuAbQg0RhBMqa32EfPY", "plus_code": {"compound_code": "599F+FJ Ciempozuelos, Spain", "global_code": "8CGR599F+FJ"}, "rating": 4.8, "reference": "ChIJl6DoYuAbQg0RhBMqa32EfPY", "scope": "GOOGLE", "types": ["parking", "point_of_interest", "establishment"], "user_ratings_total": 109, "vicinity": "Calle Sector 19, 2P, Madrid"}, {"business_status": "OPERATIONAL", "geometry": {"location": {"lat": 40.1656789, "lng": -3.6317771}, "viewport": {"northeast": {"lat": 40.1668843302915, "lng": -3.630464469708498}, "southwest": {"lat": 40.1641863697085, "lng": -3.633162430291502}}}, "icon": "https://maps.gstatic.com/mapfiles/place_api/icons/v1/png_71/parking-71.png", "icon_background_color": "#7B9EB0", "icon_mask_base_uri": "https://maps.gstatic.com/mapfiles/place_api/icons/v2/parking_pinlet", "name": "Aparcamiento de movilidad reducida ALDI", "place_id": "ChIJVwArCAAbQg0RvSC9M2JJU_o", "plus_code": {"compound_code": "5989+77 Ciempozuelos, Spain", "global_code": "8CGR5989+77"}, "reference": "ChIJVwArCAAbQg0RvSC9M2JJU_o", "scope": "GOOGLE", "types": ["parking", "point_of_interest", "establishment"], "vicinity": "Terreno Sector S-1, 37P, Ciempozuelos"}, {"business_status": "OPERATIONAL", "geometry": {"location": {"lat": 40.16576679999999, "lng": -3.6317636}, "viewport": {"northeast": {"lat": 40.16742568029149, "lng": -3.630404019708498}, "southwest": {"lat": 40.16472771970849, "lng": -3.633101980291503}}}, "icon": "https://maps.gstatic.com/mapfiles/place_api/icons/v1/png_71/parking-71.png", "icon_background_color": "#7B9EB0", "icon_mask_base_uri": "https://maps.gstatic.com/mapfiles/place_api/icons/v2/parking_pinlet", "name": "Parking carga eléctrica", "place_id": "ChIJqUbqZAAbQg0RmoL7WVrcX7k", "plus_code": {"compound_code": "5989+87 Ciempozuelos, Spain", "global_code": "8CGR5989+87"}, "reference": "ChIJqUbqZAAbQg0RmoL7WVrcX7k", "scope": "GOOGLE", "types": ["parking", "point_of_interest", "establishment"], "vicinity": "Calle Cedro, 9, Ciempozuelos"}, {"business_status": "OPERATIONAL", "geometry": {"location": {"lat": 40.1656766, "lng": -3.631875}, "viewport": {"northeast": {"lat": 40.16687968029149, "lng": -3.630474069708498}, "southwest": {"lat": 40.16418171970849, "lng": -3.633172030291502}}}, "icon": "https://maps.gstatic.com/mapfiles/place_api/icons/v1/png_71/parking-71.png", "icon_background_color": "#7B9EB0", "icon_mask_base_uri": "https://maps.gstatic.com/mapfiles/place_api/icons/v2/parking_pinlet", "name": "Aparcamiento Discapacitados", "place_id": "ChIJrUBZ4REbQg0RMj_lJ6VkWjo", "plus_code": {"compound_code": "5989+76 Ciempozuelos, Spain", "global_code": "8CGR5989+76"}, "reference": "ChIJrUBZ4REbQg0RMj_lJ6VkWjo", "scope": "GOOGLE", "types": ["parking", "point_of_interest", "establishment"], "vicinity": "Calle Cedro, 9, Ciempozuelos"}, {"business_status": "OPERATIONAL", "geometry": {"location": {"lat": 40.15605619999999, "lng": -3.633945299999999}, "viewport": {"northeast": {"lat": 40.15741198029149, "lng": -3.632629869708497}, "southwest": {"lat": 40.15471401970849, "lng": -3.635327830291502}}}, "icon": "https://maps.gstatic.com/mapfiles/place_api/icons/v1/png_71/parking-71.png", "icon_background_color": "#7B9EB0", "icon_mask_base_uri": "https://maps.gstatic.com/mapfiles/place_api/icons/v2/parking_pinlet", "name": "Aparcamiento de la plaza de toros", "opening_hours": {"open_now": true}, "place_id": "ChIJubCOdd8bQg0Rk0TlFK7WkoQ", "plus_code": {"compound_code": "5948+CC Ciempozuelos, Spain", "global_code": "8CGR5948+CC"}, "rating": 1, "reference": "ChIJubCOdd8bQg0Rk0TlFK7WkoQ", "scope": "GOOGLE", "types": ["parking", "point_of_interest", "establishment"], "user_ratings_total": 1, "vicinity": "Ciempozuelos"}, {"business_status": "OPERATIONAL", "geometry": {"location": {"lat": 40.165695, "lng": -3.6331842}, "viewport": {"northeast": {"lat": 40.1671657302915, "lng": -3.631794719708498}, "southwest": {"lat": 40.1644677697085, "lng": -3.634492680291503}}}, "icon": "https://maps.gstatic.com/mapfiles/place_api/icons/v1/png_71/parking-71.png", "icon_background_color": "#7B9EB0", "icon_mask_base_uri": "https://maps.gstatic.com/mapfiles/place_api/icons/v2/parking_pinlet", "name": "Parking de movilidad reducida", "photos": [{"height": 4032, "html_attributions": ["<a href=\"https://maps.google.com/maps/contrib/117703445535313223765\">jesus atope atope</a>"], "photo_reference": "AWn5SU5mzf6-sELAmyTUSOLBf45CtTCi5IY3Roekiau9vl2rQ2Va07J0rnmWauu_hQP0wo50gyGkx5Uk0r-RVNgkOEUgpWSM6Ewh8yFhKwe420uz4ultHRF_qrRKwN5kNl7A58voJ3lWr7RpNPw_BIxGbQkT3RGuSEXvGlb0SCqoxZDVCWAxuFZuatj60JO9yWZyjxHihnwBJRpywcrNR_mIM2scDUxLUix2puegWqggf8fFbfo9F6sXRxh-zjbsKneejI2s3zOx6lN3H3cVBVIsSQMcQJziBoITibQ-d8wLrHVpiyn6zL12BXsThxBwCP4gIOOBPF-y5pkzPZJ8RLmV8zutKnuRVQByB9FDpH4hHfuOATB2cBk7-h9daC42FzS3LumqDHSt_IqfdzZRk8Omv19vFSZDQCce4ojhwOExYfaVfsEj-W8M4yeqAvZP83xBXdt7i_cnOgxHiIjajLnyClYZIARcg3AwgBw2A6LcOq3UNgy5D7yuGRBbTlJ2PYacWJDqEsUtlc0M0p8oNztQrg7sBMOl8CXFiSzGzVjmhxo020cwh90HlpiJVWBFvc8LWwVyS5G1u9ypR5SqWCmYUAtI_Mwlt-yn3iiH9wAxWedYKiJR2ZVLFTh5XUTdVbPG", "width": 3024}], "place_id": "ChIJ2ZSRvdIbQg0RnZH5F3W3KEE", "plus_code": {"compound_code": "5988+7P Ciempozuelos, Spain", "global_code": "8CGR5988+7P"}, "reference": "ChIJ2ZSRvdIbQg0RnZH5F3W3KEE", "scope": "GOOGLE", "types": ["parking", "point_of_interest", "establishment"], "vicinity": "Terreno Sector S-1, 16P, Ciempozuelos"}, {"business_status": "OPERATIONAL", "geometry": {"location": {"lat": 40.1663304, "lng": -3.6334833}, "viewport": {"northeast": {"lat": 40.1677118802915, "lng": -3.632135219708498}, "southwest": {"lat": 40.1650139197085, "lng": -3.634833180291502}}}, "icon": "https://maps.gstatic.com/mapfiles/place_api/icons/v1/png_71/parking-71.png", "icon_background_color": "#7B9EB0", "icon_mask_base_uri": "https://maps.gstatic.com/mapfiles/place_api/icons/v2/parking_pinlet", "name": "Aparcamiento de movilidad reducida", "place_id": "ChIJP8VnoeIbQg0R7gy1WIgUiDU", "plus_code": {"compound_code": "5988+GJ Ciempozuelos, Spain", "global_code": "8CGR5988+GJ"}, "reference": "ChIJP8VnoeIbQg0R7gy1WIgUiDU", "scope": "GOOGLE", "types": ["parking", "point_of_interest", "establishment"], "vicinity": "Ciempozuelos"}, {"business_status": "OPERATIONAL", "geometry": {"location": {"lat": 40.1657758, "lng": -3.6345837}, "viewport": {"northeast": {"lat": 40.1671578802915, "lng": -3.633234019708498}, "southwest": {"lat": 40.1644599197085, "lng": -3.635931980291502}}}, "icon": "https://maps.gstatic.com/mapfiles/place_api/icons/v1/png_71/parking-71.png", "icon_background_color": "#7B9EB0", "icon_mask_base_uri": "https://maps.gstatic.com/mapfiles/place_api/icons/v2/parking_pinlet", "name": "Aparcamiento de coches eléctricos", "photos": [{"height": 4032, "html_attributions": ["<a href=\"https://maps.google.com/maps/contrib/117703445535313223765\">jesus atope atope</a>"], "photo_reference": "AWn5SU4iNwUXF9mzxdWkjxL-7zWFEBeN2WeAG6dKAuLLA1rCdKJDhKjQ9tMYeS_UPAFiJ7_vzPSiFnwAuAUedvDPHbMREoP-XX4K6MiNvbWEHw21z-6eAptcfePk-3Z12wW0zEOVN7XsppNEZjQNM7TzKzgeKGTDPjyOzI-vpEwoBDq-sBsYf7LnWLS_iohKZ-kzORZlc57PYNzLshlle6I9LbsTpD6OFbtY_-tqpS3JiTBRo9AR9rSibpn1FHI85QQodoh5YZsRSQmrQoi1QOtAOfsBkwgaOex3AoSzHkJuu4HZwx92IhDAgYmrMOoALfGob5ZemllkM7kcfusLzM1lBaSxVYYeX_Qfbn2NG0nIlQhn-KiGTG-MM7eprB1HF2plhCiZxVhuhTiJdEQkSvUeiuvs5gAtBU2duqwsz7gEcGyvZZgKuU1nft0UyI6mYWf4T5hYJeFEPPuhY6UCxSRA0wbCeG_J_VtOdSuipUey0WfOy0MUS8AencE3r6pwEths3-5_nSO6viy-fQPZNCUWzgUSVulYodFDtKp77aN_TxMPazatIWGOmcR_H4pJDm_cdUhtFTonSTuD5LxOxa3bRq1dXMezDK6PEt2xBWcVdshj-sXOrZ8R5yPxQj_6xrMpSfbZHA", "width": 3024}], "place_id": "ChIJ455ImFMbQg0R8bFl6mu8j4U", "plus_code": {"compound_code": "5988+85 Madrid, Spain", "global_code": "8CGR5988+85"}, "reference": "ChIJ455ImFMbQg0R8bFl6mu8j4U", "scope": "GOOGLE", "types": ["parking", "point_of_interest", "establishment"], "vicinity": "Terreno Sector S-1, 5P, Madrid"}, {"business_status": "OPERATIONAL", "geometry": {"location": {"lat": 40.165797, "lng": -3.6346172}, "viewport": {"northeast": {"lat": 40.16715988029149, "lng": -3.633267869708498}, "southwest": {"lat": 40.16446191970849, "lng": -3.635965830291502}}}, "icon": "https://maps.gstatic.com/mapfiles/place_api/icons/v1/png_71/parking-71.png", "icon_background_color": "#7B9EB0", "icon_mask_base_uri": "https://maps.gstatic.com/mapfiles/place_api/icons/v2/parking_pinlet", "name": "Aparcamiento de movilidad reducida", "place_id": "ChIJtZEa2M8bQg0RX76hkr1XJDQ", "plus_code": {"compound_code": "5988+85 Madrid, Spain", "global_code": "8CGR5988+85"}, "reference": "ChIJtZEa2M8bQg0RX76hkr1XJDQ", "scope": "GOOGLE", "types": ["parking", "point_of_interest", "establishment"], "vicinity": "Terreno Sector S-1, 4P, Madrid"}]