[{"business_status": "OPERATIONAL", "geometry": {"location": {"lat": 40.13580160000001, "lng": -3.4196884}, "viewport": {"northeast": {"lat": 40.13711018029151, "lng": -3.418399419708498}, "southwest": {"lat": 40.13441221970851, "lng": -3.421097380291502}}}, "icon": "https://maps.gstatic.com/mapfiles/place_api/icons/v1/png_71/generic_business-71.png", "icon_background_color": "#7B9EB0", "icon_mask_base_uri": "https://maps.gstatic.com/mapfiles/place_api/icons/v2/generic_pinlet", "international_phone_number": "+34 918 94 13 46", "name": "Residencia El Llano", "place_id": "ChIJMa4MVdUSQg0R9uXi0FyTYxU", "plus_code": {"compound_code": "4HPJ+84 Chinchón, Spain", "global_code": "8CGR4HPJ+84"}, "rating": 3, "reference": "ChIJMa4MVdUSQg0R9uXi0FyTYxU", "scope": "GOOGLE", "types": ["doctor", "health", "point_of_interest", "establishment"], "user_ratings_total": 8, "vicinity": "Calle de la Cruz del Portugués, 5, Chinchón"}, {"business_status": "OPERATIONAL", "geometry": {"location": {"lat": 40.1397445, "lng": -3.4240369}, "viewport": {"northeast": {"lat": 40.14109533029149, "lng": -3.422670569708499}, "southwest": {"lat": 40.1383973697085, "lng": -3.425368530291502}}}, "icon": "https://maps.gstatic.com/mapfiles/place_api/icons/v1/png_71/generic_business-71.png", "icon_background_color": "#7B9EB0", "icon_mask_base_uri": "https://maps.gstatic.com/mapfiles/place_api/icons/v2/generic_pinlet", "name": "Centro Salud", "photos": [{"height": 4624, "html_attributions": ["<a href=\"https://maps.google.com/maps/contrib/104624358394364211038\">Laura Hale</a>"], "photo_reference": "AWn5SU6PiYQR-k--b8nLfwnF6Fc81bgR-QQh8x20VcrbpKgeQcEpl8xjVAipc6XXG5m09CKP4b4CG7x7RYrxrqSuf2uQcVpU8FUP-4_bQ3sL1gN_2gKfn3K5TXE4LgzP78nQW0WrSYphJAX8fcI1QNG2_2FDKWA3BDuYkYtGzNkJYbDlIbH-E8HOtkfxOS032VUCvg29tM5V0PIgd7yq1Y2_XO6uBpKPfR9LtW-XuUFEOKO67V--fJOxhPNo_fQERndgwzLfxw9XDhpw-CtgYvko5I5kO-CfZwGAspBxqJ0E0oE_JSXF_II5bVk9WzxTUXpj29r6Mao0-36fZuLYQPJNo6OaZzGT5wR8oad57VwKtVbsuLRvQ9sNZlyCmadaisc6798ltcwcVpga0UfdxbaISxgJ5qXdA6cWpXORRQws6JV7adROc9R5YY79gtQIZ0onVK8ypYXN8tQAHkVQ9_JNi1K9ERkL58ANUsa3pP897aUSmVsp_0cgpgrRoWBnz5zWRKtBIquFa0gpq93QWWRM0suAnLuPyUXcYb2Zky7ftz7AKhK7Ujb0LpVAjm1VcZx-5Z2MxnQTb0sLZmA7qRk8IOZus0TG2poI8enGpPvGtL43IOygXVVDeTz4f3TmtMTC", "width": 3468}], "place_id": "ChIJ6-HK5ysTQg0RD_5ssOAa_Sw", "plus_code": {"compound_code": "4HQG+V9 Chinchón, Spain", "global_code": "8CGR4HQG+V9"}, "reference": "ChIJ6-HK5ysTQg0RD_5ssOAa_Sw", "scope": "GOOGLE", "types": ["doctor", "health", "point_of_interest", "establishment"], "vicinity": "Calle de Álvarez Gato, 4, Chinchón"}, {"business_status": "OPERATIONAL", "geometry": {"location": {"lat": 40.110601, "lng": -3.389524}, "viewport": {"northeast": {"lat": 40.1119500802915, "lng": -3.388174669708498}, "southwest": {"lat": 40.1092521197085, "lng": -3.390872630291502}}}, "icon": "https://maps.gstatic.com/mapfiles/place_api/icons/v1/png_71/generic_business-71.png", "icon_background_color": "#7B9EB0", "icon_mask_base_uri": "https://maps.gstatic.com/mapfiles/place_api/icons/v2/generic_pinlet", "international_phone_number": "+34 918 94 47 23", "name": "Dentista y Podólogo: Clínica Colmenar", "opening_hours": {"open_now": false}, "photos": [{"height": 1536, "html_attributions": ["<a href=\"https://maps.google.com/maps/contrib/116099378054430060359\">Dentista y Podólogo: Clínica Colmenar</a>"], "photo_reference": "AWn5SU7TMD6O1MyRbpt5YI0ny_jeo3ijPHafGSt2SbOeALMXv9riwxVk2RWRoHisWVRyLo5ES9FqxExGDuzznzbmeI-1qgqC888kLZTPTo6qd6Zqg-aaAZS4XMdcanWebSlphrOkkD3YzLLwV_lg2GcJ7jCz3-TsScrZYg5nI1TfF7aAYq0t6lquA4XU3r8xih6IsckVJQG6a1TozwtgLD6jvm-UnFNDbVtHySFDwg0XAlgpsSxlVNeQRKGiGJT9PywgE2gTu5OLe4h4YoFzDZBcWmzzSrhnA0AtlfBlLA_GCU-tePC7hVuQvjk23uW7m9SAvSOslDBeamE", "width": 2048}], "place_id": "ChIJd9xHA25tQg0R1tZK8dRGYxc", "plus_code": {"compound_code": "4J66+65 Colmenar de Oreja, Spain", "global_code": "8CGR4J66+65"}, "rating": 4.3, "reference": "ChIJd9xHA25tQg0R1tZK8dRGYxc", "scope": "GOOGLE", "types": ["dentist", "doctor", "health", "point_of_interest", "establishment"], "user_ratings_total": 6, "vicinity": "Plaza del Arco, 7, Colmenar de Oreja"}, {"business_status": "OPERATIONAL", "geometry": {"location": {"lat": 40.1092425, "lng": -3.388959}, "viewport": {"northeast": {"lat": 40.11059178029149, "lng": -3.387608919708498}, "southwest": {"lat": 40.10789381970849, "lng": -3.390306880291501}}}, "icon": "https://maps.gstatic.com/mapfiles/place_api/icons/v1/png_71/generic_business-71.png", "icon_background_color": "#7B9EB0", "icon_mask_base_uri": "https://maps.gstatic.com/mapfiles/place_api/icons/v2/generic_pinlet", "international_phone_number": "+34 918 94 32 48", "name": "Clínica Salud Dental", "opening_hours": {"open_now": false}, "photos": [{"height": 960, "html_attributions": ["<a href=\"https://maps.google.com/maps/contrib/102257938329728998710\">Clínica Salud Dental</a>"], "photo_reference": "AWn5SU4J9ZetDoddP5F-leBG-HCtnKV4m8c4lh_gFAGa8IVr2rKX_BcVJAwbM5GD1rYDbHQLDOQ1Wfi_AfaO5iTXPbpb_nCYuhuj_uEdoiL_u62jDMs-WYv9Hr44h48O47Z_KOo0ptY7ATGm3N_1JsnMPuFVVhU7__m3I-wLQ7wd_eZWG-PrhQFJikPRd-w0Gz6ZCQuthU4nXuI_DpADGVoSJPTGEXEjWhCBeP9swlaJMeeprdB2Fm-LubsHDDVNOvH4F5fqy3iD0nHUz7SWZpiA_AB5OLoEaH4MMtGS8pCOg2IHSpqWgFuLoUb622-tDxM4sDnGISnI4CU", "width": 960}], "place_id": "ChIJE4-K0XFtQg0RH9McB0j5CfA", "plus_code": {"compound_code": "4J56+MC Colmenar de Oreja, Spain", "global_code": "8CGR4J56+MC"}, "rating": 5, "reference": "ChIJE4-K0XFtQg0RH9McB0j5CfA", "scope": "GOOGLE", "types": ["dentist", "doctor", "health", "point_of_interest", "establishment"], "user_ratings_total": 3, "vicinity": "Calle de María Teresa Freire, 5, Colmenar de Oreja"}]