[{"business_status": "OPERATIONAL", "geometry": {"location": {"lat": 40.73511799999999, "lng": -3.5824526}, "viewport": {"northeast": {"lat": 40.73645998029151, "lng": -3.581114869708498}, "southwest": {"lat": 40.73376201970851, "lng": -3.583812830291502}}}, "icon": "https://maps.gstatic.com/mapfiles/place_api/icons/v1/png_71/shopping-71.png", "icon_background_color": "#4B96F3", "icon_mask_base_uri": "https://maps.gstatic.com/mapfiles/place_api/icons/v2/convenience_pinlet", "international_phone_number": "+34 918 41 00 01", "name": "Asecomolar", "photos": [{"height": 302, "html_attributions": ["<a href=\"https://maps.google.com/maps/contrib/114655629593957071101\">ASECOMOLAR</a>"], "photo_reference": "AWn5SU7OBSXkJAxioZtyCW4NR3g2VS8cpQL8xP7ybawDbffu_8tFBlQt6LPKDe1NDrGfh6ZSbcgBUNzXeeXrZ222jI-PQr8pp_kd3qelx3Jgu2OMlPRGwkbaMkJ_xLsnh03DOU45Tsw898hv0WEwzLRVEZS2DQt9XfGIeQP7d5PUarRCkLZmqm7olLPnUrJn-n1IVD7EUKnPtUT3OdmKLAiH7cmICw9sm17pqelcuP5l0kPqimuPy-OwsPREB5bTPtWAP-ayxoaLdpVM33wNKJT8430ZTIxUxrCtmZrglYUeUi4cUmqypSz-yu1sNvwv6UCE_chvG4WRCq0", "width": 591}], "place_id": "ChIJ9WRtQQLQQw0RaC_uKreRYEA", "plus_code": {"compound_code": "PCP9+22 El Molar, Spain", "global_code": "8CGRPCP9+22"}, "reference": "ChIJ9WRtQQLQQw0RaC_uKreRYEA", "scope": "GOOGLE", "types": ["convenience_store", "store", "food", "point_of_interest", "establishment"], "vicinity": "Plaza del Paraíso, 2, El Molar"}, {"business_status": "OPERATIONAL", "geometry": {"location": {"lat": 40.73467300000001, "lng": -3.581244}, "viewport": {"northeast": {"lat": 40.7360579302915, "lng": -3.579991019708499}, "southwest": {"lat": 40.7333599697085, "lng": -3.582688980291503}}}, "icon": "https://maps.gstatic.com/mapfiles/place_api/icons/v1/png_71/shopping-71.png", "icon_background_color": "#4B96F3", "icon_mask_base_uri": "https://maps.gstatic.com/mapfiles/place_api/icons/v2/shoppingcart_pinlet", "international_phone_number": "+34 912 17 04 53", "name": "Supermercados Dia", "opening_hours": {"open_now": false}, "photos": [{"height": 3456, "html_attributions": ["<a href=\"https://maps.google.com/maps/contrib/108023638658407490887\">Supermercados Dia</a>"], "photo_reference": "AWn5SU7O1vrXsr4WSbPhQe9pqJyXNp8G2a52dIV12LAgPKYFuo3UgKk9Hd9fjNW4MLidd3bCD3KMxj5AnIDxKuGmZj786z7HEcOD-PdW0lBcOhVMwOIu9rIudJJOFmGO5uzHlTKaZMIr0Z2cXW1tIWNBw1QQmPofGG1itTFZWxidm3Rc69fjLDAeQ2vnHSOZm0KcVi_x2VpuJKoGkI8UB9SEwomFzOw61D2_tK4gAKVpIlPVt2r86kL7RO68vv59lq55GLpA4PynCMFuo40igF-xzWkgGp5Wsbi18ScFypk-PKBbYHhrAA70tvwneItGbFJIhKX9mZ8K8og", "width": 2994}], "place_id": "ChIJk4HQdwLQQw0RLnTw6wLkK7U", "plus_code": {"compound_code": "PCM9+VG El Molar, Spain", "global_code": "8CGRPCM9+VG"}, "rating": 3.8, "reference": "ChIJk4HQdwLQQw0RLnTw6wLkK7U", "scope": "GOOGLE", "types": ["supermarket", "convenience_store", "bakery", "grocery_or_supermarket", "store", "food", "point_of_interest", "establishment"], "user_ratings_total": 334, "vicinity": "Calle de Ramón Gabriel, 26, El Molar"}, {"business_status": "OPERATIONAL", "geometry": {"location": {"lat": 40.6923044, "lng": -3.6104346}, "viewport": {"northeast": {"lat": 40.6937213802915, "lng": -3.608974819708499}, "southwest": {"lat": 40.6910234197085, "lng": -3.611672780291503}}}, "icon": "https://maps.gstatic.com/mapfiles/place_api/icons/v1/png_71/shopping-71.png", "icon_background_color": "#4B96F3", "icon_mask_base_uri": "https://maps.gstatic.com/mapfiles/place_api/icons/v2/convenience_pinlet", "international_phone_number": "+34 918 48 97 98", "name": "TB MODEL", "photos": [{"height": 327, "html_attributions": ["<a href=\"https://maps.google.com/maps/contrib/112278892920271481220\">TB MODEL</a>"], "photo_reference": "AWn5SU7oxUTA4qB5IYWrv7Kywq1YQQ7BJppDMy0cClw2QL0O1GFg2-eiZv0x3LTgj8aTnr6lsMTzbHYoQ8kd44HS7Z3ncApex4FGz67D-oTx9TUeTzJRU78wiizJGeq2oB28fGmiKxAYDrAIxVSWrjjQRdey7lRk074kAu2bCJcVVUgZJfJwVeAznFHQd_G8qAknxaN8tuJxD629FxRpN-gdyjA6BOA_rPkLHf01XIbEnhuxDOpsU8QHdqsIt3j77N5uer6SxWmN_03twEmPeiDn67_fP__8AXeTwE8NAFa9QiLmT7s2hBMIWo7ct1n9LrCOBQXwNFx6tUk", "width": 495}], "place_id": "ChIJMZzXarHRQw0RX6QR_S-hCEQ", "plus_code": {"compound_code": "M9RQ+WR San Agustín del Guadalix, Spain", "global_code": "8CGRM9RQ+WR"}, "reference": "ChIJMZzXarHRQw0RX6QR_S-hCEQ", "scope": "GOOGLE", "types": ["convenience_store", "store", "food", "point_of_interest", "establishment"], "vicinity": "Del brincadero,25, san agustin del guadalic"}, {"business_status": "OPERATIONAL", "geometry": {"location": {"lat": 40.7394945, "lng": -3.5757611}, "viewport": {"northeast": {"lat": 40.74088313029149, "lng": -3.574154769708498}, "southwest": {"lat": 40.73818516970849, "lng": -3.576852730291502}}}, "icon": "https://maps.gstatic.com/mapfiles/place_api/icons/v1/png_71/shopping-71.png", "icon_background_color": "#4B96F3", "icon_mask_base_uri": "https://maps.gstatic.com/mapfiles/place_api/icons/v2/convenience_pinlet", "international_phone_number": "+34 918 41 28 44", "name": "Patatas fritas Rascafría", "place_id": "ChIJHe8AFADPQw0RuJASQ_9D4Fc", "plus_code": {"compound_code": "PCQF+QM El Molar, Spain", "global_code": "8CGRPCQF+QM"}, "reference": "ChIJHe8AFADPQw0RuJASQ_9D4Fc", "scope": "GOOGLE", "types": ["convenience_store", "store", "food", "point_of_interest", "establishment"], "vicinity": "Calle Fuente del Toro, 21, El Molar"}, {"business_status": "OPERATIONAL", "geometry": {"location": {"lat": 40.7675339, "lng": -3.580527199999999}, "viewport": {"northeast": {"lat": 40.7688998302915, "lng": -3.579218619708497}, "southwest": {"lat": 40.7662018697085, "lng": -3.581916580291501}}}, "icon": "https://maps.gstatic.com/mapfiles/place_api/icons/v1/png_71/shopping-71.png", "icon_background_color": "#4B96F3", "icon_mask_base_uri": "https://maps.gstatic.com/mapfiles/place_api/icons/v2/shoppingcart_pinlet", "international_phone_number": "+34 912 17 04 53", "name": "Supermercados Dia", "opening_hours": {"open_now": false}, "photos": [{"height": 3072, "html_attributions": ["<a href=\"https://maps.google.com/maps/contrib/117041431892373425152\">Mery H.</a>"], "photo_reference": "AWn5SU65gaY1wHNoNUEh5gtVZF7F854p4Wz5TrAsL-NrQCBzCxOixvWFUTyV2g5teIRaIqGwsf2jFrzNVqkV_cBKcKz3dvzPNQCIMI25gRrkqP7sd55tOnIsL1WY7F8F7F2d6BOR1WCfOcMcUnrf0xBToDBHw19f9OACnRiLclmDPs0L1enw9b9Fc4i7CoLVlDVKH96xh-5knZoLnMoa9ujWPl0IoR3LU62hhXC4ZG8ZvTWaOYqwB0aKg9oGEiH6PCg2-ffb0FHoX84ZgWyqfMvtfCqAOFVUmRZ1hSuAdWJYa2swwpwzoOVfWNE8E_-fb-5edz_2s1r17eAuVdjpNfxVwqrhYCZTily6EZYudTKFM2UjVekqRcdZbCM5HaDt0cIX5OoAm_KSgTQ74uBIeI_WSEU5z33wxkn6XzEYhCol1jznGh3k6lzb4YWZ_2AvQP_SeUzDR45nqGOkw3UIwBTkEw8l0WoePDTAqyzVI7Cy6gWAu8xIVSJQMr90GnJUpqcmNQ4AR2w2vc-cXdD3KTWBx7DK36pWpEdCrXe7Gv0_TwLPKIgNiwNzz-Sr8bEdgO8G1HPkGzZPWlI7NOEJ3q8LTNjc5HYGvJmaYsv9nPumvmzbmMGDXDTsF_p7pGA1umxZWiPXAw", "width": 4096}], "place_id": "ChIJUYorRGjFQw0RvBai2rzGXnQ", "plus_code": {"compound_code": "QC99+2Q El Vellón, Spain", "global_code": "8CGRQC99+2Q"}, "rating": 3.6, "reference": "ChIJUYorRGjFQw0RvBai2rzGXnQ", "scope": "GOOGLE", "types": ["supermarket", "convenience_store", "bakery", "grocery_or_supermarket", "store", "food", "point_of_interest", "establishment"], "user_ratings_total": 62, "vicinity": "Calle de San Blas, 44, El Vellón"}]