[{"business_status": "OPERATIONAL", "geometry": {"location": {"lat": 40.79239319999999, "lng": -3.4869678}, "viewport": {"northeast": {"lat": 40.7938332302915, "lng": -3.485662069708499}, "southwest": {"lat": 40.7911352697085, "lng": -3.488360030291502}}}, "icon": "https://maps.gstatic.com/mapfiles/place_api/icons/v1/png_71/school-71.png", "icon_background_color": "#7B9EB0", "icon_mask_base_uri": "https://maps.gstatic.com/mapfiles/place_api/icons/v2/school_pinlet", "international_phone_number": "+34 672 39 97 16", "name": "Trazos del Alma ️Coaching, Psicoterapia y Centro de Meditación", "opening_hours": {"open_now": false}, "photos": [{"height": 1080, "html_attributions": ["<a href=\"https://maps.google.com/maps/contrib/106750718662731558300\">Trazos del Alma ️Coaching, Psicoterapia y Centro de Meditación</a>"], "photo_reference": "AWn5SU75OWJBt0mdDKMYUSpkNLzAFNo5RWZAHA1wSzgcA0mMlV9SGslit7dpGNjfoEGZYEIeLTVkFHDhD9PQ2HvKqsbu8XAJ9VkyC3ItZyIOrZHIJUGhjJsttzZbtnPD_tdo5I3h3piyPDx4XbO_hYQwBB4XqNnkNLV5VUP4EIo2XirX9lHgrSxzWysiaYbwRFwIxZ-zSbKocq9L4PGhCQUrTATJtheqgIdOLoPWSJdMIUV7jj-2UhuAN-hQXHDJWEdt-HVDQ2IoDkGpj4ayVC3CrETDRT-S3jCzWxfI8GBvV7po49S0R0rV11VwQZF6Kcu79cFOmTgE8gQ", "width": 1080}], "place_id": "ChIJuXprkvfFQw0R4-srFKsfBLs", "plus_code": {"compound_code": "QGR7+X6 Caraquiz, Spain", "global_code": "8CGRQGR7+X6"}, "rating": 5, "reference": "ChIJuXprkvfFQw0R4-srFKsfBLs", "scope": "GOOGLE", "types": ["doctor", "health", "point_of_interest", "establishment"], "user_ratings_total": 12, "vicinity": "Calle de Berlín, 465, Caraquiz"}, {"business_status": "OPERATIONAL", "geometry": {"location": {"lat": 40.7035294, "lng": -3.433232899999999}, "viewport": {"northeast": {"lat": 40.7049061302915, "lng": -3.431995919708498}, "southwest": {"lat": 40.7022081697085, "lng": -3.434693880291502}}}, "icon": "https://maps.gstatic.com/mapfiles/place_api/icons/v1/png_71/generic_business-71.png", "icon_background_color": "#7B9EB0", "icon_mask_base_uri": "https://maps.gstatic.com/mapfiles/place_api/icons/v2/generic_pinlet", "international_phone_number": "+34 949 33 54 14", "name": "Clínica Dental Elisa Fuentes en El Casar", "opening_hours": {"open_now": false}, "photos": [{"height": 3648, "html_attributions": ["<a href=\"https://maps.google.com/maps/contrib/102570394679025402399\">Clínica Dental Elisa Fuentes en El Casar</a>"], "photo_reference": "AWn5SU5QJlXcni05-mkNMvHO7Q-89K1XHprryrH4vSLgbkVDpnYT_nBGV0K3ebtPUvIs9yYEzb2gE7rH8Gjuj0cgSoNmbLj3ApVhfs9YpJ3egTKQT6KchaOFFbqTOqjPGlXa-WEIJK6atXLmNUgsOGfHkbekxeARCmQeb3Wwy2RGoL0TXxARtLVHa_UKUavPC3SzYKt483G7Rbqnth1X6d1BvPX68QtmuvGpX6gQg68dMRyvV-RXspT6qwvQxCRPV7gGUfKYIIoIX-Hwr-n9bOeZ61vIrA5-0ixtxVSCjRacFVhXwIF0MGXP_ABFKGqc4t8U5r83MhCf42I", "width": 5472}], "place_id": "ChIJuczb7MzJQw0RLEegIQOGLZE", "plus_code": {"compound_code": "PH38+CP El Casar, Spain", "global_code": "8CGRPH38+CP"}, "rating": 4.8, "reference": "ChIJuczb7MzJQw0RLEegIQOGLZE", "scope": "GOOGLE", "types": ["dentist", "doctor", "health", "point_of_interest", "establishment"], "user_ratings_total": 58, "vicinity": "Calle Alcaldes de la Villa, 147, El Casar"}, {"business_status": "OPERATIONAL", "geometry": {"location": {"lat": 40.792699, "lng": -3.4970463}, "viewport": {"northeast": {"lat": 40.7939873802915, "lng": -3.495616319708498}, "southwest": {"lat": 40.7912894197085, "lng": -3.498314280291502}}}, "icon": "https://maps.gstatic.com/mapfiles/place_api/icons/v1/png_71/generic_business-71.png", "icon_background_color": "#7B9EB0", "icon_mask_base_uri": "https://maps.gstatic.com/mapfiles/place_api/icons/v2/generic_pinlet", "international_phone_number": "+34 949 85 99 22", "name": "Consultorio Medico", "opening_hours": {"open_now": false}, "place_id": "ChIJQ8y7bgDHQw0RHTIgklHN2hk", "plus_code": {"compound_code": "QGV3+35 Uceda, Spain", "global_code": "8CGRQGV3+35"}, "reference": "ChIJQ8y7bgDHQw0RHTIgklHN2hk", "scope": "GOOGLE", "types": ["doctor", "health", "point_of_interest", "establishment"], "vicinity": "Avenida Madrid, 184, Uceda"}, {"business_status": "OPERATIONAL", "geometry": {"location": {"lat": 40.7055041, "lng": -3.438004799999999}, "viewport": {"northeast": {"lat": 40.70687738029149, "lng": -3.436524669708497}, "southwest": {"lat": 40.7041794197085, "lng": -3.439222630291501}}}, "icon": "https://maps.gstatic.com/mapfiles/place_api/icons/v1/png_71/generic_business-71.png", "icon_background_color": "#7B9EB0", "icon_mask_base_uri": "https://maps.gstatic.com/mapfiles/place_api/icons/v2/generic_pinlet", "international_phone_number": "+34 949 86 07 70", "name": "Clínicas Dentales Tanden-t", "opening_hours": {"open_now": false}, "photos": [{"height": 1824, "html_attributions": ["<a href=\"https://maps.google.com/maps/contrib/104230337182184638454\">Clínicas Dentales Tanden-t</a>"], "photo_reference": "AWn5SU7sgpjitsykReQagk-tJ4Vupk55B3baOmr7ld5am0iqNbzVRTtsSwPwF7oDlukXmRfinme0o_tbmphdA1zioRjPdZbBi3zXM9PJ0Eq81E0rSVeVjl5cahpLQ8V84fWgZHliJ0cgl595YrnLFFB7J9K9fHfl3XDfeGctLMawGlRPwgyhO7WVbSZPdlH2JpcT8vexexZLrwzJIDSrpNjpY5d3PDrXklQvojlnNKgvWlaeCnjpor-kNESCDTks5qsYMEiGMPU_-eiyz5UV6FmukMZhpELjuUJLxNm2Z2vqP8qPYEGu2JaGC5qRHj-tvRhXcUP8Tvq4yv4", "width": 2736}], "place_id": "ChIJU9vF327JQw0Rh232adumc3o", "plus_code": {"compound_code": "PH46+6Q El Casar, Spain", "global_code": "8CGRPH46+6Q"}, "rating": 5, "reference": "ChIJU9vF327JQw0Rh232adumc3o", "scope": "GOOGLE", "types": ["dentist", "doctor", "health", "point_of_interest", "establishment"], "user_ratings_total": 352, "vicinity": "Avenida de España, 1762, El Casar"}]