[{"business_status": "OPERATIONAL", "geometry": {"location": {"lat": 40.368824, "lng": -3.221911399999999}, "viewport": {"northeast": {"lat": 40.3701604802915, "lng": -3.220568519708498}, "southwest": {"lat": 40.3674625197085, "lng": -3.223266480291502}}}, "icon": "https://maps.gstatic.com/mapfiles/place_api/icons/v1/png_71/generic_business-71.png", "icon_background_color": "#7B9EB0", "icon_mask_base_uri": "https://maps.gstatic.com/mapfiles/place_api/icons/v2/generic_pinlet", "name": "Mayor-Pza.Villa", "photos": [{"height": 960, "html_attributions": ["<a href=\"https://maps.google.com/maps/contrib/111958603354852821270\">MP C. C</a>"], "photo_reference": "AWn5SU68d1M-nj7WyKhNQvb_OoN-vNoJeE10RyLjoWmfdqg89xA9bQZaTmnqOcCZCU5HDbURbXfEtFwzJuLaX9jT34w2i_ZBgj87uekfDYQJZlNI3f61k2QGR6V99iChmm4lyAl6BMeIluaHDITEQmAEnFz23GXQnUSoWSy7x_pGNEE9--3iDMu_C1ighffm7ViuI-6SlliPAEZBuMff0baLJWupm_Cbv0dOQxMfmnM5NDYTE8kadO9lv5DPSyXEuZ5qTAVve1C1rLnZyuo5zmXz1agJeTVLOKdHQrYBEgbQmOALk6dtMWJbBeU3_CccUtmosXUD2imHW0sar3Ah_6SGfGqtOQkD1l_Rc3vTPCBdyreqz_Y0slweD3fELqSUFFWQ4HsNAXsBS8FsZj0Iu3yc1M6IPgDvXhwPNqDywg5hHg3PUz1f89IsCr8mPZA3eB9cFKi1e-8EpnIiVmjO962F5zmlqz2x-OdN8e0kp5GjmI9fBZrMKPg7I6afuSUpq9WpS9ofv0e7bMapUQCXdfgebCX5RUdzM3vOBwKAfkwVneXpzUr5fV4MQRFrmc6-hmD_udtEsNd6VGHPT1p9oxN2X65qY8VMU2c2Y-7eoeStXBPmQjH6Nsf0iwD1LlHPNvrUVKoeZOrm", "width": 1280}], "place_id": "ChIJ9cQmoAtbQg0REEbKjosN2N0", "plus_code": {"compound_code": "9Q9H+G6 Olmeda de las Fuentes, Spain", "global_code": "8CGR9Q9H+G6"}, "reference": "ChIJ9cQmoAtbQg0REEbKjosN2N0", "scope": "GOOGLE", "types": ["transit_station", "point_of_interest", "establishment"], "vicinity": "Spain"}, {"business_status": "OPERATIONAL", "geometry": {"location": {"lat": 40.36872479999999, "lng": -3.2218995}, "viewport": {"northeast": {"lat": 40.37006993029149, "lng": -3.220549869708498}, "southwest": {"lat": 40.3673719697085, "lng": -3.223247830291502}}}, "icon": "https://maps.gstatic.com/mapfiles/place_api/icons/v1/png_71/generic_business-71.png", "icon_background_color": "#7B9EB0", "icon_mask_base_uri": "https://maps.gstatic.com/mapfiles/place_api/icons/v2/generic_pinlet", "name": "Mayor-Pza.Villa", "place_id": "ChIJl2kHoAtbQg0RaExmv1T2-rY", "plus_code": {"compound_code": "9Q9H+F6 Olmeda de las Fuentes, Spain", "global_code": "8CGR9Q9H+F6"}, "reference": "ChIJl2kHoAtbQg0RaExmv1T2-rY", "scope": "GOOGLE", "types": ["transit_station", "point_of_interest", "establishment"], "vicinity": "Spain"}, {"business_status": "OPERATIONAL", "geometry": {"location": {"lat": 40.3675232, "lng": -3.2194102}, "viewport": {"northeast": {"lat": 40.3688789802915, "lng": -3.218015569708498}, "southwest": {"lat": 40.3661810197085, "lng": -3.220713530291502}}}, "icon": "https://maps.gstatic.com/mapfiles/place_api/icons/v1/png_71/generic_business-71.png", "icon_background_color": "#7B9EB0", "icon_mask_base_uri": "https://maps.gstatic.com/mapfiles/place_api/icons/v2/generic_pinlet", "name": "Mayor-Pintor Álvaro Delgado", "place_id": "ChIJXzZVlQpbQg0R97ixms9okeU", "plus_code": {"compound_code": "9Q9J+26 Olmeda de las Fuentes, Spain", "global_code": "8CGR9Q9J+26"}, "reference": "ChIJXzZVlQpbQg0R97ixms9okeU", "scope": "GOOGLE", "types": ["transit_station", "point_of_interest", "establishment"], "vicinity": "Spain"}, {"business_status": "OPERATIONAL", "geometry": {"location": {"lat": 40.367569, "lng": -3.2192807}, "viewport": {"northeast": {"lat": 40.36894288029149, "lng": -3.217965769708498}, "southwest": {"lat": 40.36624491970849, "lng": -3.220663730291502}}}, "icon": "https://maps.gstatic.com/mapfiles/place_api/icons/v1/png_71/generic_business-71.png", "icon_background_color": "#7B9EB0", "icon_mask_base_uri": "https://maps.gstatic.com/mapfiles/place_api/icons/v2/generic_pinlet", "name": "Mayor-Pintor Álvaro Delgado", "place_id": "ChIJX-9wlQpbQg0RZpL5h5_5DOM", "plus_code": {"compound_code": "9Q9J+27 Olmeda de las Fuentes, Spain", "global_code": "8CGR9Q9J+27"}, "reference": "ChIJX-9wlQpbQg0RZpL5h5_5DOM", "scope": "GOOGLE", "types": ["transit_station", "point_of_interest", "establishment"], "vicinity": "Spain"}, {"business_status": "OPERATIONAL", "geometry": {"location": {"lat": 40.3644295, "lng": -3.2434154}, "viewport": {"northeast": {"lat": 40.36577208029149, "lng": -3.242103319708498}, "southwest": {"lat": 40.36307411970849, "lng": -3.244801280291502}}}, "icon": "https://maps.gstatic.com/mapfiles/place_api/icons/v1/png_71/generic_business-71.png", "icon_background_color": "#7B9EB0", "icon_mask_base_uri": "https://maps.gstatic.com/mapfiles/place_api/icons/v2/generic_pinlet", "name": "Ctra.M204-Transformador", "place_id": "ChIJ3VL6SkdbQg0RZLK0vtws8SM", "plus_code": {"compound_code": "9Q74+QJ Nuevo Baztán, Spain", "global_code": "8CGR9Q74+QJ"}, "reference": "ChIJ3VL6SkdbQg0RZLK0vtws8SM", "scope": "GOOGLE", "types": ["transit_station", "point_of_interest", "establishment"], "vicinity": "Spain"}, {"business_status": "OPERATIONAL", "geometry": {"location": {"lat": 40.3661499, "lng": -3.2440929}, "viewport": {"northeast": {"lat": 40.3675073302915, "lng": -3.242691619708498}, "southwest": {"lat": 40.3648093697085, "lng": -3.245389580291501}}}, "icon": "https://maps.gstatic.com/mapfiles/place_api/icons/v1/png_71/generic_business-71.png", "icon_background_color": "#7B9EB0", "icon_mask_base_uri": "https://maps.gstatic.com/mapfiles/place_api/icons/v2/generic_pinlet", "name": "Trva.José Churriguera-Iglesia", "photos": [{"height": 1800, "html_attributions": ["<a href=\"https://maps.google.com/maps/contrib/117913690345644406844\">Olivier Rodríguez</a>"], "photo_reference": "AWn5SU7Ju5YzFpJEWyi3Q_ZvHmM-gm81Si0IMY-fXytLmgbFKLNS10s3YXyW4fTEXFZ9_hAxNFlLcrNg9QMuAUOG7o9TikC2ViaPqVCeM6a9q-XMcvhUccNa1LVuQ1KyxqKbi-cJMlXef8DhzPuUc38xbQzT509T4jOz--_OTP2Nqylj0vbDLt2ReDpM4Sr6FGVEFiHXo07ySFsOo-Z_ZsC0RcfF3ethYiC-rZ2VTfAOyfhxsiUwc23AhugAHNSn4G4_21Gb1dhgnVSAgMqR3i_IZAKGfGmU8idJFUXk1W460YdpK7kFlS6g8MIgyj31ygiJLtbkLKFgSQBKiWmxAV6rMdxAkvcnDiVHyA366NhR87-GEoXftPQBO1s8ek0Lx7dkw39U84x0Ck1U4BwqT4Pemxvoi_IrpIGOxG0vL9bIcyLmHSm8aEMbmY9XjIPgV576RFbv5jz8x5BVhP94Xcb8kareQKcCynOwCDPWD9Cm8OLyD-XdmwEq5yvKlP1WRJcPxpy-fNhm7qz0OWiqG1Q-Dcbctb0nShI-9PhOnyoPc-qYIMVEZe7rFd74ABtC5SrnhE9tpPxE_AAlSRiE_yscPCoZT8i9e7_nI284WJnvS8Jr3CSLDzYhwhDLEBdgRalVN27VOkTN", "width": 4000}], "place_id": "ChIJNRrapDhbQg0RyHAvO2hh1VI", "plus_code": {"compound_code": "9Q84+F9 Nuevo Baztán, Spain", "global_code": "8CGR9Q84+F9"}, "rating": 5, "reference": "ChIJNRrapDhbQg0RyHAvO2hh1VI", "scope": "GOOGLE", "types": ["transit_station", "point_of_interest", "establishment"], "user_ratings_total": 1, "vicinity": "Spain"}, {"business_status": "OPERATIONAL", "geometry": {"location": {"lat": 40.3644371, "lng": -3.2435803}, "viewport": {"northeast": {"lat": 40.3657723802915, "lng": -3.242188619708497}, "southwest": {"lat": 40.3630744197085, "lng": -3.244886580291501}}}, "icon": "https://maps.gstatic.com/mapfiles/place_api/icons/v1/png_71/generic_business-71.png", "icon_background_color": "#7B9EB0", "icon_mask_base_uri": "https://maps.gstatic.com/mapfiles/place_api/icons/v2/generic_pinlet", "name": "Ctra.M204-Colonia San Francisco", "place_id": "ChIJLQgsSkdbQg0R6BBLYbVFvqI", "plus_code": {"compound_code": "9Q74+QH Nuevo Baztán, Spain", "global_code": "8CGR9Q74+QH"}, "reference": "ChIJLQgsSkdbQg0R6BBLYbVFvqI", "scope": "GOOGLE", "types": ["transit_station", "point_of_interest", "establishment"], "vicinity": "Spain"}, {"business_status": "OPERATIONAL", "geometry": {"location": {"lat": 40.3657417, "lng": -3.244291800000001}, "viewport": {"northeast": {"lat": 40.3670765302915, "lng": -3.242938719708498}, "southwest": {"lat": 40.36437856970851, "lng": -3.245636680291502}}}, "icon": "https://maps.gstatic.com/mapfiles/place_api/icons/v1/png_71/generic_business-71.png", "icon_background_color": "#7B9EB0", "icon_mask_base_uri": "https://maps.gstatic.com/mapfiles/place_api/icons/v2/generic_pinlet", "name": "Trva.Jose Churriguera-Iglesia", "place_id": "ChIJMQqtujhbQg0RZHspI3AApJY", "plus_code": {"compound_code": "9Q84+77 Nuevo Baztán, Spain", "global_code": "8CGR9Q84+77"}, "reference": "ChIJMQqtujhbQg0RZHspI3AApJY", "scope": "GOOGLE", "types": ["transit_station", "point_of_interest", "establishment"], "vicinity": "Spain"}, {"business_status": "OPERATIONAL", "geometry": {"location": {"lat": 40.35997769999999, "lng": -3.2430933}, "viewport": {"northeast": {"lat": 40.36132543029149, "lng": -3.241741219708498}, "southwest": {"lat": 40.35862746970849, "lng": -3.244439180291502}}}, "icon": "https://maps.gstatic.com/mapfiles/place_api/icons/v1/png_71/generic_business-71.png", "icon_background_color": "#7B9EB0", "icon_mask_base_uri": "https://maps.gstatic.com/mapfiles/place_api/icons/v2/generic_pinlet", "name": "Ronda Hispanoamericana-Casa Juventud", "place_id": "ChIJkZ6v-UNbQg0RbddKw2f9MKw", "plus_code": {"compound_code": "9Q54+XQ Nuevo Baztán, Spain", "global_code": "8CGR9Q54+XQ"}, "reference": "ChIJkZ6v-UNbQg0RbddKw2f9MKw", "scope": "GOOGLE", "types": ["transit_station", "point_of_interest", "establishment"], "vicinity": "Spain"}, {"business_status": "OPERATIONAL", "geometry": {"location": {"lat": 40.35988, "lng": -3.2433}, "viewport": {"northeast": {"lat": 40.3612134802915, "lng": -3.241910219708498}, "southwest": {"lat": 40.3585155197085, "lng": -3.244608180291502}}}, "icon": "https://maps.gstatic.com/mapfiles/place_api/icons/v1/png_71/generic_business-71.png", "icon_background_color": "#7B9EB0", "icon_mask_base_uri": "https://maps.gstatic.com/mapfiles/place_api/icons/v2/generic_pinlet", "name": "Ronda Hispanoamericana-Casa Juventud", "place_id": "ChIJoViF-ENbQg0RbaxHkBKInzA", "plus_code": {"compound_code": "9Q54+XM Nuevo Baztán, Spain", "global_code": "8CGR9Q54+XM"}, "reference": "ChIJoViF-ENbQg0RbaxHkBKInzA", "scope": "GOOGLE", "types": ["transit_station", "point_of_interest", "establishment"], "vicinity": "Spain"}, {"business_status": "OPERATIONAL", "geometry": {"location": {"lat": 40.37518000000001, "lng": -3.24875}, "viewport": {"northeast": {"lat": 40.3765395302915, "lng": -3.247380019708499}, "southwest": {"lat": 40.3738415697085, "lng": -3.250077980291503}}}, "icon": "https://maps.gstatic.com/mapfiles/place_api/icons/v1/png_71/generic_business-71.png", "icon_background_color": "#7B9EB0", "icon_mask_base_uri": "https://maps.gstatic.com/mapfiles/place_api/icons/v2/generic_pinlet", "name": "Ctra.M204-Urb.El Mirador de Baztán", "place_id": "ChIJ2fUwAzBbQg0RBAIrmUvPkNM", "plus_code": {"compound_code": "9QG2+3F Urbanización El Mirador de Nuevo Baztán, Spain", "global_code": "8CGR9QG2+3F"}, "reference": "ChIJ2fUwAzBbQg0RBAIrmUvPkNM", "scope": "GOOGLE", "types": ["transit_station", "point_of_interest", "establishment"], "vicinity": "Spain"}, {"business_status": "OPERATIONAL", "geometry": {"location": {"lat": 40.37590000000001, "lng": -3.24903}, "viewport": {"northeast": {"lat": 40.3772511802915, "lng": -3.247734119708498}, "southwest": {"lat": 40.3745532197085, "lng": -3.250432080291502}}}, "icon": "https://maps.gstatic.com/mapfiles/place_api/icons/v1/png_71/bus-71.png", "icon_background_color": "#10BDFF", "icon_mask_base_uri": "https://maps.gstatic.com/mapfiles/place_api/icons/v2/bus_share_taxi_pinlet", "name": "Ctra.M204-Urb.El Mirador de Baztán", "place_id": "ChIJ3Wn2AjBbQg0R1N4Cjq4L2Y0", "plus_code": {"compound_code": "9QG2+99 Urbanización El Mirador de Nuevo Baztán, Spain", "global_code": "8CGR9QG2+99"}, "reference": "ChIJ3Wn2AjBbQg0R1N4Cjq4L2Y0", "scope": "GOOGLE", "types": ["bus_station", "transit_station", "point_of_interest", "establishment"], "vicinity": "Spain"}]