[{"business_status": "OPERATIONAL", "geometry": {"location": {"lat": 40.1865184, "lng": -3.777017}, "viewport": {"northeast": {"lat": 40.18789753029149, "lng": -3.775651869708497}, "southwest": {"lat": 40.18519956970849, "lng": -3.778349830291502}}}, "icon": "https://maps.gstatic.com/mapfiles/place_api/icons/v1/png_71/civic_building-71.png", "icon_background_color": "#7B9EB0", "icon_mask_base_uri": "https://maps.gstatic.com/mapfiles/place_api/icons/v2/civic-bldg_pinlet", "international_phone_number": "+34 918 16 13 04", "name": "POLICÍA LOCAL TORREJÓN DE VELASCO.", "opening_hours": {"open_now": true}, "photos": [{"height": 4032, "html_attributions": ["<a href=\"https://maps.google.com/maps/contrib/118427011729016890895\">Fj dRB</a>"], "photo_reference": "AWn5SU4Rd00B29ctnEn-v9WqcMbuinhRieoqP9mxVvwna91xF75eamnF68Ln6wRk-dDx7UBC03r4YK0-hBdqHpjoXduC08JtVOFvp4x592DQ912_SvZbD2Hbb2nQupmK9gkqTUVgrUdmK4TBoRV6GmKn3Hq1onXXDASPH6kbnUgo8s5f8YVRXBe20SNEZoH17xeSbA-IhUQz5NwaEkBmEp7qIwz84Sxmo3m4T26DwZJvXX7Lg-5dNA28O4bVV94DJlhryxChZm_Yl2WYGLyNqY72Y-wGWz3MTsqTZ8StfQsHUhJeOIcdUT5CQ_NB_G9zov5vwezeFY2Y_If2AxGQzhxCqlfZX1qnp-yArp_qggnqCysylOrN7RlJCYHqgwdqynQAbAPjfM39xYv00z-UBDX2rOmDECFvE-LEDapUlhWF89lJ9FG-woCXuSXxCWMuRgMELxWRiVvN_fjJgU3ZB6MpnFL4DoAJ1q2htxErG7XXu8JtiMbLo4_9QdqA462AF9Af810L4cm50IJfASAN4zZ7V4r-9H2nuyyveriT7qttDy_5hhVxFJXpRPo59MIoloZhIGLTbf5FsLvUZwitcPBq80Qk2Tm18jjvd6kUMXTP85_dsal59u0vf5ysDJM2Tcvehacbdg4t", "width": 3024}], "place_id": "ChIJi8ImL7b1QQ0RFB5AGWYJCyQ", "plus_code": {"compound_code": "56PF+J5 Torrejón de Velasco, Spain", "global_code": "8CGR56PF+J5"}, "reference": "ChIJi8ImL7b1QQ0RFB5AGWYJCyQ", "scope": "GOOGLE", "types": ["police", "point_of_interest", "establishment"], "vicinity": "Plaza de España, 13, Torrejón de Velasco"}, {"business_status": "OPERATIONAL", "geometry": {"location": {"lat": 40.1988064, "lng": -3.7961437}, "viewport": {"northeast": {"lat": 40.2002361802915, "lng": -3.794802819708498}, "southwest": {"lat": 40.1975382197085, "lng": -3.797500780291502}}}, "icon": "https://maps.gstatic.com/mapfiles/place_api/icons/v1/png_71/civic_building-71.png", "icon_background_color": "#7B9EB0", "icon_mask_base_uri": "https://maps.gstatic.com/mapfiles/place_api/icons/v2/civic-bldg_pinlet", "international_phone_number": "+34 918 10 63 37", "name": "POLICÍA LOCAL TORREJÓN DE LA CALZADA.", "opening_hours": {"open_now": true}, "photos": [{"height": 1997, "html_attributions": ["<a href=\"https://maps.google.com/maps/contrib/101011514566255713371\">LLG</a>"], "photo_reference": "AWn5SU6-mX_L6H-wTkVjt3pKdOcwcAkEhCo_ZTtXQDm45c9jSIv5qVKhZNYhpC3KTBSFUSvKCAAyL7_9Ij2tM7jXN1jv6-N9Rln2iY7Q8QvcXiz8MPdOZdEhLFKNVW5zaLMUvRbpqlMAOyLPhVJKdIxwiA5l0zsM5Rw_z1e8nYlLQaUFksbXuXd0YUYg3gMxEGvg1cDVkc1LYoqBEEt8XTtfyFBUt7O4YeM69QcNOhvqM7yRhSoHpLMC3o-OMPKetIPFjVkqdLptG6iJNSA30Jq_RJNok1qqEn40phYdr7mWhPVkNF_CNFG04bmtwOO0qK3i9-pLeVeJ6EFVd9vicMheQG8HCQ6lQ_mhmjK-xcx1FdLckZJ7L6U85XIuLI3OBjdUpkA-9wNjTHdArQHZgooS6IkSjOMALQeHVBNIx0sDL4QNFQcF4gv6UwX-xvG7ldLy2y6c72AfI_4mly7Qie1yZBxGVhdIYMVtYCfuBQM44QxKTIj1M2vU7TGFgDCFnNaYVSIzbV-zzJBcfrSErTurwVOzImkivpgZMXgdC3jdi7QTQAXBx7IltEwOv5lLT82c9e7H68JQesDaEGvCzT7QatbLgxu2uwM5jmdvQp7TeVAdP6NZHx19WGf7iWz9fWEyVMKXCw", "width": 1080}], "place_id": "ChIJVXQBCVz0QQ0RTPLd5OeI6hM", "plus_code": {"compound_code": "56X3+GG Torrejón de la Calzada, Spain", "global_code": "8CGR56X3+GG"}, "reference": "ChIJVXQBCVz0QQ0RTPLd5OeI6hM", "scope": "GOOGLE", "types": ["police", "point_of_interest", "establishment"], "vicinity": "Calle de 12 de Octubre, 46, Torrejón de la Calzada"}, {"business_status": "OPERATIONAL", "geometry": {"location": {"lat": 40.22996479999999, "lng": -3.7795453}, "viewport": {"northeast": {"lat": 40.2312701802915, "lng": -3.778307219708497}, "southwest": {"lat": 40.2285722197085, "lng": -3.781005180291502}}}, "icon": "https://maps.gstatic.com/mapfiles/place_api/icons/v1/png_71/shopping-71.png", "icon_background_color": "#4B96F3", "icon_mask_base_uri": "https://maps.gstatic.com/mapfiles/place_api/icons/v2/shopping_pinlet", "international_phone_number": "+34 916 05 68 17", "name": "Segurimagen", "opening_hours": {"open_now": false}, "photos": [{"height": 1500, "html_attributions": ["<a href=\"https://maps.google.com/maps/contrib/105314794507818261453\">Segurimagen</a>"], "photo_reference": "AWn5SU7byHBxqultQ4g68CsMaDWvtM7Q9yfqjpsu-whgm2ov2CnZEHZCqkznpFMrvqHtAzMD-iv7Aek9tuYbataQb-dmlOlC-ewUzIbNcM_x1CrxtnWy6BwaFUBJoHbh4KgGoNGCc4UUZAt7oBv87yoZfuEIRxGtye5c37K7n7oEHIRkis5xoseUS6EY4ld7Oxjuht3WcyPTGVhrEKeR-tvfcf555O3IHWkt05ACTaRi1GKESqrcRPUXC22fNJiIb5WQN2clt-6bGHpZm8x_fagg6RCT2tHfge-A0nsRcqGaLjo-jwyc1XA3I2bgpAVm-MUarsEqAyslDYo", "width": 2000}], "place_id": "ChIJX2-3mCH1QQ0R028coaVI-zw", "plus_code": {"compound_code": "66HC+X5 Parla, Spain", "global_code": "8CGR66HC+X5"}, "rating": 4.3, "reference": "ChIJX2-3mCH1QQ0R028coaVI-zw", "scope": "GOOGLE", "types": ["clothing_store", "police", "point_of_interest", "store", "establishment"], "user_ratings_total": 62, "vicinity": "Calle Icíar Bollaín, 7, Parla"}, {"business_status": "OPERATIONAL", "geometry": {"location": {"lat": 40.1901414, "lng": -3.839020399999999}, "viewport": {"northeast": {"lat": 40.1915033302915, "lng": -3.837643419708497}, "southwest": {"lat": 40.1888053697085, "lng": -3.840341380291502}}}, "icon": "https://maps.gstatic.com/mapfiles/place_api/icons/v1/png_71/civic_building-71.png", "icon_background_color": "#7B9EB0", "icon_mask_base_uri": "https://maps.gstatic.com/mapfiles/place_api/icons/v2/civic-bldg_pinlet", "international_phone_number": "+34 918 31 58 62", "name": "POLICÍA LOCAL CUBAS DE LA SAGRA.", "opening_hours": {"open_now": false}, "place_id": "ChIJKRrRQ5HzQQ0RXqyEWqu90Yo", "plus_code": {"compound_code": "55R6+39 Cubas de la Sagra, Spain", "global_code": "8CGR55R6+39"}, "reference": "ChIJKRrRQ5HzQQ0RXqyEWqu90Yo", "scope": "GOOGLE", "types": ["police", "point_of_interest", "establishment"], "vicinity": "Calle Cerca, 1, Cubas de la Sagra"}, {"business_status": "OPERATIONAL", "geometry": {"location": {"lat": 40.233838, "lng": -3.7725998}, "viewport": {"northeast": {"lat": 40.2351540802915, "lng": -3.771121069708497}, "southwest": {"lat": 40.2324561197085, "lng": -3.773819030291502}}}, "icon": "https://maps.gstatic.com/mapfiles/place_api/icons/v1/png_71/civic_building-71.png", "icon_background_color": "#7B9EB0", "icon_mask_base_uri": "https://maps.gstatic.com/mapfiles/place_api/icons/v2/civic-bldg_pinlet", "international_phone_number": "+34 913 22 02 05", "name": "Parla police station", "opening_hours": {"open_now": true}, "photos": [{"height": 4032, "html_attributions": ["<a href=\"https://maps.google.com/maps/contrib/102973824296181759139\">Eduard Allan</a>"], "photo_reference": "AWn5SU7g8k-rtIGM0D4ZLjSpJa-smax4jA_XIKQjaooqVp2rJ-KZuyEMrdngXoc-LpTZj6G14CAUnk3rqYseXYBUAMzAK-az1PqM-AvK6Af3kK46mJ2n3BhFNcgDmBEzerNxK4CxCSzcFA_juvu_WkQ4zSA_InG9Jv-zMZJCjcIoTk-povqJm1a_wGPWXy-QH98sMfaVy6Y0UkG9MSXEuRz_8--dC-siBT8N1-Li6eVB6eqEah6jDwbGP6-pY00nW3_gAk-n93Xs7iQMdUmgCr68JNbfO6JY-PNh4fgcMJV-K9uysZN62L-DvtaE0NadhxWwzoCRVsVGLWs4dGhnEfPYvVl-hy_DIBfv5kzXSgdvq003MPz2htzdlICqjkJIBH3QmpLV3zneyWEz3qCSaHePiypRrKOmKlIbtEtQhQ85IupNFhcuvEq0h6VGfQwKE5u_EFA87-8kzz6fikBe_6Dv1nfyh2d4Sdms2Wlw4pCF13FMdIGJWoM8qc0GpSSyfbj7BN13fdNy2nkL6WNds6oGocUEHMrjtmz8DEq26AsA-G4KMmQDtqbv0hzu-zXT_mvxkBzZbAS3Yhv3gVN9vOqZY1bbvVjjwR8eC8V3-GleVN3vSlYjJASsROXAofht6EUjIsDGCMJU", "width": 3024}], "place_id": "ChIJ4c_OFzv1QQ0RyhdRMD_Pd3M", "plus_code": {"compound_code": "66MG+GX Parla, Spain", "global_code": "8CGR66MG+GX"}, "reference": "ChIJ4c_OFzv1QQ0RyhdRMD_Pd3M", "scope": "GOOGLE", "types": ["police", "point_of_interest", "establishment"], "vicinity": "Avenida de la Escuela Pública, 2, Parla"}, {"business_status": "OPERATIONAL", "geometry": {"location": {"lat": 40.2459113, "lng": -3.7709313}, "viewport": {"northeast": {"lat": 40.24719203029149, "lng": -3.769315469708498}, "southwest": {"lat": 40.24449406970849, "lng": -3.772013430291502}}}, "icon": "https://maps.gstatic.com/mapfiles/place_api/icons/v1/png_71/civic_building-71.png", "icon_background_color": "#7B9EB0", "icon_mask_base_uri": "https://maps.gstatic.com/mapfiles/place_api/icons/v2/civic-bldg_pinlet", "international_phone_number": "+34 916 99 01 02", "name": "Intervención de Armas de Parla", "opening_hours": {"open_now": false}, "place_id": "ChIJ87efGzP1QQ0RJFS6Ko6yc-I", "plus_code": {"compound_code": "66WH+9J Parla, Spain", "global_code": "8CGR66WH+9J"}, "rating": 4.9, "reference": "ChIJ87efGzP1QQ0RJFS6Ko6yc-I", "scope": "GOOGLE", "types": ["police", "point_of_interest", "store", "establishment"], "user_ratings_total": 11, "vicinity": "C/ Villafranca de los Caballeros, 4 esq. C/ Lago Blanco, (Edificio de la Jefatura de Policia Municipal de Parla), Parla"}, {"business_status": "OPERATIONAL", "geometry": {"location": {"lat": 40.2458649, "lng": -3.7709306}, "viewport": {"northeast": {"lat": 40.24718608029149, "lng": -3.769287319708498}, "southwest": {"lat": 40.2444881197085, "lng": -3.771985280291503}}}, "icon": "https://maps.gstatic.com/mapfiles/place_api/icons/v1/png_71/civic_building-71.png", "icon_background_color": "#7B9EB0", "icon_mask_base_uri": "https://maps.gstatic.com/mapfiles/place_api/icons/v2/civic-bldg_pinlet", "international_phone_number": "+34 912 02 47 30", "name": "POLICÍA LOCAL PARLA.", "photos": [{"height": 3840, "html_attributions": ["<a href=\"https://maps.google.com/maps/contrib/102311562716818261384\">José Miguel Martín</a>"], "photo_reference": "AWn5SU4CC4S4S0I3x1C7c_tG3cHYQIG-itQQZldVCgvE_oHEqlhUbBrTmYLZgSYXSywHCIZxuPWS2141CF0esjyTcQa2TQRSVUI4nUkvCbtwOB30UjkXoWO3ABws-aM6Vm4g6nzWeBC-sbrqM3ZZXKoGYcJ6nNWcsHH4u8fI7UhL-Ml5hDXxIvuO_fAlj2uo0Ja2PkTFx6giKXbeNK0VjrPEGLU72qlCkcZZ_MvuAiXPmLyxNX3bSE-8Pc7wtDM7RvJSSH6sVy6DZ5ZzqeqRIlgRa7EZ7JNfmBZvKth9DqCb2CEy1Or5MrehQz4uOIFdixn7ULpPRE937__CXyP8xigUJWEgNdbHkkSuXpJGgCSOpG5kf7kZ7CY-JakAsNJ3TtACNPtSskvj4TcBW5YaDeVsfjny1LdWLRMjN5YXyebesYS7qcdtgsB59scK4zQ4X1xT51JE6OiuvBAogDMxPb04pNbPWYb824xmklE7yZV3RjF5-gHtPsO7vh9hBHePuZWwNeIv-FKPUZF-8WuOa2wfFvc5Pkq0lCZs_5eJjvSjq_-UUMpHcFZTptQz2l-fKHk9GVUSdbNRXblXWdyPg1tuKvZc19GlFbUlY49pd_Vya_vHMk8UErVCPPKuqeeNoFARc8RMKA", "width": 2160}], "place_id": "ChIJC4n3GjP1QQ0REqsGHpU2obI", "plus_code": {"compound_code": "66WH+8J Parla, Spain", "global_code": "8CGR66WH+8J"}, "reference": "ChIJC4n3GjP1QQ0REqsGHpU2obI", "scope": "GOOGLE", "types": ["police", "point_of_interest", "establishment"], "vicinity": "Calle Villafranca de los Caballeros, 25, Parla"}]