[{"business_status": "OPERATIONAL", "geometry": {"location": {"lat": 40.6784811, "lng": -3.6156345}, "viewport": {"northeast": {"lat": 40.67984243029151, "lng": -3.614269369708498}, "southwest": {"lat": 40.67714446970851, "lng": -3.616967330291502}}}, "icon": "https://maps.gstatic.com/mapfiles/place_api/icons/v1/png_71/parking-71.png", "icon_background_color": "#7B9EB0", "icon_mask_base_uri": "https://maps.gstatic.com/mapfiles/place_api/icons/v2/parking_pinlet", "international_phone_number": "+34 918 43 57 02", "name": "Parking Restaurante Casa Juaneca", "photos": [{"height": 2976, "html_attributions": ["<a href=\"https://maps.google.com/maps/contrib/109485523394870586166\">Mariano Martín Álvarez</a>"], "photo_reference": "AWn5SU5bIK52q-KXUEDgVdggCuiHywT4jakd5b3SxW-7KGmlTlRMsKkDaWRDijFdfyiBHrzL8lVzwcdTBCid4eO_Y9LsLCTX9-24uQwiuJIntBHHbS7v9DrtTj68pDUKQ0YUvn6nKsm3f8vdjoG18thFbVaaE4WJx_ZqRCyuIud2Wb6IqljDXIetaN6xmdUnpsWOSnYbWmg8zW1ZmM9gkNCM_pm3aP8nmlq3IPpufB8ZVGQL7S_r9HS74BaDDNbNX4-phi93ED6pg6JZI3Fxhdh8-yw8XpNtIlYrYyQbHdQyK-z8MKo13rfhd1lgoWp4kc8TZzGlBt9Bmq6XpO_sHz3n9tXgCzvJWquH3Sriz6QmJWR6KuLZ5Jc1_4OEXAeYngCWa0JReZs6bmbBCkon-tL-NbpsHZyxo_sSr44TjO1JTqV4_md2-vB4hgv__WRlJibLlUmQtbXnmpn1ZK8QG9coeBNSAjREN6IPZR06L6ujQlQjwr0sz9ktkTRMvqaeDZOQu10GUgchy8chGYH55J4Cgqky6LLjj1tT82_x61oy1XaeAc1TXXW9qzLqJKcseauQRgQTzQqfAF8VXRYI7YMPnuIGzLwDmzWCOwtRrbwxfxaSz5FedkB4fqJv8mdXdQKBtX4EEA", "width": 3968}], "place_id": "ChIJA_TVNgDRQw0RpmXu3Ppl3D8", "plus_code": {"compound_code": "M9HM+9P San Agustín del Guadalix, Spain", "global_code": "8CGRM9HM+9P"}, "rating": 4, "reference": "ChIJA_TVNgDRQw0RpmXu3Ppl3D8", "scope": "GOOGLE", "types": ["parking", "point_of_interest", "establishment"], "user_ratings_total": 2, "vicinity": "Calle del Olivar, 4-8, San Agustín del Guadalix"}, {"business_status": "OPERATIONAL", "geometry": {"location": {"lat": 40.6802554, "lng": -3.6171275}, "viewport": {"northeast": {"lat": 40.6815770802915, "lng": -3.615779369708497}, "southwest": {"lat": 40.6788791197085, "lng": -3.618477330291502}}}, "icon": "https://maps.gstatic.com/mapfiles/place_api/icons/v1/png_71/parking-71.png", "icon_background_color": "#7B9EB0", "icon_mask_base_uri": "https://maps.gstatic.com/mapfiles/place_api/icons/v2/parking_pinlet", "name": "Aparcamiento de movilidad reducida", "photos": [{"height": 1184, "html_attributions": ["<a href=\"https://maps.google.com/maps/contrib/115055383090176917276\">Miguel angel Manzaneque gallego</a>"], "photo_reference": "AWn5SU6Tr8tH1il8_eGbPYgFx6qyoFWsA5SyRaxLPob-M4OWK1aZt7FXOfAqSNEd4gq6VQR2emgXxpB_CcC2pfn33i3951QIL50oFxtmbYLmeDEHvvzAmW4F3_y5a4O-ap7rGvkd_RH5RLIQ3u_hvevjVzgNPbXcafdbwxmDCnVgMNkMa3mY5Cs-4QcFGqqVQT0YBZkYL206Iz9e1iL2b3HNwr-eVj772NrBTSSWso7XpvBHeOrZV7l01_u5Zvk2N6_Vc2naqH6m4wEpMhq8JOhmQWd54m4zExN4vy1DhfjFXaWf5M50NItVl3URKXJcFdlZ6LcG5zP6UDViPmOpjWx34SSmp2HB56hhfFHcoiw_UY8YAi752PRm4p-G9OMUAR9MJ6gaBbWMktUP6_L3zWd4BA9y0WuD-WtSVrDXIwvi0fiFarB8QBH8P5PrjH23noJFZLDNhkrRv97GfwZf5tVDFOWEbqx_FU7JM63KLdYamD6fAWIQIbjCVCRDXyCNx47GJDtRjoI75VB32Mj5hdJ_Y5Vhs9JrHleYgOrbwsd38zcUKDpqWWmwfwgND09lQeYAA3yA-FenD5AtG_W5lArFPS2WlL4M1r8Vbs5nG1HvOqO4vor_gRdbaW-Qoi0lWU35R_FYhg", "width": 1539}], "place_id": "ChIJnVZ56EvRQw0RH6soKFnPNgQ", "plus_code": {"compound_code": "M9JM+44 San Agustín del Guadalix, Spain", "global_code": "8CGRM9JM+44"}, "reference": "ChIJnVZ56EvRQw0RH6soKFnPNgQ", "scope": "GOOGLE", "types": ["parking", "point_of_interest", "establishment"], "vicinity": "Calle de Julián Berrendero, 16, San Agustín del Guadalix"}, {"business_status": "OPERATIONAL", "geometry": {"location": {"lat": 40.680575, "lng": -3.617679999999999}, "viewport": {"northeast": {"lat": 40.6817447802915, "lng": -3.616296319708497}, "southwest": {"lat": 40.6790468197085, "lng": -3.618994280291501}}}, "icon": "https://maps.gstatic.com/mapfiles/place_api/icons/v1/png_71/parking-71.png", "icon_background_color": "#7B9EB0", "icon_mask_base_uri": "https://maps.gstatic.com/mapfiles/place_api/icons/v2/parking_pinlet", "name": "Parking", "photos": [{"height": 948, "html_attributions": ["<a href=\"https://maps.google.com/maps/contrib/115055383090176917276\">Miguel angel Manzaneque gallego</a>"], "photo_reference": "AWn5SU6am-M8KNOXebD-MeMKuJI2awM-AGVwXRDsGGmXO5je0t39Ny26QCSQuKaGa3x8IuONvavGXR3Ps_YDdg6jURYI8ppVfhrNnU6JZP5b8yFdg_IETBeMFQfCKYz-Bau2B01Q-_71BuJrPbADWlYSGKWxzZz3uwp6YObUXLIA08gbeLMIJLpZMOdxi4_aHtEWlXpsYbRFdwSiUP5wWRWX8jQ7ALmgXpPFca5IoccpfmoUfMxrmN3WHk-lFeZBKE_2sJCJKEejS-0fT7zFajaibngGU4M5nA_ORfOyIwfo4JrpdGQHROcAFTJyd7NhF0x-qU9pfyemqXignv0jTakxHTx0uH8FvGIOgxnnMK4k8YI6f1FsckL8KmGOKFL3rNneFETqESkrOD0215467aoGjC_vc85hkpDq9YLmhkWZabg_rYAdsD54bxoingY7X97ts4saSCmf_1CTrijBJ2E-CBw1Oq-7FSQjBqirQ09X3IHfqryMnt28Psl3iEwKLVtN6nnB1fyJRehJX6bUKARLHLjXSvItXzcgNGtgh2oQIdFHx5tkVkTFe0vl9YYY4NBGG_qmgHOtHIW_WT4bxb7RPK-9JAMJpCkTFezFZCGWYzgbBYKEqFMOVviKVV6YaGdSLCE9zAlQjkkUHgyAe4zTHKfcSAQ", "width": 2048}], "place_id": "ChIJj-tV6aHRQw0RYCcYCAN6pEg", "plus_code": {"compound_code": "M9JJ+6W San Agustín del Guadalix, Spain", "global_code": "8CGRM9JJ+6W"}, "rating": 3.9, "reference": "ChIJj-tV6aHRQw0RYCcYCAN6pEg", "scope": "GOOGLE", "types": ["parking", "point_of_interest", "establishment"], "user_ratings_total": 17, "vicinity": "Calle Castilla y León, 24, San Agustín del Guadalix"}, {"business_status": "OPERATIONAL", "geometry": {"location": {"lat": 40.6860373, "lng": -3.6119052}, "viewport": {"northeast": {"lat": 40.6872649802915, "lng": -3.610411519708498}, "southwest": {"lat": 40.6845670197085, "lng": -3.613109480291502}}}, "icon": "https://maps.gstatic.com/mapfiles/place_api/icons/v1/png_71/parking-71.png", "icon_background_color": "#7B9EB0", "icon_mask_base_uri": "https://maps.gstatic.com/mapfiles/place_api/icons/v2/parking_pinlet", "international_phone_number": "+34 918 48 75 66", "name": "Aparcamiento Supermercados Hiber", "opening_hours": {"open_now": false}, "place_id": "ChIJ-9v3OVDRQw0Ruyj-7f3k44o", "plus_code": {"compound_code": "M9PQ+C6 San Agustín del Guadalix, Spain", "global_code": "8CGRM9PQ+C6"}, "reference": "ChIJ-9v3OVDRQw0Ruyj-7f3k44o", "scope": "GOOGLE", "types": ["parking", "point_of_interest", "establishment"], "vicinity": "Avenida Alcalde Lorenzo Ginés Brandín, 2, San Agustín del Guadalix"}, {"business_status": "OPERATIONAL", "geometry": {"location": {"lat": 40.6860991, "lng": -3.6120056}, "viewport": {"northeast": {"lat": 40.68729938029149, "lng": -3.610464819708498}, "southwest": {"lat": 40.6846014197085, "lng": -3.613162780291503}}}, "icon": "https://maps.gstatic.com/mapfiles/place_api/icons/v1/png_71/parking-71.png", "icon_background_color": "#7B9EB0", "icon_mask_base_uri": "https://maps.gstatic.com/mapfiles/place_api/icons/v2/parking_pinlet", "name": "Aparcamiento para bicicletas", "opening_hours": {"open_now": true}, "place_id": "ChIJCxCppqzRQw0RT5cqYFzXI6M", "plus_code": {"compound_code": "M9PQ+C5 San Agustín del Guadalix, Spain", "global_code": "8CGRM9PQ+C5"}, "reference": "ChIJCxCppqzRQw0RT5cqYFzXI6M", "scope": "GOOGLE", "types": ["parking", "point_of_interest", "establishment"], "vicinity": "Avenida Alcalde Lorenzo Ginés Brandín, 2, San Agustín del Guadalix"}, {"business_status": "OPERATIONAL", "geometry": {"location": {"lat": 40.6914287, "lng": -3.6095878}, "viewport": {"northeast": {"lat": 40.6927088802915, "lng": -3.608218719708497}, "southwest": {"lat": 40.6900109197085, "lng": -3.610916680291501}}}, "icon": "https://maps.gstatic.com/mapfiles/place_api/icons/v1/png_71/parking-71.png", "icon_background_color": "#7B9EB0", "icon_mask_base_uri": "https://maps.gstatic.com/mapfiles/place_api/icons/v2/parking_pinlet", "name": "Parking Dia", "photos": [{"height": 1184, "html_attributions": ["<a href=\"https://maps.google.com/maps/contrib/115055383090176917276\">Miguel angel Manzaneque gallego</a>"], "photo_reference": "AWn5SU7zqSzvXfrZLsMoAdzG1C5sPGcUoODJXKzEhoXMW9Ue1UlLmvoLvxW7_r5PZv03RoOdGSGtEN50bmHcXL9yaUpjV6r1CQnh8A7Y6G1Ja7ABEVuJHgvYvVC_R9eYeXkuIeGaD-0xu0rbkV3VpkNpkwnsjmcTcJ3idkM_Q7y29IB43V6q5NJjb4sqAgCNb-qqLE9gqeaLrBBMuNFuVSRqqe-om5dEI3QWdrhxDNKM6FyUtPX2B_hjVZkS-Bx8YBunFw87EWzhFuUsmlF6jkgfesjkyDo1_yKUdEfjs3L3Cq7uQC-YZegNkyH944i6raYhzm_D17hLtgqPAtyqCpQBJTuHA6n0EJKWqSu8O-0ioQpqPhGyRX1ieykzniGk1RnbIYzRknjGJl9W1LYyonBkbR6eDpw_3bXHTNPBuoGhdj4_RHKZfrW2p-YDWGGLF83jDN6ewJks1ersWjVc6RVC8YUwjBYtXlksAufWzrS_MAndeHoYxGjGlr6UNYvbHy5YpS_9CovgpzW7nUyMRu2wQJdsz649h72Wp9ZPS3UsmlNga8f6b0jgQiFFSpx5pohHhiHbj7IgxCQmTSvbWH6hHv_nCBTOm1nHKfbbeumm4fKEUEEXrwqLBUEW8HlMxVoyfV51bvxs", "width": 2560}], "place_id": "ChIJS4qqXbDRQw0R4rltLp15ZTM", "plus_code": {"compound_code": "M9RR+H5 San Agustín del Guadalix, Spain", "global_code": "8CGRM9RR+H5"}, "rating": 3.8, "reference": "ChIJS4qqXbDRQw0R4rltLp15ZTM", "scope": "GOOGLE", "types": ["parking", "point_of_interest", "establishment"], "user_ratings_total": 4, "vicinity": "Calle del Mesto, San Agustín del Guadalix"}]