[{"geometry": {"location": {"lat": 40.1833919, "lng": -3.1080097}, "viewport": {"northeast": {"lat": 40.22283824591793, "lng": -3.068478632285232}, "southwest": {"lat": 40.14041962113326, "lng": -3.162634351112632}}}, "icon": "https://maps.gstatic.com/mapfiles/place_api/icons/v1/png_71/geocode-71.png", "icon_background_color": "#7B9EB0", "icon_mask_base_uri": "https://maps.gstatic.com/mapfiles/place_api/icons/v2/generic_pinlet", "name": "Estremera", "photos": [{"height": 3024, "html_attributions": ["<a href=\"https://maps.google.com/maps/contrib/112901356560039090122\">Fran Brale (granjefe7)</a>"], "photo_reference": "AWn5SU6I_JkPxT5Cr8wUYRR3D4w1tZSQ_8ECMb3lijLVPm5ehAdUQjS418oErDiFmL_Jjol0QAVvAq0tQi3AyzbMhk8DCbotngwfx9z4oNYqHF54PKpULT9TaKRaHUx3B7H_9rBO2zb4MbwdBMrVf7EQSe-ZNz7YpikURCq9F_E3hR4DO7sKnTQEcZ4Lk2T1ZGfwJNDSszuy0e5wqDEr8r_9Im_EgDgZo6nXtNppkkl1F5Z9T5pAHJ4boieRf4mfsiqhq9Fj40Ec1B06Jy1pkDyo0a8PVnl_TsQPm80gXWw7Q_HDuBLd0yEoGrt5bdHyOt2NheEkkt-uFsvhTT3_lK_sYRuGx3Ua2WqrT4xT9bda_L9GISoQOI1EbR55meZr_g5OCJ98jNtQEU_t5hGz-XTuPvFbeX1ImmI0OVa1HjpTxks4Qv-cSJt4IunSM83wa93f0MSj9FBCnhyuccmWUWjOvdQElTo_MgCcACG2DiqYREoyv1G60i0F-bGh8dvI9Hify3k8BCYuspNtzmmh35_BF9COI7umbclgv4st-bzvYmfcf1HHLiaPbLMtWjWsb1YK5fBp_6LnD1o2UFYW1Lq5bU9Eq24wmP3fy75E_BEPG-SkCwDOPN9M_1VzPYhuTXXa", "width": 4032}], "place_id": "ChIJZbIowAJiQg0RlomRuO1q7u8", "reference": "ChIJZbIowAJiQg0RlomRuO1q7u8", "scope": "GOOGLE", "types": ["locality", "political"], "vicinity": "Estremera"}, {"business_status": "OPERATIONAL", "geometry": {"location": {"lat": 40.2285172, "lng": -3.1118373}, "viewport": {"northeast": {"lat": 40.2298936302915, "lng": -3.110516419708498}, "southwest": {"lat": 40.2271956697085, "lng": -3.113214380291502}}}, "icon": "https://maps.gstatic.com/mapfiles/place_api/icons/v1/png_71/school-71.png", "icon_background_color": "#7B9EB0", "icon_mask_base_uri": "https://maps.gstatic.com/mapfiles/place_api/icons/v2/school_pinlet", "international_phone_number": "+34 918 72 14 54", "name": "Colegio Rural Agrupado “Los Olivos” - Brea de Tajo", "opening_hours": {"open_now": false}, "photos": [{"height": 480, "html_attributions": ["<a href=\"https://maps.google.com/maps/contrib/100738069322932966635\">Colegio Rural Agrupado “Los Olivos”</a>"], "photo_reference": "AWn5SU61WLKvzovcsNGBObEb2JzUg2swckL2hSnkvge2weL6GgEuYOh7TwKn-L8nit651hPNZ15btVdV2JmAtz2qMNRwwF_HcSFugoZHbA_EdcRa3VBIiCy7ni-lX5p_B2K2PuSsMAqDgLf-AI7WkQa6XVah3QM_2UHjc_POKFpdq2T5cmc-lCskvo3L9ouW2-cJuIyIvBlKOvfSC24H1hldtWPYMr0L4m8YLmjQ5nLIPrA-eXlmnA4pMDbYR4XEdzluWPl57ED-xx32FDJFzoEsH3JqxiF2KUBPCl4hFy3ME4_9whteHtdRLb3aYopSyvGuwooxKVZZL4c", "width": 640}], "place_id": "ChIJXz2sdjNgQg0RXh_H4_TV_XI", "plus_code": {"compound_code": "6VHQ+C7 Brea de Tajo, Spain", "global_code": "8CGR6VHQ+C7"}, "reference": "ChIJXz2sdjNgQg0RXh_H4_TV_XI", "scope": "GOOGLE", "types": ["school", "point_of_interest", "establishment"], "vicinity": "Calle Mayor, 29, Brea de Tajo"}, {"business_status": "OPERATIONAL", "geometry": {"location": {"lat": 40.2300289, "lng": -3.109556300000001}, "viewport": {"northeast": {"lat": 40.2313174802915, "lng": -3.108163669708499}, "southwest": {"lat": 40.2286195197085, "lng": -3.110861630291502}}}, "icon": "https://maps.gstatic.com/mapfiles/place_api/icons/v1/png_71/civic_building-71.png", "icon_background_color": "#7B9EB0", "icon_mask_base_uri": "https://maps.gstatic.com/mapfiles/place_api/icons/v2/civic-bldg_pinlet", "international_phone_number": "+34 918 72 10 13", "name": "Brea de Tajo Town Hall", "opening_hours": {"open_now": false}, "photos": [{"height": 1836, "html_attributions": ["<a href=\"https://maps.google.com/maps/contrib/116729661041830062132\">Pablo Blue</a>"], "photo_reference": "AWn5SU73X5oUvbwbljBWGXbjRsRoXlzhYs60GS9CXjCGVq5ZITQjaRVJh5rHQ_Iw8g-SJG3i9ZT7TEUYfOT77tIlj30zXp21gl3KBW8-GsdsfcvsgLevRsG_3a6KHcNGX0hclgtwAP1eYo99tDwzu1nWG5sFlzt2WVLlcWOoOU_7F0uDxoTI8ae7JAdITCpAZ2lASYozDqsPMuk1Mum8F1kpV1wOqD0SvXfHAQR9E3rkH6cJZBsD6ZCOuuPwi3YokGUDsoyq7IZpcXwZUHr7D7dd_D-nkfYU_gWpjmQWHwYGEH9y3kuGUBjUt8PrbvLh0wINAVvYyk900fP_dJKGNdV6d6kgMuh2DgF_p_ZRbaGKqMUGcVxlcocwZe6acWNH4eRyVfuuEXWqJ7gw7lvTLzawj7PoV7Mo-1yzvb-KLcVmw4am3X5yqYMtRX6YM6OYTIS_TT3MH93NFZPlyqjSgw3JCC82d0YVEOAjajGtjGolNxi5K7g1rk_Se0OX0NM0lTCVOWT7I8bsNfEbgQeRu4qFMmq0ldOG3n23ZwlS24VsXKrIKbSAuQddaQtzvrq4AVuPy_xZb0NsqPh9xzQsHK6M8yCisHt5L8JIeT-RYciyAhENJZJFOSLWB3r48LYgSt1gwte2nya2", "width": 3264}], "place_id": "ChIJn9ozRjJgQg0RIxGSrOhvjG8", "plus_code": {"compound_code": "6VJR+25 Brea de Tajo, Spain", "global_code": "8CGR6VJR+25"}, "rating": 4.6, "reference": "ChIJn9ozRjJgQg0RIxGSrOhvjG8", "scope": "GOOGLE", "types": ["city_hall", "local_government_office", "point_of_interest", "establishment"], "user_ratings_total": 65, "vicinity": "Plaza de Felipe VI, 1, Brea de Tajo"}, {"business_status": "OPERATIONAL", "geometry": {"location": {"lat": 40.2286625, "lng": -3.1125885}, "viewport": {"northeast": {"lat": 40.2299826802915, "lng": -3.111151919708499}, "southwest": {"lat": 40.2272847197085, "lng": -3.113849880291502}}}, "icon": "https://maps.gstatic.com/mapfiles/place_api/icons/v1/png_71/generic_business-71.png", "icon_background_color": "#7B9EB0", "icon_mask_base_uri": "https://maps.gstatic.com/mapfiles/place_api/icons/v2/generic_pinlet", "name": "Centro de Actividades Juan Carlos I", "photos": [{"height": 3000, "html_attributions": ["<a href=\"https://maps.google.com/maps/contrib/116098533032577855814\">Doncelador</a>"], "photo_reference": "AWn5SU6dRWJhFH59I1GrybTqhhEM_On-Ubj_4eGMY_Px8c4b4NFNsV68M72tr6q-p3uKXgH-ZD3QVFOQFN5DgYJeZEo7Qq2B7Qzv8M8kZYSlrOKg0Sv5AEv5V8Jw51KJrzr2RCXKD38kKun_cn5E2XDEIYZ0sirHCBUoVG15mI5iLouSxErG6XqP4yVCG65QfDZmLHRjE0lmowGFHux1GVxhkbgIYfH0tyiDUjfv6GSXM80rHIr7qQOfhV5XeVqF4aSu9EM-DTHRFO2_suXvGIKybiGk_l8vNOtloAT987PX36lNrgbeRukL9LxsUa9pFqBZ8xq0wIBaZs4kD24ZMVwxgvwLlR_90EKxVRWJhIve5n5EWGbPS5wz3sT4yAIHenYTER2e_qqd4IrXULLBH3kPah6rlqeLM0l8UErnxRsKA0TB_3ghLj8-Y4ERxUuGbHXrg2g067UWR-Wufe6ST38lHaT52asO7-pYUsaOCVi9saeNt-J4KqKL_RG7hoNK7nyyVY27Acvp3vlKA8lqYI5tMdoCkmAhRVbidKlaZAy4FmWdKsK5WW-aofOc_h9wBaI7cqVCQ4FUCREbHwPPS8SpTaMZhrHhxLgofxQqdG33OOUt0W17Fk-roh-ZU_PAVXmj-v-uAg", "width": 4000}], "place_id": "ChIJrT5WfjNgQg0RBbxkIwqc5ps", "plus_code": {"compound_code": "6VHP+FX Brea de Tajo, Spain", "global_code": "8CGR6VHP+FX"}, "rating": 4, "reference": "ChIJrT5WfjNgQg0RBbxkIwqc5ps", "scope": "GOOGLE", "types": ["point_of_interest", "establishment"], "user_ratings_total": 16, "vicinity": "Calle de Julián Nicolás, 3, Brea de Tajo"}, {"business_status": "OPERATIONAL", "geometry": {"location": {"lat": 40.2232484, "lng": -3.1517857}, "viewport": {"northeast": {"lat": 40.22462143029149, "lng": -3.150470219708498}, "southwest": {"lat": 40.22192346970849, "lng": -3.153168180291502}}}, "icon": "https://maps.gstatic.com/mapfiles/place_api/icons/v1/png_71/civic_building-71.png", "icon_background_color": "#7B9EB0", "icon_mask_base_uri": "https://maps.gstatic.com/mapfiles/place_api/icons/v2/civic-bldg_pinlet", "international_phone_number": "+34 918 74 08 80", "name": "Centro De Menores Teresa De Calcuta", "photos": [{"height": 908, "html_attributions": ["<a href=\"https://maps.google.com/maps/contrib/111648687580263049679\">Cesar Maldonado Abogado</a>"], "photo_reference": "AWn5SU4j7y_InCdRU0s0KISrw_QEDb4tFAvRAMuDHXR4bKWY6-gxVJkGF9RQNQOYmmrotk4g-CD618XSqwpwTeeIx_JgFDJfkxiEI0LWU1Eqy2g9TcqwCWZDbTOPBnFx97HJBcy7ynrcrRsPw89Mr57S5hp0QvCf3kwPMsjL3NStQ45sd1oHbq3E0vfgLlUCKe57Wmhj94Phj2Dd8iEvU90_Hcj73ksZG5tFLyj0UGpYrhIxcVwtixBX_8kvHlWDKrA_NzBY9npQplv6lmc2VYz0h8R1aROsgL5VMU1JlmHCjxZGHYv4-R0J3UAQf8BqvaSJIwAkow2aqYd_6uXrXl0v5N7GjukphzRG2iBxPedBfTQNw2Va_8JM9bpKGuAtnozjj6aXqrjETyd8VYPA6j9G-TFuvLDs_HiW1gvKar-86canop0d45RFeZLBxL0bcqJcFym05Ixy8e1gJkSAJr8uiV9K7vIo4Cho-D_YCo2JPAmqyHNUgo-CycnF-C840yIsWBktVZ78PzHqkde3SaC6DKmC-8GukAzO3yYOaVLNVhKVOKmm0Ttl6irBEIkwz1gzioxh7o7YQcqaXXZiiCWpFHmrT2RviRyBa_9oEHyCk2SKJ5VyBdzhonPYmTueZ1QesXU", "width": 2254}], "place_id": "ChIJcROLyB1hQg0R91atypwt0wk", "plus_code": {"compound_code": "6RFX+77 Valdaracete, Spain", "global_code": "8CGR6RFX+77"}, "reference": "ChIJcROLyB1hQg0R91atypwt0wk", "scope": "GOOGLE", "types": ["courthouse", "point_of_interest", "establishment"], "vicinity": "M-221, Valdaracete"}, {"business_status": "OPERATIONAL", "geometry": {"location": {"lat": 40.1885939, "lng": -3.1085149}, "viewport": {"northeast": {"lat": 40.1899274802915, "lng": -3.107151369708498}, "southwest": {"lat": 40.1872295197085, "lng": -3.109849330291501}}}, "icon": "https://maps.gstatic.com/mapfiles/place_api/icons/v1/png_71/generic_business-71.png", "icon_background_color": "#7B9EB0", "icon_mask_base_uri": "https://maps.gstatic.com/mapfiles/place_api/icons/v2/generic_pinlet", "international_phone_number": "+34 918 76 14 64", "name": "Residencia y Centro de Día Bouco Estremera", "opening_hours": {"open_now": true}, "photos": [{"height": 599, "html_attributions": ["<a href=\"https://maps.google.com/maps/contrib/115017158039878022523\">Residencia y Centro de Día Bouco Estremera</a>"], "photo_reference": "AWn5SU7hqZNQBpnzGZIwnsrS-fPTHYMTlgqdByOKc188-oYYAyrdP7x6GN2WKWVy2tsSoEmnDv0bhch7H7yrQMCo_muKe1inbr64tCWcTlzw3n-Q28eJLc7FpcyaHg__v9q9hCBhyTeMwAwlt4EQtSGMkBHITbz-m4pqBiqMFVntcjnXMmHr6kMOqjapWMuGeJCMlVvFm2HZhuOrXODdInBp1YsAEVIPbMl-km-gfPpf00yu_Wz_ZzEQ3usB8Rm8NweZmS5_bczhd3wxfFeOkPkBTxVRruRyA-xiYbNrTpm6_U2hw0s9YcYoA4L3j2_DPjI2gmpqnNSN7DY", "width": 1000}], "place_id": "ChIJVVVVxQJiQg0R2IGvnyTJuQk", "plus_code": {"compound_code": "5VQR+CH Estremera, Spain", "global_code": "8CGR5VQR+CH"}, "rating": 4, "reference": "ChIJVVVVxQJiQg0R2IGvnyTJuQk", "scope": "GOOGLE", "types": ["health", "point_of_interest", "establishment"], "user_ratings_total": 56, "vicinity": "Avenida del Papa Juan Pablo II, Estremera"}, {"business_status": "OPERATIONAL", "geometry": {"location": {"lat": 40.1831255, "lng": -3.1075209}, "viewport": {"northeast": {"lat": 40.1844888302915, "lng": -3.106121069708498}, "southwest": {"lat": 40.1817908697085, "lng": -3.108819030291502}}}, "icon": "https://maps.gstatic.com/mapfiles/place_api/icons/v1/png_71/school-71.png", "icon_background_color": "#7B9EB0", "icon_mask_base_uri": "https://maps.gstatic.com/mapfiles/place_api/icons/v2/school_pinlet", "international_phone_number": "+34 918 72 13 56", "name": "Colegio Público Carlos Ruiz", "place_id": "ChIJEWXbKQNiQg0RRFjv20bCC2M", "plus_code": {"compound_code": "5VMR+7X Estremera, Spain", "global_code": "8CGR5VMR+7X"}, "reference": "ChIJEWXbKQNiQg0RRFjv20bCC2M", "scope": "GOOGLE", "types": ["school", "point_of_interest", "establishment"], "vicinity": "Callejón del Prado, 2, Estremera"}, {"business_status": "OPERATIONAL", "geometry": {"location": {"lat": 40.1843462, "lng": -3.1075151}, "viewport": {"northeast": {"lat": 40.1856981302915, "lng": -3.106195919708498}, "southwest": {"lat": 40.1830001697085, "lng": -3.108893880291502}}}, "icon": "https://maps.gstatic.com/mapfiles/place_api/icons/v1/png_71/generic_business-71.png", "icon_background_color": "#7B9EB0", "icon_mask_base_uri": "https://maps.gstatic.com/mapfiles/place_api/icons/v2/generic_pinlet", "international_phone_number": "+34 686 68 01 62", "name": "Proyectos y Montajes HerSaC C.B.", "photos": [{"height": 5312, "html_attributions": ["<a href=\"https://maps.google.com/maps/contrib/110067684226381819146\">Francisco Javier Sacedo Camacho</a>"], "photo_reference": "AWn5SU6Qy1ewdJEuXScKU-8jXFzbUtv5U3CSWORS_aAd00HEKVP7Zh34dcO9K9MRe26XGQqSzyWRniptYkvH_VUP3BclxCJKIAa_gbzZJVZ6F6Q3StKW9mEYEas5w1V9lA7WqZQovG-JOYscScPGgZI7fEJeo5urf2BRNTk1cm9nu-ypFCL-T2o8zzj_pcHd4RJklIG77oAyByK4DX3KlSpJ6MHMljHeT9MXdxAaKTC56yTiVq5Dbufnvp4UvKZ65fxCLxsAaIFZtBAIOpuLPH4jkBz5IIR5uzqwFv34puzOe4VrSzhzVYfvL-kq3oqy9XZtQhPy0bIRQM01ZwqcLxSLgK27EnDCqvbLxX9fn2RGqCBVTfTMVa4krJzvERbGPhDVollWvxEgZENMVxJdOHNBegtO-nZgYNuNuMJzTUlXjG-NjCWdpZDuPI6SKtdWteRWNYXw5l0cTxlRR3_yv3XTMmvH8b9Bi80zJ5GRHpnuli1N3kO5rMJgP--HKTf_HijQx5kU6NrSKzef19CVjMg_H8KR9qj43yDcJUUL6ZAHB3icznFS-Hz9sMc9RaMDT_K-flYcewlaYb1rz9BhozNvIp7sr-rjmN_QqXyR60k3TNHaZQgsvk7PAHZT5NEHYXuu_SdDl9lG", "width": 2988}], "place_id": "ChIJ25S1tQJiQg0RUwnDAhZz0M4", "plus_code": {"compound_code": "5VMR+PX Estremera, Spain", "global_code": "8CGR5VMR+PX"}, "reference": "ChIJ25S1tQJiQg0RUwnDAhZz0M4", "scope": "GOOGLE", "types": ["point_of_interest", "establishment"], "vicinity": "Calle de San Miguel, 11, Estremera"}, {"business_status": "OPERATIONAL", "geometry": {"location": {"lat": 40.217913, "lng": -3.166420999999999}, "viewport": {"northeast": {"lat": 40.21927118029149, "lng": -3.165072469708498}, "southwest": {"lat": 40.21657321970849, "lng": -3.167770430291502}}}, "icon": "https://maps.gstatic.com/mapfiles/place_api/icons/v1/png_71/generic_business-71.png", "icon_background_color": "#7B9EB0", "icon_mask_base_uri": "https://maps.gstatic.com/mapfiles/place_api/icons/v2/generic_pinlet", "international_phone_number": "+34 652 41 50 30", "name": "Biovald, s.l.", "opening_hours": {"open_now": false}, "place_id": "ChIJkVexGiVhQg0RrhnixNrw2aU", "plus_code": {"compound_code": "6R9M+5C Valdaracete, Spain", "global_code": "8CGR6R9M+5C"}, "reference": "ChIJkVexGiVhQg0RrhnixNrw2aU", "scope": "GOOGLE", "types": ["point_of_interest", "establishment"], "vicinity": "Pk. 12,700, carretera M-222, Valdaracete"}, {"business_status": "OPERATIONAL", "geometry": {"location": {"lat": 40.1848224, "lng": -3.1056661}, "viewport": {"northeast": {"lat": 40.18609763029149, "lng": -3.104289719708498}, "southwest": {"lat": 40.18339966970849, "lng": -3.106987680291502}}}, "icon": "https://maps.gstatic.com/mapfiles/place_api/icons/v1/png_71/worship_general-71.png", "icon_background_color": "#7B9EB0", "icon_mask_base_uri": "https://maps.gstatic.com/mapfiles/place_api/icons/v2/worship_christian_pinlet", "international_phone_number": "+34 682 20 34 08", "name": "Parroquia Nuestra Señora de los Remedios", "opening_hours": {"open_now": false}, "photos": [{"height": 3000, "html_attributions": ["<a href=\"https://maps.google.com/maps/contrib/110806263506822735032\">Pilar M.R.</a>"], "photo_reference": "AWn5SU7VpCmKgbaUuhkxfRLV6_V-AcCA2l4oXE_dkm0t2Qq-SweOPJ3_sAbWfJC3ZAwnF1VKZ_6gWmY9fzKQCzxYGSZyg4UyxoZwi8J9jENTfCJ_lRha4XERxey3s5w82sk0k3MT31s0xtcxsmPu7PgK6CxOC9khgZphKvMnRqgQmOXzfbekI2j19GC-n7iHOFyN_xBkRvRWURORv35hEYeRdRHiGHYU-hX86S0rTQBRIAXdVFEf5LPGqaROf3j3Zom3iGX3t3TmAXiHEBJcYTJuAzsdPM7DoGNOzbLcR8gJgoMHPMydAppcDacF3OD6sqAiQxG0rDR2Sbs8Ck4WnZ7l4o8ikUnuva9LGplNpXXR8C0gP_TEi7axBu0h3GiYRArORMhXO4S-e_SHe9UvKVk6hnPzgjWi3COSHRNnir-wIDvoL49IXqRK-3AjPVXZulEGY0Zxj8ZAba08KRnHJCLqLgwBeOwiBVigC1cNJwWYtXdLft3NFjSpI2XRro4jwVzdNTM5-R3ooqvF3AlqoOubqOsaX4W9DVah15vMtZNKsJPZUWSFz4ZGht75I9ZQ6qXYWT5O6Ryn1LEZPqIqj-HmoWpfE9Mv6Dl5-pAeIF5OBRJ7055MifPNl0E4fpKdDUrMkf8B-g", "width": 4000}], "place_id": "ChIJ4clWkAJiQg0RtrCB_23s1D8", "plus_code": {"compound_code": "5VMV+WP Estremera, Spain", "global_code": "8CGR5VMV+WP"}, "rating": 4.4, "reference": "ChIJ4clWkAJiQg0RtrCB_23s1D8", "scope": "GOOGLE", "types": ["church", "place_of_worship", "point_of_interest", "establishment"], "user_ratings_total": 22, "vicinity": "Plaza de Don Juan Carlos I, 9, Estremera"}, {"business_status": "OPERATIONAL", "geometry": {"location": {"lat": 40.1846672, "lng": -3.1065053}, "viewport": {"northeast": {"lat": 40.18602233029149, "lng": -3.105132919708498}, "southwest": {"lat": 40.1833243697085, "lng": -3.107830880291502}}}, "icon": "https://maps.gstatic.com/mapfiles/place_api/icons/v1/png_71/civic_building-71.png", "icon_background_color": "#7B9EB0", "icon_mask_base_uri": "https://maps.gstatic.com/mapfiles/place_api/icons/v2/civic-bldg_pinlet", "international_phone_number": "+34 918 72 13 88", "name": "Ayuntamiento de Estremera", "opening_hours": {"open_now": false}, "photos": [{"height": 4000, "html_attributions": ["<a href=\"https://maps.google.com/maps/contrib/112964040315681133916\">Javier Matas Martinez</a>"], "photo_reference": "AWn5SU6vKtORBlKHWQJAneec5fFztfQ5lmaah1PGAPOcUBe8Kps47soSj-R287jcj9fJRzzASqFSajr8XWNCK1zDK8sImJ1KrRE09HAZ0qQlA4PWBMMahmPCoMIrFQMbOkz2BIUw7RUp9X1HeOgiH3ZZVzdP8YAE3CD1iA3PTfDM6Kp9dAcnJDoYu0p9mnUeqzJrqZR071qK1w73_sF-f7dp6LDEHoUmR3dHFnAQP4sCWczfocMiEqSiuCwDpZWuxzcPGuByXf_D6T6JttctbwPYg3YtQspkYoyqR8n4zRRwqWpHSFw4g44xyWzT1KYsCx8ynkucyAFYUKqplF4VJiVP0MHdsNgvvhFEWxvQ-Y67nUOxTXEU600GG3uO5a75vfKToRrlCAWjyMajxlqfUh9PCZkcSWoPhsbny--23Y6Nfp8e4TLmnk4ZHlNnZ6LaNXOFaTEr6OBjqHjRZc8eXSJQ9J2XFsGk9-bTGCpmzXQ6crEZ_9ftrZk5otikgzsV_ymZd_vJUNOTN9ybqj0UcF0R34OKl6AlNwgM-8EZYbRAz00voHuX1InGTfHaaBFF-qtTJ4kzpznSPmKPOtm8OXqe3vcCIJ148i3KIWOMCbKUjj-_PCY4P3JxU2qx0H7mC7vdzpo0Xw", "width": 6000}], "place_id": "ChIJsQiNvQJiQg0RmV_O9bhEu00", "plus_code": {"compound_code": "5VMV+V9 Estremera, Spain", "global_code": "8CGR5VMV+V9"}, "rating": 4.2, "reference": "ChIJsQiNvQJiQg0RmV_O9bhEu00", "scope": "GOOGLE", "types": ["city_hall", "local_government_office", "point_of_interest", "establishment"], "user_ratings_total": 31, "vicinity": "Plaza de Don Juan Carlos I, 1, Estremera"}, {"business_status": "OPERATIONAL", "geometry": {"location": {"lat": 40.2452197, "lng": -3.0425816}, "viewport": {"northeast": {"lat": 40.24653508029149, "lng": -3.041187219708498}, "southwest": {"lat": 40.2438371197085, "lng": -3.043885180291502}}}, "icon": "https://maps.gstatic.com/mapfiles/place_api/icons/v1/png_71/civic_building-71.png", "icon_background_color": "#7B9EB0", "icon_mask_base_uri": "https://maps.gstatic.com/mapfiles/place_api/icons/v2/civic-bldg_pinlet", "international_phone_number": "+34 949 38 90 01", "name": "Driebes Town Hall", "opening_hours": {"open_now": false}, "photos": [{"height": 3120, "html_attributions": ["<a href=\"https://maps.google.com/maps/contrib/113374728661723403180\">Sandra Rincón</a>"], "photo_reference": "AWn5SU4v8-rWAyceyScJtBxglkYhyPqRLfX8wq7bezZLOg3ybH_S_KQQKX-DxkLDDsGG6DzO7myiVJCjgYXA8Y6CyEiARq5RWUZ5GyYTZB2LCOuqECHz-qjFKtmID1NDmQIb78ZOveDN9B-YxPEBvXbq7T5_GDz8RYNV4BnAfTUVW8b-wkyd4dLlAZq930WDkPGCpT1QuAsuzUsJiu1U8RGabXIP1UZLA_PNTy-Hz0jJi7uSsn1PqEQWfWMB1HnQ8lQqs7je7ze-fLOifG-_hyvxGzCtU89GGOUajbQ52mUdnkkuH6p-5nh3EYCE11c-jvN731lIPAateILZ1v3geGTSy2M8F94U59gT7nLH1AcHwvvYkFyVxa5Gd6ZU8M8EgL1auRN3DsJk4XOTGZOjwoZxqoK7ua5hJGoAFRjmDco-JKY6MTw9Ed0I1pYML5MXkThM6GcmA82_AJwmbe624Uwk_fsLSU-p2EAeZruIFi1G3Q6mAmp3GBssl2tKeR0D92I4Fbnzw38uE1Zhq3hsZaxXRqpOytegcMhPuNlFEJukwHpnZUu_n4NQIM9IJ_l2pxAvVs8gdfq39KdRtfY4BRzIpu0Wi3xcdViICgRh6VsPzQ80_d2l2cA2MJfTPINyPXFsSURkvA", "width": 4208}], "place_id": "ChIJJW9MIRSLQg0RB8eN1YxRJf0", "plus_code": {"compound_code": "6XW4+3X Driebes, Spain", "global_code": "8CGR6XW4+3X"}, "rating": 5, "reference": "ChIJJW9MIRSLQg0RB8eN1YxRJf0", "scope": "GOOGLE", "types": ["city_hall", "local_government_office", "point_of_interest", "establishment"], "user_ratings_total": 1, "vicinity": "Plaza Ayuntamiento, 0 S N, Driebes"}, {"business_status": "OPERATIONAL", "geometry": {"location": {"lat": 40.24549809999999, "lng": -3.0417524}, "viewport": {"northeast": {"lat": 40.24683308029149, "lng": -3.040361619708498}, "southwest": {"lat": 40.2441351197085, "lng": -3.043059580291502}}}, "icon": "https://maps.gstatic.com/mapfiles/place_api/icons/v1/png_71/generic_business-71.png", "icon_background_color": "#7B9EB0", "icon_mask_base_uri": "https://maps.gstatic.com/mapfiles/place_api/icons/v2/generic_pinlet", "international_phone_number": "+34 682 89 28 01", "name": "Certificado Energético - CertienergetiC", "opening_hours": {"open_now": false}, "place_id": "ChIJb7Hq8BAmQg0RgC1M709-wcA", "plus_code": {"compound_code": "6XW5+57 Driebes, Spain", "global_code": "8CGR6XW5+57"}, "rating": 5, "reference": "ChIJb7Hq8BAmQg0RgC1M709-wcA", "scope": "GOOGLE", "types": ["point_of_interest", "establishment"], "user_ratings_total": 12, "vicinity": "Plaza del Rollo, 10, Driebes"}, {"business_status": "OPERATIONAL", "geometry": {"location": {"lat": 40.1841735, "lng": -3.106068}, "viewport": {"northeast": {"lat": 40.1855794302915, "lng": -3.104651169708498}, "southwest": {"lat": 40.1828814697085, "lng": -3.107349130291501}}}, "icon": "https://maps.gstatic.com/mapfiles/place_api/icons/v1/png_71/lodging-71.png", "icon_background_color": "#909CE1", "icon_mask_base_uri": "https://maps.gstatic.com/mapfiles/place_api/icons/v2/hotel_pinlet", "international_phone_number": "+34 635 63 46 26", "name": "Hospedería El Convento", "photos": [{"height": 1200, "html_attributions": ["<a href=\"https://maps.google.com/maps/contrib/102143662752632899916\">Hospedería El Convento</a>"], "photo_reference": "AWn5SU6F2vs-X6Wo_AYyAwmrwTgPjc6y43dDv2fZgVUINnQrDq04iUdw9mcnNo41E2SSNnKnBXwxyIdIfbEOAFTXOHSkFm2GG0q42fKoax8zHdLt9SmdvUCI7iQXOPrjXCqrANFaBOxLJ3wcXntZegiSpdadRMikCFyZF-PmskdRxtM1S_5oLV_cxhyLROcNYRyqk1itWWixeTEtm5Ceu8C_ETe_DNujX1A8HzpNKwmJCbDEsoDOVLSoper9WzVYPd-R1DQSxKvL5buOtYnn_le8VcVzUwwhAx4GFNSUzt2TJBwYrtQdyjZLHMNgKDZnDuWfsDAcTipi3qY", "width": 1792}], "place_id": "ChIJd2MBjwJiQg0RZvXjqxTo9TQ", "plus_code": {"compound_code": "5VMV+MH Estremera, Spain", "global_code": "8CGR5VMV+MH"}, "rating": 3.8, "reference": "ChIJd2MBjwJiQg0RZvXjqxTo9TQ", "scope": "GOOGLE", "types": ["lodging", "point_of_interest", "establishment"], "user_ratings_total": 69, "vicinity": "Calle de Teresa Fuentes Camacho, 6, Estremera"}, {"business_status": "OPERATIONAL", "geometry": {"location": {"lat": 40.230118, "lng": -3.106705}, "viewport": {"northeast": {"lat": 40.2314862802915, "lng": -3.105283469708498}, "southwest": {"lat": 40.2287883197085, "lng": -3.107981430291502}}}, "icon": "https://maps.gstatic.com/mapfiles/place_api/icons/v1/png_71/generic_business-71.png", "icon_background_color": "#7B9EB0", "icon_mask_base_uri": "https://maps.gstatic.com/mapfiles/place_api/icons/v2/generic_pinlet", "international_phone_number": "+34 918 74 08 80", "name": "Asoc Para Gestión de la Integrac Social", "place_id": "ChIJwfbsJcRmQg0ReHqsFSs6QMM", "rating": 3.5, "reference": "ChIJwfbsJcRmQg0ReHqsFSs6QMM", "scope": "GOOGLE", "types": ["point_of_interest", "establishment"], "user_ratings_total": 2, "vicinity": "Carretera Comarcal M-221, 0, Brea de Tajo"}, {"business_status": "OPERATIONAL", "geometry": {"location": {"lat": 40.2304083, "lng": -3.1094322}, "viewport": {"northeast": {"lat": 40.2317438802915, "lng": -3.108010969708498}, "southwest": {"lat": 40.2290459197085, "lng": -3.110708930291502}}}, "icon": "https://maps.gstatic.com/mapfiles/place_api/icons/v1/png_71/lodging-71.png", "icon_background_color": "#909CE1", "icon_mask_base_uri": "https://maps.gstatic.com/mapfiles/place_api/icons/v2/hotel_pinlet", "international_phone_number": "+34 609 71 36 70", "name": "La Casa Del Polvorista", "photos": [{"height": 2160, "html_attributions": ["<a href=\"https://maps.google.com/maps/contrib/111080318332374363660\">ramon lopez garcia</a>"], "photo_reference": "AWn5SU7DBvTWTUlvHTAjTIozJbNc4AbQ9YDXjK9JJWBZ2UoIdYgSpyUwmKnGdtPnL6yoa2FInGzrfpwOY-vl1SrMNP6b-a9gB33yNlEjaGCJeZUR3_Yc4TSf2N7hXEOIO6OiJQyLHoKkwLPRDTc4OPB0QdHYw4Xi87YTtjHqrKh1KnS4M-OZDk-uLmttOrly8B1EncvKuWtzyO2-7h-M-hPud-9b6Xhn7dd5lDtQam3MJJ9wZADKlowOEv3w-QAr7ysLl3U6Zqx2cw46lBvJeejayylWZhtf6mwIpVlwzUbsUAZVq9AZcGAsUn9XbTsfQpzqVDPWDKjKGVTAkJPDHVSFqkUqz3NerawzQ8AcBF5BJeDU9-psC5UNAYVbR4PsvZs9U2O4KROcCWRUqWd8zyQDErj6j4buPYrKe1UzVCjVD0iQWaPzkups9n4fIUl_xkivfvPIuudPFM4sLCDg-5REM1UlZ_RQ4b4_MOnTujoDGxjH99Zucjjj8jZRyMGyHQRsbHh9TDW3iIEjen2LtEgdvAyJno_oPrq3vQm-FoeBvikXic9T2UX98AJEMbk7Wd3SuIxhAIFsXxkAZPX3lJLni5LXcRZX4jyPUtbXz_KN0RHDi3HYo8yDLHaU0BSy4S0U6AwI-X1I", "width": 3840}], "place_id": "ChIJ8-qtODJgQg0Rgk-JVGPPcsE", "plus_code": {"compound_code": "6VJR+56 Brea de Tajo, Spain", "global_code": "8CGR6VJR+56"}, "rating": 4, "reference": "ChIJ8-qtODJgQg0Rgk-JVGPPcsE", "scope": "GOOGLE", "types": ["lodging", "point_of_interest", "establishment"], "user_ratings_total": 53, "vicinity": "Calle Cervantes, 9, Brea de Tajo"}, {"business_status": "OPERATIONAL", "geometry": {"location": {"lat": 40.1837276, "lng": -3.1050681}, "viewport": {"northeast": {"lat": 40.1850776802915, "lng": -3.103715369708499}, "southwest": {"lat": 40.1823797197085, "lng": -3.106413330291502}}}, "icon": "https://maps.gstatic.com/mapfiles/place_api/icons/v1/png_71/lodging-71.png", "icon_background_color": "#909CE1", "icon_mask_base_uri": "https://maps.gstatic.com/mapfiles/place_api/icons/v2/hotel_pinlet", "international_phone_number": "+34 639 26 21 29", "name": "La Botica", "photos": [{"height": 3000, "html_attributions": ["<a href=\"https://maps.google.com/maps/contrib/118388108473261234130\">Pati Florez</a>"], "photo_reference": "AWn5SU5Xwntkfu8DaIZ5XzDnbp0q0xqkP2_9cEefnzRPX2oUvxC_-npc1EIPuQIVXRnp-_4WdZOuaaLqpAXQrDDHVMYvs1sYReAgRtGquoF9ZlGi_lxbEVfvbdu9cV4W91I-NygWPr9126dPh1v5ypujSMco-HYad3rXg3pijP_diIU6baJjBjb9DZ8dldvJtm94-ssXm-CDLNAe2cnHXYHjZt4NnWnHeM8KVvR1S4PP2-M379Hj2TFPUnty0OTdq_VJITZV8C4sM_Ul50xjBVbhfgoyBvlzboR9gAkgjC89JtKlg6-B8fZw8lQdNlRLo50kutS1Fz5vINYrivrrA4a5atHwqVclUJBS4djxLsF0UEfD3dv9x9dl6hs2fcNqNAGHwb80apCOEjbygj8QRAyznvc98pV7Ut7mTBZOSlgiaHCBz44g2HTS0_133172KObxPl1xlLUrNpJVOZUQlCh3pRvU6_uaJvY2DMAoV4GO4T5TaapiCcQbancjtu0WdPqiF9ZHU7Vv7-mH9cik257gHm-x8s7VxunDIR8ZjQp0vHLHQTJSeqtamJlOJd6Iy6XRmuWh4Wfr7cttwjpBU_zQQ9I-0ItEJR5EZXH8Fujh_avseYXXWsZKMCXROvKoqU-yNmXJFw", "width": 4000}], "place_id": "ChIJa1ZJXwJiQg0Rrhawb5MirgQ", "plus_code": {"compound_code": "5VMV+FX Estremera, Spain", "global_code": "8CGR5VMV+FX"}, "rating": 5, "reference": "ChIJa1ZJXwJiQg0Rrhawb5MirgQ", "scope": "GOOGLE", "types": ["lodging", "point_of_interest", "establishment"], "user_ratings_total": 4, "vicinity": "Calle de la Iglesia, 12, Estremera"}, {"business_status": "OPERATIONAL", "geometry": {"location": {"lat": 40.230053, "lng": -3.10935}, "viewport": {"northeast": {"lat": 40.2314087802915, "lng": -3.108022319708498}, "southwest": {"lat": 40.2287108197085, "lng": -3.110720280291501}}}, "icon": "https://maps.gstatic.com/mapfiles/place_api/icons/v1/png_71/atm-71.png", "icon_background_color": "#909CE1", "icon_mask_base_uri": "https://maps.gstatic.com/mapfiles/place_api/icons/v2/atm_pinlet", "international_phone_number": "+34 900 404 090", "name": "ATM CaixaBank - Cajero", "opening_hours": {"open_now": true}, "photos": [{"height": 900, "html_attributions": ["<a href=\"https://maps.google.com/maps/contrib/110600201033109833884\">ATM CaixaBank - Cajero</a>"], "photo_reference": "AWn5SU4IVYTdwLZuTwcR4RwLqrPaA3rGRAM0iq27tiCM71hkAqBRfF184kRZekY31m7J3ZmaXTnc4K6cY9iIWEWo1QaTEpIQJ6JmQse2tPBUIROLk0aEeBsx-jiK71rwr8no8U1hsewVG3sFViTNLu85Alb_dVaGe_qdsnMemXTv_P0hBEVsH3RthfmEARfo6O6C5AkrIByS2B3T4ohgJ_-1WsoM5zSkBSnVTxOTE6Gb_GtZHR6MmeDXF6svGPCQNbAtBoyv65RuZ4VUWazYCFtFqz6pQlf2Rn9AWO7XGEXRbdTY54fsnDjsHaAckyrHXOXJ_qcJnRzCfi0", "width": 1600}], "place_id": "ChIJb-Y6eFZhQg0R3Vt_e5P-S_Y", "plus_code": {"compound_code": "6VJR+27 Brea de Tajo, Spain", "global_code": "8CGR6VJR+27"}, "reference": "ChIJb-Y6eFZhQg0R3Vt_e5P-S_Y", "scope": "GOOGLE", "types": ["atm", "finance", "point_of_interest", "establishment"], "vicinity": "Plaza De La Concepcion 1, Brea de Tajo"}, {"business_status": "OPERATIONAL", "geometry": {"location": {"lat": 40.2299614, "lng": -3.1095769}, "viewport": {"northeast": {"lat": 40.2312725302915, "lng": -3.108200569708498}, "southwest": {"lat": 40.2285745697085, "lng": -3.110898530291502}}}, "icon": "https://maps.gstatic.com/mapfiles/place_api/icons/v1/png_71/bus-71.png", "icon_background_color": "#10BDFF", "icon_mask_base_uri": "https://maps.gstatic.com/mapfiles/place_api/icons/v2/bus_share_taxi_pinlet", "name": "Pza.Felipe VI-Ayuntamiento", "place_id": "ChIJx5UaRjJgQg0REtvg4ehijTA", "plus_code": {"compound_code": "6VHR+X5 Brea de Tajo, Spain", "global_code": "8CGR6VHR+X5"}, "reference": "ChIJx5UaRjJgQg0REtvg4ehijTA", "scope": "GOOGLE", "types": ["bus_station", "transit_station", "point_of_interest", "establishment"], "vicinity": "Spain"}, {"geometry": {"location": {"lat": 40.2299319, "lng": -3.1093942}, "viewport": {"northeast": {"lat": 40.23265940451718, "lng": -3.105277910596933}, "southwest": {"lat": 40.22548689496404, "lng": -3.115830062883803}}}, "icon": "https://maps.gstatic.com/mapfiles/place_api/icons/v1/png_71/geocode-71.png", "icon_background_color": "#7B9EB0", "icon_mask_base_uri": "https://maps.gstatic.com/mapfiles/place_api/icons/v2/generic_pinlet", "name": "Brea de Tajo", "photos": [{"height": 3024, "html_attributions": ["<a href=\"https://maps.google.com/maps/contrib/112901356560039090122\">Fran Brale (granjefe7)</a>"], "photo_reference": "AWn5SU4fbDO9P3wgg_R7sZNssKeyrUqnFlwd6MI3lWUcR5UChXuuBfhXzoShw7e5F5fbiS9tj7l26Ba69ag_tE4dYf_nu5VH-Bdezr8l_oEpd4hlxZzmQOwu2-dUbloG0REnCefxnPlBtagJ-3p7IUFeGqtfMfWRd1DFxdYqsw-b0_l3YUlPZ8cqNDmPI1jPVekahgeXDKxifC5R-t688GexWaTNKrVxH_caXhofUAz_H1D85Bi7-f34T7z8t6Ic-xXUZo4njvGgxgCQ8wjafl78EXAnoBumY2q4wnMqewb4-FwanLEYUpS95xSLys5PgHgtU8sa8by-0-ZnvNsyxwqb5L5CdnuA0jJ9DNBQlGj8sRKyqDIqtUziMbG4S9_vyvZNlc6JtaQ5FHqhhygGqomLgGlLAn6DP8WoDMgqwa6lsF_-MDc75nNLt_7AWrXP9nuvvuFW8rZuU0_Qk1bUTtA3Lcl5HRL2cTB8SDk0AewT4dLGtMjkeDxzrz5wNhiUTS0zKTNjIEJ6MSAwKlRgSBNQw9pwB1h52rtPev9BkUpHw5-NAJCaQH3Iph9Q2yGmyMuFoKtCPE40xqnMWhhicd804b2Ur4BibQH-wFEq9Uw2BbUciakfEFEvTXFMQauM5UBgn1kN1aMb", "width": 4032}], "place_id": "ChIJqwtTWzJgQg0RkeZVybGhomE", "reference": "ChIJqwtTWzJgQg0RkeZVybGhomE", "scope": "GOOGLE", "types": ["locality", "political"], "vicinity": "Brea de Tajo"}]