[{"geometry": {"location": {"lat": 40.9649226, "lng": -3.717409299999999}, "viewport": {"northeast": {"lat": 40.96654759472028, "lng": -3.71058982559911}, "southwest": {"lat": 40.9550619410666, "lng": -3.722317456937402}}}, "icon": "https://maps.gstatic.com/mapfiles/place_api/icons/v1/png_71/geocode-71.png", "icon_background_color": "#7B9EB0", "icon_mask_base_uri": "https://maps.gstatic.com/mapfiles/place_api/icons/v2/generic_pinlet", "name": "Gargantilla del Lozoya", "photos": [{"height": 3120, "html_attributions": ["<a href=\"https://maps.google.com/maps/contrib/107426113909153516864\">María Conde Rivero</a>"], "photo_reference": "AWn5SU4wAgzJvIKWGVLagCv56n5gXdMnA9pqWKLlqD-kqBWA1nbzZ-Rh3XtpNqJz4OVDN8B7K1I8vmh1TAXpVrRzvFKrn2d_HjV49DBnYrSlTUOjem8AoZmgb_Q-Zheyzn8tGyOpsuBeRwOAMKe1bA9O0PX630Iwl4JdZVA1s1KRUQk-mxlfujPOO-po_lgLfZ2l10qHzjydT1xzEm2G9zw3rOgn-6zAE6ztXwlhkzs2mZUWBg_7s8edblBE6t-VAirOoY7WYAJGhEhUNsXSdFIdRBUPz5bX7hqZrV_YJ1hfX_mdPwqtZEN9iq-8CrX78tpUu9NEqp4cGmBb5VWDM_dR2Pa3cSKlj8gLM55gdVBZcBM2Wtm89B42-rLpc-KqqYHDXCOMh5q6nZnGjRb9eIFGSOzfZ8MbbPK56EEjnDgXvlqr_EzYpq8zcEN6-pyvc2erc643C1GhuMLUdyC4hNbjfNpHLr0c9yVynKzPQ_IwRBIFLxK5K82iuEsMymnt4p8yeP5b8HLofmqiWlhUUHPg2RJ0RAZ_ck7JCp0PdiSuf8q6TaX8XRMj4Oxo-uX-OcgmpFIiUhkvRi6wUmWFEbS-DVoQtilP1KyNeIK2dui0jUBCoifofm1epNGwpApaP0hBdWYSSyZd", "width": 4160}], "place_id": "ChIJxZP-95PhQw0RG4Bg5ByIimQ", "reference": "ChIJxZP-95PhQw0RG4Bg5ByIimQ", "scope": "GOOGLE", "types": ["locality", "political"], "vicinity": "Gargantilla del Lozoya"}, {"business_status": "OPERATIONAL", "geometry": {"location": {"lat": 40.9738251, "lng": -3.713715}, "viewport": {"northeast": {"lat": 40.9750827802915, "lng": -3.712090419708497}, "southwest": {"lat": 40.9723848197085, "lng": -3.714788380291501}}}, "icon": "https://maps.gstatic.com/mapfiles/place_api/icons/v1/png_71/lodging-71.png", "icon_background_color": "#909CE1", "icon_mask_base_uri": "https://maps.gstatic.com/mapfiles/place_api/icons/v2/hotel_pinlet", "international_phone_number": "+34 608 20 52 25", "name": "Posada SPA & Granja La Tejera de Lozoya", "opening_hours": {"open_now": true}, "photos": [{"height": 900, "html_attributions": ["<a href=\"https://maps.google.com/maps/contrib/113698115063861027948\">Posada SPA &amp; Granja La Tejera de Lozoya</a>"], "photo_reference": "AWn5SU7zqXGPIheNxPQHZNL6WzkY5eR4jyOc6THfQCYVNDBMjHsjdZq96JifxpNtCeIBCFkvKTmqE1jgqQJ_uRqBrs_uceJGpNt5RV-xvWo8CSpbL0pHic-0MoZrPxraMSfaKc5LPjVkjc-FobXUWjLcc6R2XaZUSoYLK7E8KLTjcWtsIWTddFPy8LPH7VFpHnM1YLgZTLX6iWTH8c8Vk9e1xhMkjaGSYb9SqVCUuNG_Co4omB7YpPZCC_p0LJPvv3Idx6Dh90RFrCd5xViBO6ubSOx5F8RYUcNHoUJQ3z044gfBEG68Gqp53Okd0QrOSA0zhQzFkEzYtWY", "width": 1600}], "place_id": "ChIJB8ZJtYfhQw0RQjNKiSlVYE4", "plus_code": {"compound_code": "X7FP+GG Gargantilla del Lozoya, Spain", "global_code": "8CGRX7FP+GG"}, "rating": 4.2, "reference": "ChIJB8ZJtYfhQw0RQjNKiSlVYE4", "scope": "GOOGLE", "types": ["travel_agency", "real_estate_agency", "lodging", "point_of_interest", "establishment"], "user_ratings_total": 443, "vicinity": "CARRETERA M-635 de Gargantilla del Lozoya Km. 0, 800, Gargantilla del Lozoya"}, {"business_status": "OPERATIONAL", "geometry": {"location": {"lat": 40.9652821, "lng": -3.7173614}, "viewport": {"northeast": {"lat": 40.96659913029149, "lng": -3.715967319708498}, "southwest": {"lat": 40.9639011697085, "lng": -3.718665280291502}}}, "icon": "https://maps.gstatic.com/mapfiles/place_api/icons/v1/png_71/shopping-71.png", "icon_background_color": "#4B96F3", "icon_mask_base_uri": "https://maps.gstatic.com/mapfiles/place_api/icons/v2/shoppingcart_pinlet", "name": "Supergargan - Udaco", "opening_hours": {"open_now": false}, "photos": [{"height": 960, "html_attributions": ["<a href=\"https://maps.google.com/maps/contrib/102610738325544939318\">Supergargan - Udaco</a>"], "photo_reference": "AWn5SU5D0ueFrUmcPHviNLWe0dlchte93uhgeZ_pGhAOvlbJss-Qh85xh0JRKgq897igRTK1804EHxu1P8cmGG7MHq_hsiIU2hgnnrBFrwhbG8zFUUIko0ym1_znFArvs8gYVBYYFUj7OHaoLecWjnTqsFIQEz8nHAsTy8I1j8JIcXl32RIJgnP7HDiiJ_rvTZibPO1QT7u3OFIHCle5q2WWAWhSzE-wl6RQraPU8dKes90X1JrNJxgDKMiVkNCr0k1SGrwP2G5hn9HdvPJVhNnDaRAVsRfMD74QyyuK5e4GDjAFO1Jf91um7ewM8uBtYrlX4sov4GMtL94", "width": 720}], "place_id": "ChIJuVMFRZHhQw0RllgZuxKzl7Q", "plus_code": {"compound_code": "X78M+43 Gargantilla del Lozoya, Spain", "global_code": "8CGRX78M+43"}, "rating": 4.3, "reference": "ChIJuVMFRZHhQw0RllgZuxKzl7Q", "scope": "GOOGLE", "types": ["supermarket", "grocery_or_supermarket", "store", "food", "point_of_interest", "establishment"], "user_ratings_total": 136, "vicinity": "Plaza de Carlos Ruiz, 17, Gargantilla del Lozoya"}, {"business_status": "OPERATIONAL", "geometry": {"location": {"lat": 40.9649878, "lng": -3.717153300000001}, "viewport": {"northeast": {"lat": 40.9662523802915, "lng": -3.715907669708498}, "southwest": {"lat": 40.9635544197085, "lng": -3.718605630291502}}}, "icon": "https://maps.gstatic.com/mapfiles/place_api/icons/v1/png_71/bar-71.png", "icon_background_color": "#FF9E67", "icon_mask_base_uri": "https://maps.gstatic.com/mapfiles/place_api/icons/v2/bar_pinlet", "international_phone_number": "+34 665 97 85 22", "name": "Antigua casa de Pedro", "opening_hours": {"open_now": false}, "photos": [{"height": 1322, "html_attributions": ["<a href=\"https://maps.google.com/maps/contrib/100821531680645212954\">Antigua casa de Pedro</a>"], "photo_reference": "AWn5SU4XFuSOiYOWGxF8GiuPjWtabWQbKTaCB3F9zp2q6nl15gse65z0hcRV38-bFy246BZ2uLtg0YkuZCPC_62fqIXrKA2PpYlXqEd7fT3Plbo9mI22sufKmVGGymESBKl2OiQGv45TPKUxME8aGOTf29WljDjxnLxXHhVgyqq-v9TKthQhzMWKM0Nl2-R5ImnFthatC6_dvTjArJv1cfM2vmJC1Rnme3lJHmkvt5BqgqsyWYVcR5s7w6t3mt_TlEW_8i6CKPkwjbdvK4rFSPNNyBTNx-RlZoiXFHTHZ6UTFzgzX7uhEV39iOlaWSB9lumrhdDcvgDKO9k", "width": 1440}], "place_id": "ChIJ4xm9TpHhQw0Rh5E0IPlwGPc", "plus_code": {"compound_code": "X77M+X4 Gargantilla del Lozoya, Spain", "global_code": "8CGRX77M+X4"}, "price_level": 1, "rating": 4.2, "reference": "ChIJ4xm9TpHhQw0Rh5E0IPlwGPc", "scope": "GOOGLE", "types": ["bar", "restaurant", "food", "point_of_interest", "establishment"], "user_ratings_total": 507, "vicinity": "Avenida de la Estación, 3, Gargantilla del Lozoya"}, {"business_status": "OPERATIONAL", "geometry": {"location": {"lat": 40.94965240000001, "lng": -3.7294233}, "viewport": {"northeast": {"lat": 40.9509977302915, "lng": -3.728035769708498}, "southwest": {"lat": 40.9482997697085, "lng": -3.730733730291502}}}, "icon": "https://maps.gstatic.com/mapfiles/place_api/icons/v1/png_71/camping-71.png", "icon_background_color": "#4DB546", "icon_mask_base_uri": "https://maps.gstatic.com/mapfiles/place_api/icons/v2/camping_pinlet", "international_phone_number": "+34 691 58 45 23", "name": "Camping Madrid Monte Holiday", "opening_hours": {"open_now": false}, "photos": [{"height": 388, "html_attributions": ["<a href=\"https://maps.google.com/maps/contrib/101837255756794352369\">Camping Madrid Monte Holiday</a>"], "photo_reference": "AWn5SU7OuGQ5mWzUIS8muAvMeTRI1b0uWbWgZh-lngqLkJVJBa0fltMojH-Dy6aebr3NA7ZHuycsYIxy5Mxnsay2htauj9SJbH6B2yH5cvH7fjzAOSPjx_-cRwcbfOR725zX7AbwCOT1qD_t2PMZU5po7ktxLUBaE4daI7-ZXTRvjO8u9Us-IKWvISZ_ds0n1WwmTvDVEM2EyZC92tQZH1IuC365MrDFJgs08SIS4kf2PpqaC3anXm9cDwG4jSwSQBzEP8PfniN79102fRoW8fYDKWsk_CekmjLsQOEgco2SW8Gm5U1ELMRD1-cu4_BcOPAodyUQqstcltE", "width": 640}], "place_id": "ChIJ_____5vhQw0Rh7j2s0-4318", "plus_code": {"compound_code": "W7XC+V6 Gargantilla del Lozoya, Spain", "global_code": "8CGRW7XC+V6"}, "rating": 4.3, "reference": "ChIJ_____5vhQw0Rh7j2s0-4318", "scope": "GOOGLE", "types": ["campground", "lodging", "park", "point_of_interest", "establishment"], "user_ratings_total": 1829, "vicinity": "Finca El, Calleja del Tercio Nuevo, s/n"}, {"business_status": "OPERATIONAL", "geometry": {"location": {"lat": 40.9496571, "lng": -3.7301719}, "viewport": {"northeast": {"lat": 40.9510509802915, "lng": -3.728809269708498}, "southwest": {"lat": 40.9483530197085, "lng": -3.731507230291502}}}, "icon": "https://maps.gstatic.com/mapfiles/place_api/icons/v1/png_71/generic_business-71.png", "icon_background_color": "#7B9EB0", "icon_mask_base_uri": "https://maps.gstatic.com/mapfiles/place_api/icons/v2/generic_pinlet", "international_phone_number": "+34 667 75 96 45", "name": "Asdon Holiday - Multiaventura Madrid", "opening_hours": {"open_now": false}, "photos": [{"height": 4016, "html_attributions": ["<a href=\"https://maps.google.com/maps/contrib/105594179794298324308\">Asdon Holiday - Multiaventura Madrid</a>"], "photo_reference": "AWn5SU6N1L_C_2VpdyWAUCLDPQVpldxvOs4cOQyLRgd4WGrlgNo6ecre5rVLJXrQ5MxUjpaaMkhlfke1ZtBlnVnkWBTPXsRdV0YJH5rEEXF4E_258xaZWwfiSFQz9nGLWwaKA-xjD4f3GpnVFDk4Ypa_NaeM-_D3iruTgQQEVsmQUXdNeQt19URlqZ850O5vGmeJnBdswHIjDh-qiQ2OHlyRxX5BRLdM16UuPDowRkPoQ9YrJiNQelbZaj_CxjIlNfzmPgkrR5PNetCT5Zj79vbTGPLcMOdxflPVOkAk_6LXi8BbwZLwu-K656Wl-Z6ukYTtJq1LWztVnAU", "width": 6016}], "place_id": "ChIJ21PhYM_hQw0RI5tLRe2SLbw", "plus_code": {"compound_code": "W7X9+VW Rascafría, Spain", "global_code": "8CGRW7X9+VW"}, "rating": 4.9, "reference": "ChIJ21PhYM_hQw0RI5tLRe2SLbw", "scope": "GOOGLE", "types": ["point_of_interest", "establishment"], "user_ratings_total": 205, "vicinity": "Camping Monte Holiday, carretera, Rascafría"}, {"business_status": "OPERATIONAL", "geometry": {"location": {"lat": 40.9495265, "lng": -3.729917200000001}, "viewport": {"northeast": {"lat": 40.9509359302915, "lng": -3.728278919708498}, "southwest": {"lat": 40.9482379697085, "lng": -3.730976880291502}}}, "icon": "https://maps.gstatic.com/mapfiles/place_api/icons/v1/png_71/lodging-71.png", "icon_background_color": "#909CE1", "icon_mask_base_uri": "https://maps.gstatic.com/mapfiles/place_api/icons/v2/hotel_pinlet", "international_phone_number": "+34 691 58 45 23", "name": "Cabañas en los árboles Monte Holiday Ecoturismo", "photos": [{"height": 842, "html_attributions": ["<a href=\"https://maps.google.com/maps/contrib/105434539804053829824\">Cabañas en los árboles Monte Holiday Ecoturismo</a>"], "photo_reference": "AWn5SU469ZevrpjTBC3hp-g9M0k4my7AWrP7aMBl2elj6LxDse2PRM_9dYasQv1Mp-fmfgCXClF_uIu4_pw6IxAHZaRN3QuUjTZpfnAFCtB-rp3UNbb8Gi0KAGIDxmEmg3ubUGy88tnffjifqq3sUWiHkRehEQudgVUeYG1fg8BkFyse3zOTyXKyQbVKMuh1owGHFpXsGuQtIc5-0hEFkaDVToxdVkN70QR-qTBO-Hz_ZMiVXIN0OeufPTO093pAiaohzwRRMgUKLYAE0KCKVKU5DYWoMr17dvSdvrtde2GoBxXXbQhT8_6IBaa3REBme6nfFMpDfg1Pipg", "width": 1500}], "place_id": "ChIJF71iWEjiQw0RZ3RVOV0Cndk", "plus_code": {"compound_code": "W7XC+R2 Gargantilla del Lozoya, Spain", "global_code": "8CGRW7XC+R2"}, "rating": 4.4, "reference": "ChIJF71iWEjiQw0RZ3RVOV0Cndk", "scope": "GOOGLE", "types": ["lodging", "point_of_interest", "establishment"], "user_ratings_total": 2422, "vicinity": "Finca El Tercio Nuevo, s/n, Gargantilla del Lozoya"}, {"business_status": "OPERATIONAL", "geometry": {"location": {"lat": 40.9647987, "lng": -3.7202346}, "viewport": {"northeast": {"lat": 40.96622338029149, "lng": -3.718916069708498}, "southwest": {"lat": 40.9635254197085, "lng": -3.721614030291502}}}, "icon": "https://maps.gstatic.com/mapfiles/place_api/icons/v1/png_71/generic_business-71.png", "icon_background_color": "#7B9EB0", "icon_mask_base_uri": "https://maps.gstatic.com/mapfiles/place_api/icons/v2/generic_pinlet", "international_phone_number": "+34 699 05 83 53", "name": "Hospedería Del Valle", "opening_hours": {"open_now": true}, "photos": [{"height": 900, "html_attributions": ["<a href=\"https://maps.google.com/maps/contrib/115015610143310055833\">Hospedería Del Valle Boutique Apartments</a>"], "photo_reference": "AWn5SU4WWvJa7WhXzCH1JJb3sn_7h66zlO1e7ErulrWVpGe2lbumP61b_9B9IkLs5IuySLR_PXTiJD6aBDKhFjgWUvp4HI1Vahvnc3_Zo0h3EZuNGLFxryd6-xwIxq-PlCAsFN1QST0rd9lmtgaRWZjzSNEJ2K6HlVYi5Wirthcs-AonLTI_6j5TrwOkYXpbRTlHKDBGMx1Wol7D3G5vaPRtvP9-21bPr1-zv8JhT3CeNxXKlTETaTx-cRjeNRCWUxAYGbfzeFEQiCPclLt52kWfy8wNDeea7slVnwEsqBIYo_aZ7IzxrUxa9k3RHiaEHccVNUPNdiijquo", "width": 1600}], "place_id": "ChIJXZQchZPhQw0RVNiqeWJalc4", "plus_code": {"compound_code": "X77H+WW Gargantilla del Lozoya, Spain", "global_code": "8CGRX77H+WW"}, "rating": 4.5, "reference": "ChIJXZQchZPhQw0RVNiqeWJalc4", "scope": "GOOGLE", "types": ["point_of_interest", "establishment"], "user_ratings_total": 114, "vicinity": "Calle de las Eras, 35-37, Gargantilla del Lozoya"}, {"business_status": "CLOSED_TEMPORARILY", "geometry": {"location": {"lat": 40.9626942, "lng": -3.7160965}, "viewport": {"northeast": {"lat": 40.9640534802915, "lng": -3.714832919708498}, "southwest": {"lat": 40.9613555197085, "lng": -3.717530880291502}}}, "icon": "https://maps.gstatic.com/mapfiles/place_api/icons/v1/png_71/bar-71.png", "icon_background_color": "#FF9E67", "icon_mask_base_uri": "https://maps.gstatic.com/mapfiles/place_api/icons/v2/bar_pinlet", "international_phone_number": "+34 694 21 64 82", "name": "Bar Lounge Gargantilla", "permanently_closed": true, "photos": [{"height": 2048, "html_attributions": ["<a href=\"https://maps.google.com/maps/contrib/108424523076751366039\">Fernando Calvo Blanco</a>"], "photo_reference": "AWn5SU7se0-q60O5Sc2PYDlIt6PbN-DzOaozF2OHXPIA3ke-N_xSHbsNnGNlYcQm0qFSfnfalCNiLFxp-DosSy56LBV9blYC1SEtPmfNQwvcDf8kMnDs74LpqhrbsdSttFMox7qkDtIhZ2Vz1swELEBnkeFLz0vzUWBMeR8PY8z8AW7-h82PXZ4j_KVyv6SppKrY7-iC4jT2XgdVTvNPSGEHv1JqMlYTlQ9Z309_Z6GjpM-cKoPhNLbEvlXj2JiuQ30iLJT4R2TFeuUVgnEvsf1zfvF0pqVX6M0wA5vt7i1Ngl01h6Vri4nwTfrPGN3s6q-FnxxxGPh67C3nFLnRoVAcOXQyCqML67i0nCU_gpF9XYFxH_4fWcinAc5c46-N9dtDuzPNjeCWV1497RzEj77WmjeEhgvLGt9lZwKrmEpp1qjpewjeimZf8jYjX8lFiEG4swl0y7bz_U9b0dcJHEc25ofSC4O_ynpxjOpB7XBfl2bzzI1WSpimeG2U6UuvjmY2dfmbccTNTdXXnReJZ7hZxUGQl_weTruIMVaVXBkyiD7-NtBnQBxmXIzdB862-Cz3vHRVKtio0SPofakr_Qhvye-TYt01Ywv-Z-BQ8td-8iTa3Jg0SeeDP0WAphDeYM7JemOmYEMbRN_bn7iGa7Igzg", "width": 1537}], "place_id": "ChIJdfK9eJfhQw0RRX6j5N1Ntnc", "plus_code": {"compound_code": "X77M+3H Gargantilla del Lozoya, Spain", "global_code": "8CGRX77M+3H"}, "rating": 3.3, "reference": "ChIJdfK9eJfhQw0RRX6j5N1Ntnc", "scope": "GOOGLE", "types": ["night_club", "bar", "restaurant", "food", "point_of_interest", "establishment"], "user_ratings_total": 49, "vicinity": "Calle del Pino, Gargantilla del Lozoya"}, {"business_status": "OPERATIONAL", "geometry": {"location": {"lat": 40.9648956, "lng": -3.717475399999999}, "viewport": {"northeast": {"lat": 40.9662455302915, "lng": -3.716108019708497}, "southwest": {"lat": 40.9635475697085, "lng": -3.718805980291502}}}, "icon": "https://maps.gstatic.com/mapfiles/place_api/icons/v1/png_71/generic_business-71.png", "icon_background_color": "#7B9EB0", "icon_mask_base_uri": "https://maps.gstatic.com/mapfiles/place_api/icons/v2/generic_pinlet", "name": "Gargantilla - Pza Carlos Ruiz", "place_id": "ChIJgT0cTpHhQw0Rqzb8HDf6I2w", "plus_code": {"compound_code": "X77M+X2 Gargantilla del Lozoya, Spain", "global_code": "8CGRX77M+X2"}, "reference": "ChIJgT0cTpHhQw0Rqzb8HDf6I2w", "scope": "GOOGLE", "types": ["transit_station", "point_of_interest", "establishment"], "vicinity": "Spain"}, {"business_status": "OPERATIONAL", "geometry": {"location": {"lat": 40.959343, "lng": -3.716553799999999}, "viewport": {"northeast": {"lat": 40.9606916802915, "lng": -3.715175519708497}, "southwest": {"lat": 40.9579937197085, "lng": -3.717873480291502}}}, "icon": "https://maps.gstatic.com/mapfiles/place_api/icons/v1/png_71/generic_business-71.png", "icon_background_color": "#7B9EB0", "icon_mask_base_uri": "https://maps.gstatic.com/mapfiles/place_api/icons/v2/generic_pinlet", "name": "Gargantilla - Urb La Dehesa", "place_id": "ChIJbWjUi73hQw0RwvxQBpm5A6U", "plus_code": {"compound_code": "X75M+P9 Gargantilla del Lozoya, Spain", "global_code": "8CGRX75M+P9"}, "reference": "ChIJbWjUi73hQw0RwvxQBpm5A6U", "scope": "GOOGLE", "types": ["transit_station", "point_of_interest", "establishment"], "vicinity": "Spain"}, {"business_status": "OPERATIONAL", "geometry": {"location": {"lat": 40.96481319999999, "lng": -3.7185366}, "viewport": {"northeast": {"lat": 40.96612553029149, "lng": -3.717215019708497}, "southwest": {"lat": 40.9634275697085, "lng": -3.719912980291502}}}, "icon": "https://maps.gstatic.com/mapfiles/place_api/icons/v1/png_71/generic_business-71.png", "icon_background_color": "#7B9EB0", "icon_mask_base_uri": "https://maps.gstatic.com/mapfiles/place_api/icons/v2/generic_pinlet", "international_phone_number": "+34 918 69 50 13", "name": "Gargantilla del Lozoya and Pinilla de Buitrago Town Hall", "photos": [{"height": 1080, "html_attributions": ["<a href=\"https://maps.google.com/maps/contrib/108991065925202119120\">Jesus</a>"], "photo_reference": "AWn5SU6RQXia3OJCdNjgMCQ8-VjwYM4EAqpQon5taf5X9qY0ghv4-RsF5rqSDUCoQ7DRemOsWR0-bFiIG15AXY2sFQOsH8Y9pVy7wxty8PSn-ZtO1p0OPZkDApjdavXkYRFC22yutN3SI6JlwH2q13GEldVFm6OrmdbuBFVlXKKGvilTJ-TJHfvFj6U_l0a_VdR4ju0BQipQ9C5PY7E869kotQg7fqixAgqvsghiswL4UNjQ5UytsZI8KMNbsAvikz-2xUBanjSMqK5aOLygkoukBYQRSsEjQi6fwJxusT7ja6hW-qBDj311fJWxfU_2djjaiVixFQOYUy3mPLXzf-1jNFCzbaOriy1Y4ZXm_ZPnC0ZBJYUHGJnh56iS7Ej-ZZ6wg4zmZ2GNfIHT_8V7MFTo3jpI4NN2zor3lAdZQc5U2M9g61p80aTTt-YnASM0DdzyA7DSBlCEa9gqqCL25zS0DOVE6pCJZZpkt2aDWlG4I0WJumXjWc0tgE_Ai4mviOSdGWZWk5LhTqDlGvrtrdGaNlnY4w4BxJ6MMu7rOGAqIkPj0EWpL5xZ0UEj8mc4n-n1cHZy20uW_jd8LtyG7Dvw2W_ktqooyPBbABg5nNofzKVWoIGIMjyL8jr5F0saktaRUhU1bTu7", "width": 1920}], "place_id": "ChIJ70kNBZThQw0RHSoUFm6Qy3I", "plus_code": {"compound_code": "X77J+WH Gargantilla del Lozoya, Spain", "global_code": "8CGRX77J+WH"}, "rating": 4.2, "reference": "ChIJ70kNBZThQw0RHSoUFm6Qy3I", "scope": "GOOGLE", "types": ["point_of_interest", "establishment"], "user_ratings_total": 20, "vicinity": "Calle Carretas, nº 34, Gargantilla del Lozoya"}, {"business_status": "OPERATIONAL", "geometry": {"location": {"lat": 40.9650304, "lng": -3.7182876}, "viewport": {"northeast": {"lat": 40.9663846302915, "lng": -3.716951569708497}, "southwest": {"lat": 40.9636866697085, "lng": -3.719649530291502}}}, "icon": "https://maps.gstatic.com/mapfiles/place_api/icons/v1/png_71/civic_building-71.png", "icon_background_color": "#7B9EB0", "icon_mask_base_uri": "https://maps.gstatic.com/mapfiles/place_api/icons/v2/civic-bldg_pinlet", "international_phone_number": "+34 918 69 52 96", "name": "Consultorio Local Gargantilla del Lozoya", "photos": [{"height": 1710, "html_attributions": ["<a href=\"https://maps.google.com/maps/contrib/103644858766260406648\">Un opinante delirante</a>"], "photo_reference": "AWn5SU5aL5m58EKbSGdsD1ssWkxx8ivQeOX-F96KAYWerg4GGcUbazcZkyp4MRjAy8PRxMPpnWcGrDvwWV_4EtHIoXwQAYYgnnWGGzusnZWyLaOgxG-Na5UQ1QguQorBOn-gRZNMaP4oK_Iqi-QKroBXKfDFFxK_MSrku9crFgwdN0Ck22i0n2PiTO94M3QyR8E58raBgw8Hu_ZGhV00a0kO6djdpR5TD-Y1IZd6jlncZCE00Hb_r9wg0Z3HhLuvLKjYyTgtXq8vt-zN9hHTKvXzg5ThCs3DBkskEr1ZH7iCEb2tRaMf1nnw17PXLjSqyF62r_Jw9bHOhCpBSpq2oM2bSe7ilS-b_Cgak1cjqae9UNMBLDoWaJCU68laTYof3SiHG-pqMr8GHcXXc5kQmnJ16uokV5PyhORKtPuGWURDfUZqhv40d4bqoWncX6H6eIVXFwvec5LLKuQOf9CfxdXs2_RVqHBPBdQQoAx3odXG24VBehGCzDK9v4IzVsaDfUMEhyzEELYS8QHxNmJcNPLDCpAg50YEDVY1qY8US3ipM3i-hxU9B5VZdN11aeOcpTPJMoeD8X4-1ssv-vRv1U1BuS1iRzNVPW9A_NEOGvCYcrM45jnteDI0Y5Ovr4wm7zrwDTjvLQ", "width": 2823}], "place_id": "ChIJ21vL_JPhQw0RohPizimZHr0", "plus_code": {"compound_code": "X78J+2M Gargantilla del Lozoya, Spain", "global_code": "8CGRX78J+2M"}, "rating": 3, "reference": "ChIJ21vL_JPhQw0RohPizimZHr0", "scope": "GOOGLE", "types": ["point_of_interest", "health", "establishment"], "user_ratings_total": 1, "vicinity": "Calle Carretas, 11, Gargantilla del Lozoya"}, {"business_status": "OPERATIONAL", "geometry": {"location": {"lat": 40.96504239999999, "lng": -3.7181894}, "viewport": {"northeast": {"lat": 40.96641628029149, "lng": -3.716895869708497}, "southwest": {"lat": 40.9637183197085, "lng": -3.719593830291501}}}, "icon": "https://maps.gstatic.com/mapfiles/place_api/icons/v1/png_71/worship_general-71.png", "icon_background_color": "#7B9EB0", "icon_mask_base_uri": "https://maps.gstatic.com/mapfiles/place_api/icons/v2/worship_christian_pinlet", "name": "Iglesia de San Benito Abad", "photos": [{"height": 3096, "html_attributions": ["<a href=\"https://maps.google.com/maps/contrib/103644858766260406648\">Un opinante delirante</a>"], "photo_reference": "AWn5SU6ocJSXFzhPYWKYLMM07B1deM7nhN7Ndd1kLi4SN7ZHalOsBsQ9rrlhUXTKfYuUjSTX4OEQm75SdvWV1hEZNO5UHb-n0zbGqlQ08pRIUFUisCU9b3CVGB9cr2w9pu4EKE1BnaOTz2UAjWiLY81fNJHWdKS3mAWC7mdO0PHZ5B8Fb06tsMYOjcIb7xYHxG9kdpvAikKZdaONYXi35XkcPnrQpNnlv86QyWxh35oadZqnmoWIHIIthiRHIpGWdOji3JM4-5SZcdSAX79miXBOjeojMmDGQ9E98azG81p_X_vF8I9sIQBtieVRT1CUyA_Z6HnitDUecgKiSpEOoH4K0zx_LXT_w-CLR-S97D28oJo3SfYVdGvz4u7vGCoAQ7BILRdnP1Nlh1tRPDEJSyiVmF5CFa-m-EW0OTOpLZitjMABeirUH8ORj1gE9sfYj_Kxlygdp-UM0oImo6nPz-tD7CGnx5qgGG5pRDQ4g99O3-I29L5oVtoEFLJxhEH70jkxs12bwZpSxBTurc9ezEoOZxQwJaNYyT0ANn0PKDcxmwl08Rt8MEUo_CxCglEUTIfDSVPEjGf-RvRGuYF6enT8XB2YWHOuHgh2H0KjKNWAL7bUrUqjgC3k-_KMDIRtnuUN_C9AyTYZ", "width": 4128}], "place_id": "ChIJ9cTI2ivhQw0R3-cP_UEezyQ", "plus_code": {"compound_code": "X78J+2P Gargantilla del Lozoya, Spain", "global_code": "8CGRX78J+2P"}, "rating": 4, "reference": "ChIJ9cTI2ivhQw0R3-cP_UEezyQ", "scope": "GOOGLE", "types": ["church", "place_of_worship", "point_of_interest", "establishment"], "user_ratings_total": 3, "vicinity": "Calle Carretas, 11, Gargantilla del Lozoya"}, {"business_status": "OPERATIONAL", "geometry": {"location": {"lat": 40.9649216, "lng": -3.7176304}, "viewport": {"northeast": {"lat": 40.9662251302915, "lng": -3.716269869708498}, "southwest": {"lat": 40.9635271697085, "lng": -3.718967830291502}}}, "icon": "https://maps.gstatic.com/mapfiles/place_api/icons/v1/png_71/generic_business-71.png", "icon_background_color": "#7B9EB0", "icon_mask_base_uri": "https://maps.gstatic.com/mapfiles/place_api/icons/v2/generic_pinlet", "name": "Gargantilla - Pza Carlos Ruiz", "photos": [{"height": 4000, "html_attributions": ["<a href=\"https://maps.google.com/maps/contrib/101846558503365605759\">DIEGO RAMOS</a>"], "photo_reference": "AWn5SU4arj6gW2KAmJNLmtf0LcGkD4277YtiPZIHTEm2lW5HQqwHStYXTdV7_Q9DuHkZsy0Dw_ufeaeWv04pMIjYKHGyiO4VJNc-KaRPqLjNk8p_cN1RK9lPVVmMOTYVKT9_8UYpGPT-8vMS12PAN0IrCaY0xsdwIZNCVscTTE1V0AVKWuxrnUo-MSSi71RGfhu1T1kZR9miW2Z3wNlFHrwf20T-zZkDS3BpLukQl8-3KrEOdkM6dPg7Wv9-YygFCiLPnKHp-Tq-OD5HlXifpV6lCfFX8FLOLjJ0WjrJS75WQ4ZHKmtpj1NoQ9X80BTVI39iQXO5UV7i4Z74buqane4Fd1bcB05z81Zk-hap_teNlG8PgRL8L2OiqVDxoY4m5iRTfHWuXTQxAZnqIgeMUZ2ds97_v9kTQrcpjaKWjsJHmW2LlEwioDfQDdRVzQEsNK7tpuWUtMNn7vuXLL4XvIZtYYgAoZUjtNRBbV20gkWqyOmWsJVawoFTFzq43yALhbsZ9j2lvyPO8WCGXuMvwq503tscK4sdXZE8mx7AKoZBKpB4Btu470Lu76-wd9k1C5T7a1y47aq_gWO-9yPEMR5TeV8nCENNNffSkjmFbrGoLb0nO-noSXyPSaJ5aSfEZwwc17oc0our", "width": 3000}], "place_id": "ChIJJYShUZHhQw0RLzdMCO5ut88", "plus_code": {"compound_code": "X77J+XW Gargantilla del Lozoya, Spain", "global_code": "8CGRX77J+XW"}, "reference": "ChIJJYShUZHhQw0RLzdMCO5ut88", "scope": "GOOGLE", "types": ["transit_station", "point_of_interest", "establishment"], "vicinity": "Spain"}, {"business_status": "OPERATIONAL", "geometry": {"location": {"lat": 40.965031, "lng": -3.71763}, "viewport": {"northeast": {"lat": 40.9663757302915, "lng": -3.716221169708498}, "southwest": {"lat": 40.9636777697085, "lng": -3.718919130291503}}}, "icon": "https://maps.gstatic.com/mapfiles/place_api/icons/v1/png_71/generic_business-71.png", "icon_background_color": "#7B9EB0", "icon_mask_base_uri": "https://maps.gstatic.com/mapfiles/place_api/icons/v2/generic_pinlet", "international_phone_number": "+34 900 929 293", "name": "Iberdrola Charging Station", "opening_hours": {"open_now": true}, "photos": [{"height": 1800, "html_attributions": ["<a href=\"https://maps.google.com/maps/contrib/111241125623208466705\">Fernando Tallón</a>"], "photo_reference": "AWn5SU4grl9OjlzEgXJNUMxoh2Wch0vTbTqVPQ9TJicHF41YxqOE4sm6ucARItdff_FxQRYQpNB5UIBieyiv8pOt9_iNNA2WxnVCAp089BN7wP6OcBRagST6kcazgWd6dYabLLqBtwm9PHJAb_GfEnVRhMZKR7tPN2sTb7GvaMJSGrHGAlNk4eqWzJTCGhiJFvacJ2PHJtcolCMqzsOgknT4-OusOG-6Hk6l0qDcJa66NlG99-7pF9fIbTF_vxdvIlSmakTNacM3KMbYk5cjozm7OaAEypeLTDGV6sZKcVZ9iRQpD5v-LXXVf0lF8yjWiUhDyT54uDWElC__jOQK-EbGtfPXqHrJtPqXfDQucg6NvYOG_AiAh6v4UHy7pLCDYIHlgF8S-koppfeIQFpzzYBnYpyPD0_F6EDxC2tPKY-KWI9lrF6OI-vOPcfURSiA9Pv7SXFWFFsul79lwg6dCJgABCIZupDSJf7UEUE6X-ACJIYFldKYiM4m9mxYPkzF8CnP4AX8GrBunuaAgq9qmXXkKZDycd-OA9T00dixNV-CRk68uHy3qL7qkd5u5QfgGauEsEBEviX2MoxKjtXhGt-uCfWCqXk-M5RbuQoARlzIs9Qo1xxAfFj8WBytNYSgN4G5hiXd088q", "width": 3200}], "place_id": "ChIJy1VXUJHhQw0RAf7HsJc_FPM", "plus_code": {"compound_code": "X78J+2W Gargantilla del Lozoya, Spain", "global_code": "8CGRX78J+2W"}, "rating": 4.3, "reference": "ChIJy1VXUJHhQw0RAf7HsJc_FPM", "scope": "GOOGLE", "types": ["point_of_interest", "establishment"], "user_ratings_total": 3, "vicinity": "Plaza de Carlos Ruiz, 6, Gargantilla del Lozoya"}, {"business_status": "OPERATIONAL", "geometry": {"location": {"lat": 40.9654206, "lng": -3.719083099999999}, "viewport": {"northeast": {"lat": 40.9667640802915, "lng": -3.717764369708497}, "southwest": {"lat": 40.9640661197085, "lng": -3.720462330291502}}}, "icon": "https://maps.gstatic.com/mapfiles/place_api/icons/v1/png_71/generic_business-71.png", "icon_background_color": "#13B5C7", "icon_mask_base_uri": "https://maps.gstatic.com/mapfiles/place_api/icons/v2/generic_pinlet", "name": "Potro de herrar", "place_id": "ChIJ_b2eHQDhQw0RCbwNgsvjRpo", "plus_code": {"compound_code": "X78J+59 Gargantilla del Lozoya, Spain", "global_code": "8CGRX78J+59"}, "reference": "ChIJ_b2eHQDhQw0RCbwNgsvjRpo", "scope": "GOOGLE", "types": ["point_of_interest", "establishment"], "vicinity": "Gargantilla del Lozoya"}, {"business_status": "OPERATIONAL", "geometry": {"location": {"lat": 40.9649226, "lng": -3.717409299999999}, "viewport": {"northeast": {"lat": 40.96627643029151, "lng": -3.716024069708497}, "southwest": {"lat": 40.96357846970851, "lng": -3.718722030291502}}}, "icon": "https://maps.gstatic.com/mapfiles/place_api/icons/v1/png_71/hospital-71.png", "icon_background_color": "#F88181", "icon_mask_base_uri": "https://maps.gstatic.com/mapfiles/place_api/icons/v2/hospital-H_pinlet", "name": "Centro medico", "place_id": "ChIJuQVATpHhQw0RjeVda9eyb20", "plus_code": {"compound_code": "X77M+X2 Gargantilla del Lozoya, Spain", "global_code": "8CGRX77M+X2"}, "reference": "ChIJuQVATpHhQw0RjeVda9eyb20", "scope": "GOOGLE", "types": ["hospital", "point_of_interest", "health", "establishment"], "vicinity": "Gargantilla del Lozoya"}, {"business_status": "OPERATIONAL", "geometry": {"location": {"lat": 40.9649226, "lng": -3.717409299999999}, "viewport": {"northeast": {"lat": 40.96627643029151, "lng": -3.716024069708497}, "southwest": {"lat": 40.96357846970851, "lng": -3.718722030291502}}}, "icon": "https://maps.gstatic.com/mapfiles/place_api/icons/v1/png_71/park-71.png", "icon_background_color": "#4DB546", "icon_mask_base_uri": "https://maps.gstatic.com/mapfiles/place_api/icons/v2/tree_pinlet", "name": "Finca Gargantilla", "photos": [{"height": 2340, "html_attributions": ["<a href=\"https://maps.google.com/maps/contrib/112209613930714671128\">Javier Rodriguez</a>"], "photo_reference": "AWn5SU72hLOUnRmfLhCpJHkICQx_7wuAIa230fQsjuZLAoPjuwZwcOvHDYloeuwJ2r6XFKwpo7MN7orlvw9tiBMnIYSAo9oOdZYMcMSR1eD0BKkS2CePTsCGtAsk5FWvk-z2LtHbP_S7pjLtfxQ7YCc8MjTuOqwt8Cj4nA8KpjUhZIXxwjvqrRH1WARojm3gXUu-_7BAp11Stmrj4pWcPgili9S8jzvP47XHRYTROWgja4v2O-kuIt1rii7KQqnQ-HH3Oh9Ko6slsQkfo7wFezb6rICSYdEFop4DvR2YkUArzS_oor3IS_R86DlsUx9FoVORHdHrW0crDQ-_owVIR-eQ3jIku0JreH14Y15zivyBUXqLlYPbLap5_hDRD8-Xtw782DvcDdcz7akJfnrynOEeTx2cYyjU13aaz36jgyK-Tcmhl8R7hFDQwPCt8TSu208kLlSTDSuUz5Dwqie9r4J9fCbmrrcANeZgt89NlpOnTwLIfNPkW86p70iYouSQeoTouwPKPuB0d2BNa1Rgtowq1fh9ABVrFVwRWX3Ro4i2Wt-GWyrc0qLvICgdoZkYhzqZN47vWj671nnalHC9WINFGwjfOWolqo4AxQgQzHo2zz2jfoDOKhULjCUi7beTqmTvDqAYGlGk", "width": 4160}], "place_id": "ChIJJ_qioprhQw0RDV5MGQw_W10", "plus_code": {"compound_code": "X77M+X2 Gargantilla del Lozoya, Spain", "global_code": "8CGRX77M+X2"}, "rating": 3.6, "reference": "ChIJJ_qioprhQw0RDV5MGQw_W10", "scope": "GOOGLE", "types": ["park", "point_of_interest", "establishment"], "user_ratings_total": 5, "vicinity": "Gargantilla del Lozoya"}, {"geometry": {"location": {"lat": 40.9471056, "lng": -3.697650899999999}, "viewport": {"northeast": {"lat": 40.94917318756379, "lng": -3.694783443475468}, "southwest": {"lat": 40.94552057772917, "lng": -3.700601424153084}}}, "icon": "https://maps.gstatic.com/mapfiles/place_api/icons/v1/png_71/geocode-71.png", "icon_background_color": "#7B9EB0", "icon_mask_base_uri": "https://maps.gstatic.com/mapfiles/place_api/icons/v2/generic_pinlet", "name": "Urbanización el Verdugal", "place_id": "ChIJF4qfKQThQw0RDLRYNfKtbYc", "reference": "ChIJF4qfKQThQw0RDLRYNfKtbYc", "scope": "GOOGLE", "types": ["locality", "political"], "vicinity": "Urbanización el Verdugal"}]