[{"business_status": "OPERATIONAL", "geometry": {"location": {"lat": 41.0579972, "lng": -3.5917793}, "viewport": {"northeast": {"lat": 41.0593852802915, "lng": -3.590398869708497}, "southwest": {"lat": 41.05668731970851, "lng": -3.593096830291502}}}, "icon": "https://maps.gstatic.com/mapfiles/place_api/icons/v1/png_71/generic_business-71.png", "icon_background_color": "#7B9EB0", "icon_mask_base_uri": "https://maps.gstatic.com/mapfiles/place_api/icons/v2/generic_pinlet", "name": "Aoslos - Ctra M-136", "place_id": "ChIJSwfBGE7lQw0RCcb9OLGrgXY", "plus_code": {"compound_code": "3C55+57 Aoslos, Spain", "global_code": "8CHR3C55+57"}, "reference": "ChIJSwfBGE7lQw0RCcb9OLGrgXY", "scope": "GOOGLE", "types": ["transit_station", "point_of_interest", "establishment"], "vicinity": "Spain"}, {"business_status": "OPERATIONAL", "geometry": {"location": {"lat": 41.0571703, "lng": -3.535176}, "viewport": {"northeast": {"lat": 41.0585346302915, "lng": -3.533841619708499}, "southwest": {"lat": 41.0558366697085, "lng": -3.536539580291502}}}, "icon": "https://maps.gstatic.com/mapfiles/place_api/icons/v1/png_71/generic_business-71.png", "icon_background_color": "#7B9EB0", "icon_mask_base_uri": "https://maps.gstatic.com/mapfiles/place_api/icons/v2/generic_pinlet", "name": "Ctra M-141 (Horcajuelo de la Sierra) N 1 B", "place_id": "ChIJA8G3ci7uQw0Rgzm9T08NtHY", "plus_code": {"compound_code": "3F47+VW Montejo de la Sierra, Spain", "global_code": "8CHR3F47+VW"}, "reference": "ChIJA8G3ci7uQw0Rgzm9T08NtHY", "scope": "GOOGLE", "types": ["transit_station", "point_of_interest", "establishment"], "vicinity": "Spain"}, {"business_status": "OPERATIONAL", "geometry": {"location": {"lat": 41.04752149999999, "lng": -3.5827612}, "viewport": {"northeast": {"lat": 41.0488705302915, "lng": -3.581412369708498}, "southwest": {"lat": 41.0461725697085, "lng": -3.584110330291502}}}, "icon": "https://maps.gstatic.com/mapfiles/place_api/icons/v1/png_71/bus-71.png", "icon_background_color": "#10BDFF", "icon_mask_base_uri": "https://maps.gstatic.com/mapfiles/place_api/icons/v2/bus_share_taxi_pinlet", "name": "Madarcos - Junto a Iglesia", "photos": [{"height": 1365, "html_attributions": ["<a href=\"https://maps.google.com/maps/contrib/106880790896975608067\">Lolo</a>"], "photo_reference": "AWn5SU61cretB6q3lo_s_LzKx5r5BQD6nZXq0WcIteheeM--Zf3pJ8PO9H7I75UVcZgsALWf2v9kwXP9Z35OmQBjJb5YH9pUcACFk7A9dU_2owjmzrbBqNvMCBFF2hWCfvGoFOfDeiPtwtQjoQACWZvbcIKDcmjySWJ_Uy-mE3Dnf-AL0utpL9zwMFCs5MxSNhDX5zBte1I60U7vg-jiDYooPcsQvmHnqxSH6IaFuqRVWdvGA-uGusp9rt97oE1w683G1VEAvzJUrL2V0IqsaKvaU_9UDHNDAP-4Q1vWi3iCIHTk3eFvGZPIIf2-yrvI-b6srt4HSwVs7MXUeHuYIJFGOvtCBQ7sn2RGlk5SDIL8eNHaMjYNylBBliFWzy6J8Ke2kaE_u_LcQXRCn2GPjhX0HTOZ4dCEYS3o4bz1hFCks3XHsE8nm862vYc1R0wm5UboLRKm_jTfUCUsyqJGrrslhtmjqtIUh7qWk2NbTCKDXkD4ZQxux-rCBHUjK2gz9rtMfOK9y7L5NGI_JaP-ZmOfFc983E5mnpaWPVNKDKSmLN28HInNmOfvwc7k82AdTThlKsdBJSR7afrtxNG-TLjySqqTLZQ9_KZ8Z67AMANQH3wxb7l0TV3yH0fOYR6zyqHztMDLTUGV", "width": 2048}], "place_id": "ChIJP1RyEl_lQw0RgQX9_vmqwVQ", "plus_code": {"compound_code": "2CX8+2V Madarcos, Spain", "global_code": "8CHR2CX8+2V"}, "rating": 5, "reference": "ChIJP1RyEl_lQw0RgQX9_vmqwVQ", "scope": "GOOGLE", "types": ["bus_station", "transit_station", "point_of_interest", "establishment"], "user_ratings_total": 1, "vicinity": "Spain"}, {"business_status": "OPERATIONAL", "geometry": {"location": {"lat": 41.05757999999999, "lng": -3.59076}, "viewport": {"northeast": {"lat": 41.0589416302915, "lng": -3.589400319708497}, "southwest": {"lat": 41.05624366970851, "lng": -3.592098280291502}}}, "icon": "https://maps.gstatic.com/mapfiles/place_api/icons/v1/png_71/generic_business-71.png", "icon_background_color": "#7B9EB0", "icon_mask_base_uri": "https://maps.gstatic.com/mapfiles/place_api/icons/v2/generic_pinlet", "name": "Ctra.M136-El Lomo", "place_id": "ChIJKTkW3FHlQw0Rb4At4ap8Rik", "plus_code": {"compound_code": "3C55+2M Aoslos, Spain", "global_code": "8CHR3C55+2M"}, "reference": "ChIJKTkW3FHlQw0Rb4At4ap8Rik", "scope": "GOOGLE", "types": ["transit_station", "point_of_interest", "establishment"], "vicinity": "Spain"}, {"business_status": "OPERATIONAL", "geometry": {"location": {"lat": 41.0576949, "lng": -3.590979199999999}, "viewport": {"northeast": {"lat": 41.05904748029149, "lng": -3.589627269708498}, "southwest": {"lat": 41.05634951970849, "lng": -3.592325230291503}}}, "icon": "https://maps.gstatic.com/mapfiles/place_api/icons/v1/png_71/generic_business-71.png", "icon_background_color": "#7B9EB0", "icon_mask_base_uri": "https://maps.gstatic.com/mapfiles/place_api/icons/v2/generic_pinlet", "name": "Aoslos - Ctra M-136", "place_id": "ChIJMwJq3FHlQw0R8KtKbQ27UyA", "plus_code": {"compound_code": "3C55+3J Aoslos, Spain", "global_code": "8CHR3C55+3J"}, "rating": 2, "reference": "ChIJMwJq3FHlQw0R8KtKbQ27UyA", "scope": "GOOGLE", "types": ["transit_station", "point_of_interest", "establishment"], "user_ratings_total": 1, "vicinity": "Spain"}, {"business_status": "OPERATIONAL", "geometry": {"location": {"lat": 41.0543082, "lng": -3.5978868}, "viewport": {"northeast": {"lat": 41.05565308029151, "lng": -3.596524369708497}, "southwest": {"lat": 41.05295511970851, "lng": -3.599222330291501}}}, "icon": "https://maps.gstatic.com/mapfiles/place_api/icons/v1/png_71/bus-71.png", "icon_background_color": "#10BDFF", "icon_mask_base_uri": "https://maps.gstatic.com/mapfiles/place_api/icons/v2/bus_share_taxi_pinlet", "name": "Aoslos - Calle Real 14", "photos": [{"height": 2268, "html_attributions": ["<a href=\"https://maps.google.com/maps/contrib/102217636275959917491\">óSKAr Contreras</a>"], "photo_reference": "AWn5SU70gi2o59s9360xEooDEsf79s5RnM40gwdowKBcR3HdEG7-pxUDOWiavnEE3T4WlzWUhoKagiuolbyh4C1I7K7vdGzc4tkbL8eEmx9sO4P9_G_ilp9veVEHB-egfqkSpQCEXvm1TVSP28MQIS8iFAa60RaGn9lrYHTAqLx-GeD1PsGJx0p1rmBuSH6QBxjW8PJXz8Hu6Xu1rkIPfInukvQZmdqONcrlRfaSArUY6_zLPpAIhk5-4j7Q5rGxi1xVGlJC5rQsMzxkLa6ckPqtI6FsGAlqMVO1FF_L7OUkcSMTSzSH-FsLM6RBguo5uwO9rl855joTZbHG2oBKYgIkPIZ7APKe20p9HkrYoetbh2bHmHIgSzE6O1tlb2FeWQmnJkdswcXihoAuOoAGYrvBPjrntG3TBaPA5P9mzsT3yNtoHLapT7xUIdqs4N8UcH0sU3CBxoy7xmf5ZPCwYCukR3ZjFKtge5cloPtuIeD_o4CF7N2TmklUGn5R9wKD3QKMh7RjiYLo_vMkJktg8JfulL2DVQUupEtUy4gM7VtSa51WoEPqL1SJgIpfpR5tB1hnW9nh2MWe-7KAi8fKC_h7LUnR-jGeROz_0V5shoFY6_2b6A6n5XSicHTVsf12Cd6j1UZHkw", "width": 4032}], "place_id": "ChIJpw0nmUjlQw0R0eo2lliXbS0", "plus_code": {"compound_code": "3C32+PR Aoslos, Spain", "global_code": "8CHR3C32+PR"}, "rating": 4, "reference": "ChIJpw0nmUjlQw0R0eo2lliXbS0", "scope": "GOOGLE", "types": ["bus_station", "transit_station", "point_of_interest", "establishment"], "user_ratings_total": 1, "vicinity": "Spain"}, {"business_status": "OPERATIONAL", "geometry": {"location": {"lat": 41.033024, "lng": -3.5993117}, "viewport": {"northeast": {"lat": 41.0343389802915, "lng": -3.597963919708498}, "southwest": {"lat": 41.0316410197085, "lng": -3.600661880291502}}}, "icon": "https://maps.gstatic.com/mapfiles/place_api/icons/v1/png_71/bus-71.png", "icon_background_color": "#10BDFF", "icon_mask_base_uri": "https://maps.gstatic.com/mapfiles/place_api/icons/v2/bus_share_taxi_pinlet", "name": "Piñuecar - Ayuntamiento", "photos": [{"height": 2268, "html_attributions": ["<a href=\"https://maps.google.com/maps/contrib/109635744922462026818\">Gnicolini Stevent</a>"], "photo_reference": "AWn5SU7LDlugD_rf5TYQJuGI5QwbUewT9Gle_3Fq8XSKWne62S1_EaKeksXEd4Hs0M0RPx3x_tPPB-YtjyfuxmA1aQiZ_aRDEtPdNyqXK8Oy5sshCN_vz4SLetUJSmOYEziAsodLiEGu_5NN9odwqfDecblegE5Pf_e0TG8nnxrDj-8bk_72okvH1pOOCrQbilTSwsbve4ae4VPzvGG5Tb7DzXsM6MdFB5mTVIfXPn5uAWgo-GoCviPVLHsefFpp_-fOmlWf6ceFq-kIG482zKPX-j9MAHP_RyochLpkytfL1OTIrDpqOy-H8WflEjqUYtnI-4uu6183pukHNff_Va1utf9EwkAncZAsIr46_gY8tDOkdlOjaa7ZMwOOnZMp63rTPVO_cERRVLZWGtNFXoJCUcKlqbvSNguzTod9otDtrZHl2miSSRBHX8UMc8Wq9wwbmUsy6Yn7hRkN1P6U6XabxiZoLerCt9lMQHdJHrqHzdzzddXd1qppcSThQEloqxADvrZU63-A2PHSMM_ER7PHPWtSLuDdEoCN4MYmtQwJn8dKcuh0OGQ_lbJfPGsl0fr354txAo_mXBWRRCrU9tyMuPjk5SfIiA_KxFx4mYKWNTjNYX9ja1rADmiT9Pv3-FDXOiUdJOv7", "width": 4032}], "place_id": "ChIJPxwzj3LlQw0RhrZWiv8EbZ4", "plus_code": {"compound_code": "2CM2+67 Piñuécar, Spain", "global_code": "8CHR2CM2+67"}, "rating": 5, "reference": "ChIJPxwzj3LlQw0RhrZWiv8EbZ4", "scope": "GOOGLE", "types": ["bus_station", "transit_station", "point_of_interest", "establishment"], "user_ratings_total": 2, "vicinity": "Spain"}, {"business_status": "OPERATIONAL", "geometry": {"location": {"lat": 41.0330767, "lng": -3.599479}, "viewport": {"northeast": {"lat": 41.0344734302915, "lng": -3.598145569708498}, "southwest": {"lat": 41.0317754697085, "lng": -3.600843530291503}}}, "icon": "https://maps.gstatic.com/mapfiles/place_api/icons/v1/png_71/generic_business-71.png", "icon_background_color": "#7B9EB0", "icon_mask_base_uri": "https://maps.gstatic.com/mapfiles/place_api/icons/v2/generic_pinlet", "name": "Piñuecar - Iglesia", "photos": [{"height": 4160, "html_attributions": ["<a href=\"https://maps.google.com/maps/contrib/116125616616597274199\">Pilar Preciado</a>"], "photo_reference": "AWn5SU7QlgS0AhVEcsf_LaKx2U55WjXsHJhGGhE4L2VCtwE54gIfVTkKGqlM5XrZuU3cgiJ9-jxIKocmQ8gfmezhhv1cnBjew_Ucah9zAaCBCawI1KhNpURkx9jqcCySq0SFedEv3awfEX1U78-0o5hL59PSDxKNZOdH9-CZXuQCun_vBg5lIacpTbh1hGWL9INASFQuTMTxLtc4kQBrFb1_qOUBh7smeQchT9-lbQEpV5hxP5_MuAKTfNWu5CCit27h2ia5Ztclqn61sjtotHc28NcuEu5SLYRcCuMWLb7-j19nMYv_jHJ3EVKXQ0TxTjzTE9UD7JJw6hj3lVy2ezv7xK7UgJ23HF0bjTfMxW5lOrsAtKbJ5G22SZFY9MeSMteygS5jLOUC_JfzZEpWSWcg7MupIr2Len9qx3OlG0j2JASSKPhPjOmhwU33_HQZYE3el06edfo7oQIePFRJnz6TrEXXVxXJ0F254uBdcsYIJLi_CS-KDtaP4OH815ICXU3MCtd_DZ6w6-ofPP4v0V6IiUrnKifOflOodDmPBo698XgP_1lTMSFRSl2aJ0FDYeAoIQuCiCdfszF4jct7tUi-aPYoXX65oOzw26cLpK6CQ-dzOv1H9EOLnrNCHNsTyp4vQuAemTGx", "width": 3120}], "place_id": "ChIJzWGcj3LlQw0Rw63EKNuDm8c", "plus_code": {"compound_code": "2CM2+66 Piñuécar, Spain", "global_code": "8CHR2CM2+66"}, "reference": "ChIJzWGcj3LlQw0Rw63EKNuDm8c", "scope": "GOOGLE", "types": ["transit_station", "point_of_interest", "establishment"], "vicinity": "Spain"}, {"business_status": "OPERATIONAL", "geometry": {"location": {"lat": 41.067371, "lng": -3.5854358}, "viewport": {"northeast": {"lat": 41.06871513029149, "lng": -3.584102919708497}, "southwest": {"lat": 41.0660171697085, "lng": -3.586800880291501}}}, "icon": "https://maps.gstatic.com/mapfiles/place_api/icons/v1/png_71/bus-71.png", "icon_background_color": "#10BDFF", "icon_mask_base_uri": "https://maps.gstatic.com/mapfiles/place_api/icons/v2/bus_share_taxi_pinlet", "name": "Horcajo - Calle Carretera 33", "place_id": "ChIJJUPMm6v6Qw0RNXOXdK_ckrc", "plus_code": {"compound_code": "3C87+WR Horcajo de la Sierra, Spain", "global_code": "8CHR3C87+WR"}, "reference": "ChIJJUPMm6v6Qw0RNXOXdK_ckrc", "scope": "GOOGLE", "types": ["bus_station", "transit_station", "point_of_interest", "establishment"], "vicinity": "Spain"}, {"business_status": "OPERATIONAL", "geometry": {"location": {"lat": 41.0676317, "lng": -3.5855332}, "viewport": {"northeast": {"lat": 41.0689768302915, "lng": -3.584140819708497}, "southwest": {"lat": 41.0662788697085, "lng": -3.586838780291501}}}, "icon": "https://maps.gstatic.com/mapfiles/place_api/icons/v1/png_71/generic_business-71.png", "icon_background_color": "#7B9EB0", "icon_mask_base_uri": "https://maps.gstatic.com/mapfiles/place_api/icons/v2/generic_pinlet", "name": "Horcajo - Trva Carretera 1", "place_id": "ChIJy8f1kKv6Qw0R8NXJEygDsvs", "plus_code": {"compound_code": "3C97+3Q Horcajo de la Sierra, Spain", "global_code": "8CHR3C97+3Q"}, "reference": "ChIJy8f1kKv6Qw0R8NXJEygDsvs", "scope": "GOOGLE", "types": ["transit_station", "point_of_interest", "establishment"], "vicinity": "Spain"}, {"business_status": "OPERATIONAL", "geometry": {"location": {"lat": 41.06168, "lng": -3.60956}, "viewport": {"northeast": {"lat": 41.06317448029149, "lng": -3.608183969708497}, "southwest": {"lat": 41.06047651970849, "lng": -3.610881930291502}}}, "icon": "https://maps.gstatic.com/mapfiles/place_api/icons/v1/png_71/generic_business-71.png", "icon_background_color": "#7B9EB0", "icon_mask_base_uri": "https://maps.gstatic.com/mapfiles/place_api/icons/v2/generic_pinlet", "name": "Ctra.A1-Cruce Aoslos", "place_id": "ChIJZULl-jLlQw0Rc6a4Z4cY5EQ", "plus_code": {"compound_code": "396R+M5 Aoslos, Spain", "global_code": "8CHR396R+M5"}, "reference": "ChIJZULl-jLlQw0Rc6a4Z4cY5EQ", "scope": "GOOGLE", "types": ["transit_station", "point_of_interest", "establishment"], "vicinity": "Spain"}, {"business_status": "OPERATIONAL", "geometry": {"location": {"lat": 41.0616243, "lng": -3.609616399999999}, "viewport": {"northeast": {"lat": 41.0631443802915, "lng": -3.608206819708498}, "southwest": {"lat": 41.0604464197085, "lng": -3.610904780291502}}}, "icon": "https://maps.gstatic.com/mapfiles/place_api/icons/v1/png_71/generic_business-71.png", "icon_background_color": "#7B9EB0", "icon_mask_base_uri": "https://maps.gstatic.com/mapfiles/place_api/icons/v2/generic_pinlet", "name": "Desvio Acebeda-Aoslos A-1", "photos": [{"height": 3120, "html_attributions": ["<a href=\"https://maps.google.com/maps/contrib/115115824585001810387\">JAIR OTALVARO</a>"], "photo_reference": "AWn5SU7-L5GzHejmNexM9Fzg4DZc8egkK72L2Zvl2CLH0i1Fp1KmsHgTGOajBzAAaVvi5t89WaQ1OoD2cCcM9U67xqKmYxA-mfEhiBt6Yv6zZGZ4ZtzjSoFC65wDnRTl34VMu-3esH83hjYLx6MIBYgTSKs0rcnjSsQq8piTbiu-l8ris3k_jwhQYAq9WKuf3mzZy8XcheIe0UNneZcp-5S-07PB9BqbuHp2L8ckslEgGqzuDghYSx01kFHkhSzmgQej9qRkMRw-g6x6dPfDJxPm5E3YzEmDJpTCFe-A3x2KXgpkxTSAAb7PN6BkFoNJFe8XlBN_-nTLYPxCf36H1hO19N9J5zJ9aauZaih1qKdQ8LnhdfPjtzpjV0BlNsHG7McZVuxiNHDlLz2D2hh7ECDzr4o5mu0OZHi_bwLxVhk1mRrXvX-bpzPgFl6lGFOh09Os9z0JS20uJh4iatufT60NxuifrtGDAvR7H4qUAAUV5O17xwcEeDagjIXK5EyjwVhLlSx4Wox7QxvWY9Cdb5C4uN0ZwQzSSBGdk7j77TYmHhKQopY3octwRvIHSqKGXGRUmgsW06z9iSYuiu3t2v8w1pGbFjguiqICQ1N_46gYTVBV8_I-W-UPL5Ky9qV6ERgCNL_E0Q", "width": 4160}], "place_id": "ChIJOZb7-jLlQw0RXPV7O-_MW1w", "plus_code": {"compound_code": "396R+J5 Aoslos, Spain", "global_code": "8CHR396R+J5"}, "rating": 5, "reference": "ChIJOZb7-jLlQw0RXPV7O-_MW1w", "scope": "GOOGLE", "types": ["transit_station", "point_of_interest", "establishment"], "user_ratings_total": 2, "vicinity": "Spain"}, {"business_status": "OPERATIONAL", "geometry": {"location": {"lat": 41.06263, "lng": -3.61066}, "viewport": {"northeast": {"lat": 41.0639257802915, "lng": -3.609334619708498}, "southwest": {"lat": 41.0612278197085, "lng": -3.612032580291503}}}, "icon": "https://maps.gstatic.com/mapfiles/place_api/icons/v1/png_71/generic_business-71.png", "icon_background_color": "#7B9EB0", "icon_mask_base_uri": "https://maps.gstatic.com/mapfiles/place_api/icons/v2/generic_pinlet", "name": "Ctra.A1-Cruce Aoslos", "place_id": "ChIJHSoCvDLlQw0RP597m_KDQRg", "plus_code": {"compound_code": "397Q+3P Aoslos, Spain", "global_code": "8CHR397Q+3P"}, "reference": "ChIJHSoCvDLlQw0RP597m_KDQRg", "scope": "GOOGLE", "types": ["transit_station", "point_of_interest", "establishment"], "vicinity": "Spain"}, {"business_status": "OPERATIONAL", "geometry": {"location": {"lat": 41.0625456, "lng": -3.610838499999999}, "viewport": {"northeast": {"lat": 41.0638702802915, "lng": -3.609473819708498}, "southwest": {"lat": 41.0611723197085, "lng": -3.612171780291503}}}, "icon": "https://maps.gstatic.com/mapfiles/place_api/icons/v1/png_71/generic_business-71.png", "icon_background_color": "#7B9EB0", "icon_mask_base_uri": "https://maps.gstatic.com/mapfiles/place_api/icons/v2/generic_pinlet", "name": "Desvio Acebeda-Aoslos A-1", "place_id": "ChIJw_dZvDLlQw0RxSNEsu4g8kM", "plus_code": {"compound_code": "397Q+2M Aoslos, Spain", "global_code": "8CHR397Q+2M"}, "rating": 3, "reference": "ChIJw_dZvDLlQw0RxSNEsu4g8kM", "scope": "GOOGLE", "types": ["transit_station", "point_of_interest", "establishment"], "user_ratings_total": 1, "vicinity": "Spain"}, {"business_status": "OPERATIONAL", "geometry": {"location": {"lat": 41.0597948, "lng": -3.5450835}, "viewport": {"northeast": {"lat": 41.06115048029151, "lng": -3.543717269708498}, "southwest": {"lat": 41.05845251970851, "lng": -3.546415230291502}}}, "icon": "https://maps.gstatic.com/mapfiles/place_api/icons/v1/png_71/generic_business-71.png", "icon_background_color": "#7B9EB0", "icon_mask_base_uri": "https://maps.gstatic.com/mapfiles/place_api/icons/v2/generic_pinlet", "name": "Horcajuelo - C/ Blanco 2", "place_id": "ChIJDY8E79PvQw0RkcAczZg0rsY", "plus_code": {"compound_code": "3F53+WX Horcajuelo de la Sierra, Spain", "global_code": "8CHR3F53+WX"}, "reference": "ChIJDY8E79PvQw0RkcAczZg0rsY", "scope": "GOOGLE", "types": ["transit_station", "point_of_interest", "establishment"], "vicinity": "Spain"}, {"business_status": "OPERATIONAL", "geometry": {"location": {"lat": 41.0438511, "lng": -3.5410849}, "viewport": {"northeast": {"lat": 41.04520308029149, "lng": -3.539710019708498}, "southwest": {"lat": 41.04250511970849, "lng": -3.542407980291502}}}, "icon": "https://maps.gstatic.com/mapfiles/place_api/icons/v1/png_71/generic_business-71.png", "icon_background_color": "#7B9EB0", "icon_mask_base_uri": "https://maps.gstatic.com/mapfiles/place_api/icons/v2/generic_pinlet", "name": "CTRA.M137-Prádena del Rincón", "photos": [{"height": 1536, "html_attributions": ["<a href=\"https://maps.google.com/maps/contrib/100411667854340287579\">David Espinosa 34#</a>"], "photo_reference": "AWn5SU4ERtQ1UXseWwLdD88c0zYsVEAF0Ro8gvibIQLfbyBZUiOxtOMQL57sV1_buknb4BROFw7qHKqrog64Wch14HiXqQSY9azqz8ZtxkVUyqkNVC5OD2EeKMngsg0bWgacBtE1V1l6qFqPm_kVYHRzZtBChO8GqgwcRJax5bxng1_gLl--3nFSxBiLbcDAdcYJvhJDiW9r9JaVHiV41-UQkhpc45tWDH3qdIhgmt4MmDdzHbl9XCQHU_O_1w4skbGESbh67T2uBUfmhBZV7naTHuZyYlcbvC0U9UlvoaoaRzmO9T9-DWgxTvaxBktc0sX5dq2qMvAFP32-75eLk05FaYX3CM4fVrR7yvjiILotUeghiaVFQJdBjCBkpYIvwhebPg4PPmVRCDT3x2Xs4KlHN3JFjg76URqataYQJCqYv7ClPoQS7hC15BCtq1DZXPn0BPtYv73aVaujW5pzugwLhytiCG75TyNafUhoZIYcQDLMxx-R22QDkmHc8LCuydOjZw3s5xEEZqncLY8fGqkiXLquqU4pxzlYDcUOZiU_sThV6g-UEyBoOoiiM9GiJSk21sie04GYGZighGESRZ-guuhmrw9a3L-87KDZLbpzQdUJE_cUjs2qMG4gWOW0nzIvtHPNAA", "width": 2048}], "place_id": "ChIJVzgkMrXvQw0RP7Wt1tGiwKI", "plus_code": {"compound_code": "2FV5+GH Prádena del Rincón, Spain", "global_code": "8CHR2FV5+GH"}, "rating": 5, "reference": "ChIJVzgkMrXvQw0RP7Wt1tGiwKI", "scope": "GOOGLE", "types": ["transit_station", "point_of_interest", "establishment"], "user_ratings_total": 2, "vicinity": "Spain"}, {"business_status": "OPERATIONAL", "geometry": {"location": {"lat": 41.043834, "lng": -3.5409181}, "viewport": {"northeast": {"lat": 41.0451850302915, "lng": -3.539619419708498}, "southwest": {"lat": 41.0424870697085, "lng": -3.542317380291502}}}, "icon": "https://maps.gstatic.com/mapfiles/place_api/icons/v1/png_71/bus-71.png", "icon_background_color": "#10BDFF", "icon_mask_base_uri": "https://maps.gstatic.com/mapfiles/place_api/icons/v2/bus_share_taxi_pinlet", "name": "Pradena Rincon- Ayuntamiento", "place_id": "ChIJu8PyMrXvQw0ROJR8sJNuG64", "plus_code": {"compound_code": "2FV5+GJ Prádena del Rincón, Spain", "global_code": "8CHR2FV5+GJ"}, "reference": "ChIJu8PyMrXvQw0ROJR8sJNuG64", "scope": "GOOGLE", "types": ["bus_station", "transit_station", "point_of_interest", "establishment"], "vicinity": "Spain"}, {"business_status": "OPERATIONAL", "geometry": {"location": {"lat": 41.02768999999999, "lng": -3.62155}, "viewport": {"northeast": {"lat": 41.02913408029151, "lng": -3.620195819708498}, "southwest": {"lat": 41.02643611970851, "lng": -3.622893780291502}}}, "icon": "https://maps.gstatic.com/mapfiles/place_api/icons/v1/png_71/generic_business-71.png", "icon_background_color": "#7B9EB0", "icon_mask_base_uri": "https://maps.gstatic.com/mapfiles/place_api/icons/v2/generic_pinlet", "name": "Ctra.A1-Cruce La Serna del Monte", "photos": [{"height": 1824, "html_attributions": ["<a href=\"https://maps.google.com/maps/contrib/116938342873591139492\">Meri Luukkanen</a>"], "photo_reference": "AWn5SU4iheS9N0bbakCyeAiRYOuW2_dvNdRSBnzkiUWDt8RL2bjvDOO6AFfDfqExIPNkpCRCmD9laWtZF-9u6_78quQgZp1R3Bbl144IK_305_DYHvhphNLt75DAq8jLcgxkr9eSP0x4X_fgACGF6mL1iM2gQ0McNLK2sa_PzcStygcHWQqKJ_jYmpL7io6eZ_wt7KWLBLBR3cOHNLTTP3rDBRRJspaURK6HaiNomeBjrJOB5OTS5aSePtt848V_mX6wGCtzbqMCHWBGsdNnCpNezk90oKKlxhi9jqHZ1UPCXUAN9DCsAWe9NtAejIoNjB7_9WnaMVwmUC6_nHFTrZ8fB0Gwo9_28T4Sna33i5PfrLT8soKgZQgDl83pCAQuX-sQqjZvHSXMKGefUCAZ-5MdqigLXSqkXivjlCHK6ks1gmOkmDw9mG1SyoaWG0ichAF4650XEXADAIhfRjjaTgPdQZgXcXyihPPNxkPXmKu2pcMBQ6OYfYd19nrHlJZ0W45VSUaPkQqr7RfW4hMBxjc89ML2OxMNa3Dyu6XPC09_Mbm-wfkEbwcJMY3UGCGUS9rR6M29FbMOfiDV5kwmC4beFPxgX114F-yCW3hb0LBjj4KtbkdhD-PXsfqFA0SSdSMIQlbyt5nM", "width": 3648}], "place_id": "ChIJg_wO_QHlQw0Rrs9zZJUOmdg", "plus_code": {"compound_code": "29HH+39 La Serna del Monte, Spain", "global_code": "8CHR29HH+39"}, "reference": "ChIJg_wO_QHlQw0Rrs9zZJUOmdg", "scope": "GOOGLE", "types": ["transit_station", "point_of_interest", "establishment"], "vicinity": "Spain"}, {"business_status": "OPERATIONAL", "geometry": {"location": {"lat": 41.02750919999999, "lng": -3.6216605}, "viewport": {"northeast": {"lat": 41.02905713029149, "lng": -3.620301719708498}, "southwest": {"lat": 41.02635916970849, "lng": -3.622999680291502}}}, "icon": "https://maps.gstatic.com/mapfiles/place_api/icons/v1/png_71/generic_business-71.png", "icon_background_color": "#7B9EB0", "icon_mask_base_uri": "https://maps.gstatic.com/mapfiles/place_api/icons/v2/generic_pinlet", "name": "Desvio La Serna-Piñuecar A-1", "place_id": "ChIJHZwa_QHlQw0RNqT1B9ieYJM", "plus_code": {"compound_code": "29HH+28 La Serna del Monte, Spain", "global_code": "8CHR29HH+28"}, "reference": "ChIJHZwa_QHlQw0RNqT1B9ieYJM", "scope": "GOOGLE", "types": ["transit_station", "point_of_interest", "establishment"], "vicinity": "Spain"}, {"business_status": "OPERATIONAL", "geometry": {"location": {"lat": 41.02842140000001, "lng": -3.6229061}, "viewport": {"northeast": {"lat": 41.0297719302915, "lng": -3.621555169708498}, "southwest": {"lat": 41.0270739697085, "lng": -3.624253130291503}}}, "icon": "https://maps.gstatic.com/mapfiles/place_api/icons/v1/png_71/generic_business-71.png", "icon_background_color": "#7B9EB0", "icon_mask_base_uri": "https://maps.gstatic.com/mapfiles/place_api/icons/v2/generic_pinlet", "name": "Desvio La Serna A-1 en Puente", "place_id": "ChIJQ1ID5_3kQw0RaVIL2A_EkuU", "plus_code": {"compound_code": "29HG+9R La Serna del Monte, Spain", "global_code": "8CHR29HG+9R"}, "reference": "ChIJQ1ID5_3kQw0RaVIL2A_EkuU", "scope": "GOOGLE", "types": ["transit_station", "point_of_interest", "establishment"], "vicinity": "Spain"}]