[{"business_status": "OPERATIONAL", "geometry": {"location": {"lat": 40.38979469999999, "lng": -3.4134759}, "viewport": {"northeast": {"lat": 40.39123798029149, "lng": -3.412149869708498}, "southwest": {"lat": 40.38854001970849, "lng": -3.414847830291502}}}, "icon": "https://maps.gstatic.com/mapfiles/place_api/icons/v1/png_71/school-71.png", "icon_background_color": "#7B9EB0", "icon_mask_base_uri": "https://maps.gstatic.com/mapfiles/place_api/icons/v2/school_pinlet", "international_phone_number": "+34 918 85 12 61", "name": "C.E.I.P Charles Dickens", "place_id": "ChIJyxw_mIVHQg0R3jrZaPkruNA", "plus_code": {"compound_code": "9HQP+WJ Loeches, Spain", "global_code": "8CGR9HQP+WJ"}, "reference": "ChIJyxw_mIVHQg0R3jrZaPkruNA", "scope": "GOOGLE", "types": ["primary_school", "school", "point_of_interest", "establishment"], "vicinity": "28002,, Calle Berlín, 1, Loeches"}, {"business_status": "OPERATIONAL", "geometry": {"location": {"lat": 40.3900476, "lng": -3.4206747}, "viewport": {"northeast": {"lat": 40.3916158302915, "lng": -3.419261269708499}, "southwest": {"lat": 40.3889178697085, "lng": -3.421959230291503}}}, "icon": "https://maps.gstatic.com/mapfiles/place_api/icons/v1/png_71/school-71.png", "icon_background_color": "#7B9EB0", "icon_mask_base_uri": "https://maps.gstatic.com/mapfiles/place_api/icons/v2/school_pinlet", "international_phone_number": "+34 918 86 70 65", "name": "Colegio Montfort", "photos": [{"height": 1456, "html_attributions": ["<a href=\"https://maps.google.com/maps/contrib/106195535158610578958\">Alberto Girado</a>"], "photo_reference": "AWn5SU6aba5pUaZZ29eDdoilitB-E6BoGeOL37MXuws_ZNWi3IhZes1ql5Zj4T2o7ix-MAqoJkjvQfBMxmgb_tx4W7hEKYsQd7jCN9rZaQkadqjNj46fAVofk2I4qVEzDlsVsOXNnjdGx7_4Pl6Dq5fgmgIywwaqGNvuH8rCnkeRzTFeXXDKUDp5bpKjG64MF6OQWmB4W29DSlI6tdVOjJvAj31DumlxVspL6--JhyBKSZP1oN4-xrYSKXFk28VdM6CTKC36vdiq-9YDAaByRXsRLGYJa8LgUALfK-uzcYUghluGypkuXuPT8s8bFV28Ex-uUCVBpuqmYWtMSDrAHuLsqgOiZNEdU9j_H5wpQjNbGJ7-T3mmeJS9kGWLJHbYjTgdanITrW-ovNxrWXqEX7GlRilV_9_ZnyVWHwZFnU5s0YHtPY-DsD23oWtp4Dud2uW6EAG_JTh995PX0TojJz5IvfWD9qgd-_ZRKvPN4mocMDyVqoJbcd-2aIYyoYGw8sNpwjdNWGUPmAOPYagwKvSebbZADKD90Tq3yeU3oVCVPiZ3iy4JpyQnpTtbMmyu7Sh4BSdcBOQkZVeODQd78JqHo0NPLUb0u8uoIL1mSfp8quKH6GZy1G-nGd-CGGKW2PrGvIL1Pw", "width": 2184}], "place_id": "ChIJuwhKbYdHQg0R1aEcxWZXSGE", "plus_code": {"compound_code": "9HRH+2P Loeches, Spain", "global_code": "8CGR9HRH+2P"}, "reference": "ChIJuwhKbYdHQg0R1aEcxWZXSGE", "scope": "GOOGLE", "types": ["primary_school", "school", "point_of_interest", "establishment"], "vicinity": "Avenida de la Constitución, s/n, Loeches"}, {"business_status": "OPERATIONAL", "geometry": {"location": {"lat": 40.3675118, "lng": -3.315385999999999}, "viewport": {"northeast": {"lat": 40.3688322802915, "lng": -3.313983319708497}, "southwest": {"lat": 40.3661343197085, "lng": -3.316681280291501}}}, "icon": "https://maps.gstatic.com/mapfiles/place_api/icons/v1/png_71/school-71.png", "icon_background_color": "#7B9EB0", "icon_mask_base_uri": "https://maps.gstatic.com/mapfiles/place_api/icons/v2/school_pinlet", "name": "Colegio público, C.R.A VEGA DE TAJUÑA", "place_id": "ChIJF2ah4l5FQg0RELby7toVAaY", "plus_code": {"compound_code": "9M9M+2R Pozuelo del Rey, Spain", "global_code": "8CGR9M9M+2R"}, "reference": "ChIJF2ah4l5FQg0RELby7toVAaY", "scope": "GOOGLE", "types": ["primary_school", "school", "point_of_interest", "establishment"], "vicinity": "Calle El Olmo, Pozuelo del Rey"}]