[{"business_status": "OPERATIONAL", "geometry": {"location": {"lat": 40.836441, "lng": -3.497376199999999}, "viewport": {"northeast": {"lat": 40.8377489802915, "lng": -3.496091169708498}, "southwest": {"lat": 40.8350510197085, "lng": -3.498789130291502}}}, "icon": "https://maps.gstatic.com/mapfiles/place_api/icons/v1/png_71/hospital-71.png", "icon_background_color": "#F88181", "icon_mask_base_uri": "https://maps.gstatic.com/mapfiles/place_api/icons/v2/hospital-H_pinlet", "international_phone_number": "+34 918 43 19 46", "name": "Consultorio local Torremocha de Jarama", "photos": [{"height": 1923, "html_attributions": ["<a href=\"https://maps.google.com/maps/contrib/103644858766260406648\">Un opinante delirante</a>"], "photo_reference": "AWn5SU4VAKLL0HRG1h_4JPPPv1G9_0oTvVQtTXgHAQUPQsyRmVW4Z6fyryvoj_rhQO811vLT3nFveXkVlOTCCf41hRzKXqKJsLFI6K5HOxWv0ZZA125QGdij6HYshFV5pdhUQgmwKp8FvN7Dw3Bg40-gdWFxzVyw6cH4sh6kvTidLArDrkddhzmGRR6TS3oQujWLhWAMTdSjQjE0fdNIQP160vzIOMDIIkt_eq4vfPisUZZZHrH3CjKq3XSAmocEFUL6AyCHRU7XDDTb_Bc5AkgdK5Kv5IHlWP8dNixnPvjzwQUQqHeDjZeRvQkKgPMqhx7sY9UofhmCgTBtHA4uG4sFDOsrIN5p4uOydaB3ygeL0aV7eodcGxHlIhUQuFi2G_XyE-Y1yy25KsESh2IPo91IWAJajZkc1B4HP96b9RgbEcNPFyPtMr6gnqYmlyAF5KUwG2Zaip15LWdUK80TUHYzpeACAQsJmytzhefR8NVoBREX3aZv5fOYBJ1jqt2CvGSJ9qaq8PFm8zSNeQbXDisf1BviwjLrq4-xKS7rtosII1peeJwb9_Yp_LzC0dXYKBIUnZC4jrYHUyxUqVyZpGc1xetM69vZctCXLDXvDZvVFK1qdjSg3nEjevfThbQNW2y6", "width": 3064}], "place_id": "ChIJRZMHtlnBQw0R9B8StIByCME", "plus_code": {"compound_code": "RGP3+H2 Torremocha de Jarama, Spain", "global_code": "8CGRRGP3+H2"}, "rating": 4.6, "reference": "ChIJRZMHtlnBQw0R9B8StIByCME", "scope": "GOOGLE", "types": ["hospital", "doctor", "health", "point_of_interest", "establishment"], "user_ratings_total": 5, "vicinity": "Calle Canal de Isabel II, 20, Torremocha de Jarama"}, {"business_status": "OPERATIONAL", "geometry": {"location": {"lat": 40.7923726, "lng": -3.5998514}, "viewport": {"northeast": {"lat": 40.7937691802915, "lng": -3.598642769708498}, "southwest": {"lat": 40.7910712197085, "lng": -3.601340730291502}}}, "icon": "https://maps.gstatic.com/mapfiles/place_api/icons/v1/png_71/hospital-71.png", "icon_background_color": "#F88181", "icon_mask_base_uri": "https://maps.gstatic.com/mapfiles/place_api/icons/v2/hospital-H_pinlet", "name": "Consultorio médico", "place_id": "ChIJAaQ7XADbQw0RS7ojttehLu0", "plus_code": {"compound_code": "QCR2+W3 Cotos de Monterrey, Spain", "global_code": "8CGRQCR2+W3"}, "reference": "ChIJAaQ7XADbQw0RS7ojttehLu0", "scope": "GOOGLE", "types": ["hospital", "health", "point_of_interest", "establishment"], "vicinity": "Calle del Puerto de Despeñaperros, Cotos de Monterrey"}, {"business_status": "OPERATIONAL", "geometry": {"location": {"lat": 40.7694342, "lng": -3.533796}, "viewport": {"northeast": {"lat": 40.7707553802915, "lng": -3.532451069708499}, "southwest": {"lat": 40.7680574197085, "lng": -3.535149030291502}}}, "icon": "https://maps.gstatic.com/mapfiles/place_api/icons/v1/png_71/hospital-71.png", "icon_background_color": "#F88181", "icon_mask_base_uri": "https://maps.gstatic.com/mapfiles/place_api/icons/v2/hospital-H_pinlet", "name": "Consultorio Local", "photos": [{"height": 3000, "html_attributions": ["<a href=\"https://maps.google.com/maps/contrib/111095930522300223096\">Miguel Luque</a>"], "photo_reference": "AWn5SU7pryR3ZF0ljcwRUS5kN6ZplUtr1MrNrsopvTkID-Xfqt74i24f_BTrxY6psb4nkgk-B6jGoYkxC39dqE1GgeYv09jn-a1T1NXrt7hPJagGZl_g23fp_X1pFM4JN_5-9FlEAddAchAbxuPNRwh80X5liC_F590-6mxatQ5UW6P_NNu3NJbMyWjecICrJ-5drflZXGvcZeOQjYmuzvkuc6DdNw4a3hrhQF7WRqbWVOuR3okYYivuRFxoGAbutdd8tesIn35kqXaTg2WFSO0yqtVjN4fgJykh0aLAumG21XfM6lxwojuP6QKU7lrS-BS3yqhFi6MI7yMMTh5QQc6e1o4fAhJrj2PhNGvE6RTOPeIcSb4vJz-Yb3EB9Uzdg6rgofPI18CuWMTDuevgWfwG8jR_zFvrnsLHJYp0cbG2DajXAShOpRr2LBdqsTvrnfjLpfPYZxBRXdDishlR0ykqVnn3OOmOBY6LeWx7noHcKVF7DXaNaXu24mmecTB61XIUB7S9q6zdD3p0pEahCtYPC4T1oSeNoqESS_9Bk66xUdTFPgc5y7lUa3x2X3-uiGJl2Vd7_XPjpI9M8auPQHJh4mUdOw3a7zxRZE_DY9UmtMvHSPZVFQ9LqpBr5I_4VSd2EhbHaQ", "width": 4000}], "place_id": "ChIJm4QjaaTFQw0RR6j6Wh5V4Fs", "plus_code": {"compound_code": "QF98+QF El Espartal, Spain", "global_code": "8CGRQF98+QF"}, "rating": 3, "reference": "ChIJm4QjaaTFQw0RR6j6Wh5V4Fs", "scope": "GOOGLE", "types": ["hospital", "health", "point_of_interest", "establishment"], "user_ratings_total": 1, "vicinity": "Calle de la Paloma, 25, 17, El Espartal"}]