[{"business_status": "OPERATIONAL", "geometry": {"location": {"lat": 40.951454, "lng": -3.7922947}, "viewport": {"northeast": {"lat": 40.9527959302915, "lng": -3.790932319708498}, "southwest": {"lat": 40.9500979697085, "lng": -3.793630280291502}}}, "icon": "https://maps.gstatic.com/mapfiles/place_api/icons/v1/png_71/bank-71.png", "icon_background_color": "#909CE1", "icon_mask_base_uri": "https://maps.gstatic.com/mapfiles/place_api/icons/v2/bank-intl_pinlet", "international_phone_number": "+34 600 40 40 90", "name": "CaixaBank Agrobank", "opening_hours": {"open_now": false}, "photos": [{"height": 651, "html_attributions": ["<a href=\"https://maps.google.com/maps/contrib/115590985981057201205\">CaixaBank Agrobank</a>"], "photo_reference": "AWn5SU7ZRx72JGlBedDEw7Bd2gfJ8rOFzXRsoP_LbCr-h8xpUEhYPIoNU9MlcN2q7YbaJLUVU6cD3QtyP4-VGMbfJLI1d8xwt3O-EwK03jFt-ehTIXqOp_ASgr0hlJxDjLwfX-5WBRxqoMmn-r_2XCyKRuaPSA0cGuyY0FN2y36nqaftyMUKlJiAZO9TDpxgUhhnk_Sd1WSmsnymb0BwF5mgT2Dsy1-E35oBME5odiNk4EWea_JT8HiXYkgRSWBKAKIR0XDw3y8yRzOV64ekxMCy_P7lr32pLqgYR7w7lwzHEFsmyK5kSq9h5MWvePyUCmaaeDhZp25XI2g", "width": 1148}], "place_id": "ChIJ70Lp1bFfQQ0RbO7WzVIeLPE", "plus_code": {"compound_code": "X625+H3 Lozoya, Spain", "global_code": "8CGRX625+H3"}, "reference": "ChIJ70Lp1bFfQQ0RbO7WzVIeLPE", "scope": "GOOGLE", "types": ["bank", "finance", "point_of_interest", "establishment"], "vicinity": "Plaza del Marqués de Lozoya, 19, Lozoya"}, {"business_status": "OPERATIONAL", "geometry": {"location": {"lat": 40.9043131, "lng": -3.878953700000001}, "viewport": {"northeast": {"lat": 40.9057093302915, "lng": -3.877647469708498}, "southwest": {"lat": 40.9030113697085, "lng": -3.880345430291503}}}, "icon": "https://maps.gstatic.com/mapfiles/place_api/icons/v1/png_71/bank-71.png", "icon_background_color": "#909CE1", "icon_mask_base_uri": "https://maps.gstatic.com/mapfiles/place_api/icons/v2/bank-intl_pinlet", "international_phone_number": "+34 918 69 01 71", "name": "Banco Santander Agentes", "opening_hours": {"open_now": false}, "photos": [{"height": 720, "html_attributions": ["<a href=\"https://maps.google.com/maps/contrib/108255817326009901819\">Banco Santander Agentes</a>"], "photo_reference": "AWn5SU5dchSotsvSWHKTEO8JX7GwDtheCIY1B_xJR4oeKzXldwpjKpY2kvKErAqPYGmAtXzjgAAB0E1G7_98XfAiMivC-FYWOb7nan0adx0lhzmc8hcskM7OTJNTCwXyoN1ADzg0zhqvOCDSH7CRIbXYLvXv3q7kTDSleKsYrmCBiH09xivVp3uuYFE_WVVVrbYZ9G5i_YTi6OqJrRje8G8Uc0HE9juy5m0HPzctdu5mAmGqkkgqrSD_ZWo7MPgyECVrB0Mtn_HMBOian1EY-1VFgaUcn0FjTC6monfsfP8VPnSaHaLPUv4iOXheMp4YlSrUV1AVQg5fKPU", "width": 1280}], "place_id": "ChIJhfQ2mYJdQQ0RLhDaszeIO8A", "plus_code": {"compound_code": "W43C+PC Rascafría, Spain", "global_code": "8CGRW43C+PC"}, "rating": 3.5, "reference": "ChIJhfQ2mYJdQQ0RLhDaszeIO8A", "scope": "GOOGLE", "types": ["bank", "atm", "finance", "point_of_interest", "establishment"], "user_ratings_total": 16, "vicinity": "Avenida del Valle, 20, Rascafría"}, {"business_status": "OPERATIONAL", "geometry": {"location": {"lat": 40.90359, "lng": -3.8794901}, "viewport": {"northeast": {"lat": 40.9049123802915, "lng": -3.878171469708497}, "southwest": {"lat": 40.90221441970851, "lng": -3.880869430291502}}}, "icon": "https://maps.gstatic.com/mapfiles/place_api/icons/v1/png_71/bank-71.png", "icon_background_color": "#909CE1", "icon_mask_base_uri": "https://maps.gstatic.com/mapfiles/place_api/icons/v2/bank-intl_pinlet", "international_phone_number": "+34 600 40 40 90", "name": "CaixaBank Agrobank", "opening_hours": {"open_now": false}, "photos": [{"height": 651, "html_attributions": ["<a href=\"https://maps.google.com/maps/contrib/112493847793816734798\">CaixaBank Agrobank</a>"], "photo_reference": "AWn5SU5FMXyx51I12tmT1WUl917NSoM7VolC3RoATFgRDCpWRShfDsU-3P4nwfe6kNXt4vstv9TqaP3FMAThjdQWFPj4X1m9kcjVeyvcTKpEvYAsY_f1u4TMkmGYJMvtzY9GNWN_ljC28SqZa0v3PcG3xduyXzCNw1YitIC2LtbCAc2btPfURlTlp42i8mf8OZsgyyC9W55CcuWcfCg8i6aZrge4eRNCZ0fUfV802bUHV_XKD4lHrT3zdQznrcEZwxxyppnm6klafRTCzVKYOEFTPlCGzgxpSbQil7kxHKXnZr9Lb9tIWfBSq-F4aPIbCjCe4rf0Stv35h8", "width": 1148}], "place_id": "ChIJxVgGsNVdQQ0RVpwE1ubVnTk", "plus_code": {"compound_code": "W43C+C6 Rascafría, Spain", "global_code": "8CGRW43C+C6"}, "rating": 5, "reference": "ChIJxVgGsNVdQQ0RVpwE1ubVnTk", "scope": "GOOGLE", "types": ["bank", "finance", "point_of_interest", "establishment"], "user_ratings_total": 1, "vicinity": "Avenida del Paular, 1, Rascafría"}]