[{"business_status": "OPERATIONAL", "geometry": {"location": {"lat": 41.0064353, "lng": -3.6736421}, "viewport": {"northeast": {"lat": 41.0077765302915, "lng": -3.672289369708497}, "southwest": {"lat": 41.0050785697085, "lng": -3.674987330291501}}}, "icon": "https://maps.gstatic.com/mapfiles/place_api/icons/v1/png_71/bus-71.png", "icon_background_color": "#10BDFF", "icon_mask_base_uri": "https://maps.gstatic.com/mapfiles/place_api/icons/v2/bus_share_taxi_pinlet", "name": "Villavieja - Cmno Huertecillas", "photos": [{"height": 1920, "html_attributions": ["<a href=\"https://maps.google.com/maps/contrib/115610718625105602448\">YIYI</a>"], "photo_reference": "AWn5SU4PxxXhIqd9bknZAIGZ6BgxmdWVTtZ0pCRYbAqvCIT3NKU3fp1BXA7CJWHTHB2sXYx4UDf4coy_zIupCWGzbKzHYzmwg61MxZxTVBjHsJHAjogodzeDqDzFD0MWc1mSlisAn2nYaM2YuraVyXH8W6ATqY2ndyPVPolpJBf7KllFj8fxhgRTQGt8RBY7VcbtlfIozSZBMeBq4ymD-yC1Mh34mSuNS0r4Ji4WKKCOYvjlwJ09z-7YCsM42d9y5tl6DD0usyYm5UJqE9d9Pih9bnsGQxOYBlSFq00ZAs7LGE9ZWRKoeX3eflftpGrK-zxC2cvP6-3zFMpFvk42GedLcq6_65KeURyGzbBnhfQuuTXqA_uK3FPrmATw2kcOy3lJJIlZhW2iix9xlZeoxpffIJ98wj49g8n_7DoYfRHGc1Z9YivTAJQh5AA1gil4HBefnGSew-lFVrDNHl6Qxjn8PandTzbGeT7cDxZhPAvjG6mTNsil2hwdCOlj7k31krgBsDO7f2uTs7K0R9UiEPP1jEjNxMy4OHcfARrYsvvrxxHm5E_FvHXnUp1JEih5oRJwuza8fxiv19_rdfHalSn1HFud9DzfCOwKsIJNFqgx3GU4Y641uy6qIw005hoRQ55wwKBx3w", "width": 2560}], "place_id": "ChIJsy7m9JHjQw0RfPbX-ijvNZA", "plus_code": {"compound_code": "284G+HG Villavieja del Lozoya, Spain", "global_code": "8CHR284G+HG"}, "reference": "ChIJsy7m9JHjQw0RfPbX-ijvNZA", "scope": "GOOGLE", "types": ["bus_station", "transit_station", "point_of_interest", "establishment"], "vicinity": "Spain"}, {"business_status": "OPERATIONAL", "geometry": {"location": {"lat": 41.0177323, "lng": -3.6419541}, "viewport": {"northeast": {"lat": 41.0190619802915, "lng": -3.640578619708497}, "southwest": {"lat": 41.0163640197085, "lng": -3.643276580291502}}}, "icon": "https://maps.gstatic.com/mapfiles/place_api/icons/v1/png_71/bus-71.png", "icon_background_color": "#10BDFF", "icon_mask_base_uri": "https://maps.gstatic.com/mapfiles/place_api/icons/v2/bus_share_taxi_pinlet", "name": "Gascones - Pza Constitucion", "photos": [{"height": 2340, "html_attributions": ["<a href=\"https://maps.google.com/maps/contrib/112923811750391547893\">Oscar García Rodríguez</a>"], "photo_reference": "AWn5SU4YvZskNzUAUJpj0TvIZkdgV3esrwDA7bdgeKuwVOw5Ah4l6Lw0SksDyvgoE6ibZTybJ3_EPGkMF1VHjpulMjb4PYtko3CKNcoknkMNB89Ip9vOuPthGWAvjxWquKKlFqFibmzYIuxnSI6mxL1VI038b6oI2N9cg_l8TNdzJWSoudGw004svGD9GIHmn92gJB7AsKEGEd3qaAR7rInz9reSLoOxRFEJdIVmkhKhAQWUfXVhZ5dGz0gCW_E0W5kwzzZnd9YhUjmzLF6z6TLDyQNqGjVVXXY9Ajz9dM5kXXfNb5UNBWRc-ksZfKUkD0vwtkQEyvAZNGWFZw3frAWBVnkKPxQ7hX_lBLtURcOsoxsu_w5MdPUYEZnRKdrCIkUODqABD-ugUyDgnR7l6tVGLB8-JzJR_vH1uZixzTUzF-Kb-xUrwUepfaKe8f_oFxHwu-HtNZiiJEl2ZX6ROI2oZYJQTP0wY0L50v-HfcYeRyymc0K1XtEyxAsEuN440Yd4KfzYvQ-ZzYK98-dX8OebCxjQRx2Cc4QZWfgVQRobefeRvTgWOKp4DMdWxnKZfh-2u0b5Tdn5Xr5w-9_3Iszy-xPIaOJQXoyj0tWptk0bq_i4f9zpw4wNeDgwzyocsBN7UEu7SeJ-", "width": 4160}], "place_id": "ChIJUd1DAl7kQw0ROn2uQec0h2s", "plus_code": {"compound_code": "2995+36 Gascones, Spain", "global_code": "8CHR2995+36"}, "rating": 4, "reference": "ChIJUd1DAl7kQw0ROn2uQec0h2s", "scope": "GOOGLE", "types": ["bus_station", "transit_station", "point_of_interest", "establishment"], "user_ratings_total": 3, "vicinity": "Spain"}, {"business_status": "OPERATIONAL", "geometry": {"location": {"lat": 40.99249859999999, "lng": -3.638158799999999}, "viewport": {"northeast": {"lat": 40.99384748029149, "lng": -3.636842669708497}, "southwest": {"lat": 40.99114951970849, "lng": -3.639540630291501}}}, "icon": "https://maps.gstatic.com/mapfiles/place_api/icons/v1/png_71/bus-71.png", "icon_background_color": "#10BDFF", "icon_mask_base_uri": "https://maps.gstatic.com/mapfiles/place_api/icons/v2/bus_share_taxi_pinlet", "name": "Buitrago De Lozoya", "photos": [{"height": 3024, "html_attributions": ["<a href=\"https://maps.google.com/maps/contrib/104608462431213136150\">Guillermo Blázquez</a>"], "photo_reference": "AWn5SU5af0d3WkuqrNvfvd5DVXBOcK07SLCUdP1ua1Oa3LACZGdYJcUybcQpRV0KBExzvpdcJOdNy0wyfkfKMSrw-1m3eEBOwHh087UJM3upp6boPMWzB_YzWlzdeLduw-3o6Y6LhscL7a_tif0_3-vVZXhz1xEKkvpJmN9RpolRe57y4emSN9uIGWVKochAKExWCUthejTXQDz-dqWOXpkK-qbZNAZwu9bVHMS6iKf7LjN_S79glaF1LEJ-WMZ2aO_KhvFJOr3a-SPfjBeNE_4GazIcJ5y32CB86LXvoTvoMpTjhUvUBd8W7CQYIRrJTi25LiZ4K25eyZeW_GmcxejC5aPbzfWoEzRszbisSTgTID0HJHFZSF1xasVHBibz1pMBA2z_m8VjhVcxZ55JXICtlD9DpxiALT3Tl-_O6H9sfxn-qv61CyIpZwxXx31ACoiqGwj_cbOEbqMti9fVW3Nb61BUleIpck64NFm5BGJ4y13xpZiLZDuFS1vaOLGlWBb4Zt8VhKQA-uqfflTZKpAILv_5B5uz0pdJOTSzgfyuyJxkdj6-l1paSOYEqbklRaYmsqL2ggVJdsdAd8prqZf8UAoq6V9el18ZCEps7x8ZbMWCvwtg96xJS_BoBmRTaIFEaVmdv85i", "width": 4032}], "place_id": "ChIJ9df6tjzkQw0RI-s_daOZOSw", "plus_code": {"compound_code": "X9R6+XP Buitrago del Lozoya, Spain", "global_code": "8CGRX9R6+XP"}, "rating": 4.5, "reference": "ChIJ9df6tjzkQw0RI-s_daOZOSw", "scope": "GOOGLE", "types": ["bus_station", "transit_station", "point_of_interest", "establishment"], "user_ratings_total": 35, "vicinity": "Spain"}, {"business_status": "OPERATIONAL", "geometry": {"location": {"lat": 40.99258519999999, "lng": -3.6380717}, "viewport": {"northeast": {"lat": 40.9939710302915, "lng": -3.636694119708498}, "southwest": {"lat": 40.9912730697085, "lng": -3.639392080291502}}}, "icon": "https://maps.gstatic.com/mapfiles/place_api/icons/v1/png_71/bus-71.png", "icon_background_color": "#10BDFF", "icon_mask_base_uri": "https://maps.gstatic.com/mapfiles/place_api/icons/v2/bus_share_taxi_pinlet", "name": "Buitrago - Terminal Autobuses", "photos": [{"height": 3472, "html_attributions": ["<a href=\"https://maps.google.com/maps/contrib/100824696388200225810\">A. M.C.</a>"], "photo_reference": "AWn5SU6p4iS9-i2wSPHE2y9z4Z-XIfg2ckwZOB8K99f2epTwiGZ0l-S9qswWd0B7MYJyrWKHlPNXSqWSNLScnK66JVpAmHYKXUd0t_rzQEU0_RAi-OMhMYuK51dndUjsQQpfPT6BFoFzJUAj3kijPopgA5G4OWbYkrAW4ft5L5ugHuiMvL76qN0YhrqM1iPdKVOGYikeFCXYJ4rWhd19NFSdO5N4taFS5y9118WON_ZRCodrs34sOC9e5g2kFoCf17KpX8-MgZH1pJsZCVXudlusjaN2hO-k31ah4cKcId3ZawfQ-EchP82JBunV1Nbfw4J9AoU2JpBNqbSjoM-GDUDAridTNgq8MgguCIE7fEHJ8jQtoDnUf6ZEI0qtAuf5rhT8Pb33iTLeJg5Y8OIjlpaxRGJLpHeb3hJ8_QRC6uRPj-WDok9V3g-SlBf4X_2BVhUuwMOjPBM7JjQn0DBjAKHCzAnCX8UEy2pkuasPARh4U3r59nQ1zCEL0HWjyOdMUyIZ6Gg7_SpD0JNDyXVOkRdHmoKGHWcW2AVpPLRp57yYvhntn2Mg3UQ-fEULipfUqmxZ8YrdjRH3PLnp1gvlNCMU9DGEa7Ny21v2rLbhpgymW8C9M-fOVXSYN4vnj9nkMvnOjHrsdXxe", "width": 4624}], "place_id": "ChIJ8Ss6tzzkQw0ROF25RIvzB7M", "plus_code": {"compound_code": "X9V6+2Q Buitrago del Lozoya, Spain", "global_code": "8CGRX9V6+2Q"}, "rating": 3, "reference": "ChIJ8Ss6tzzkQw0ROF25RIvzB7M", "scope": "GOOGLE", "types": ["bus_station", "transit_station", "point_of_interest", "establishment"], "user_ratings_total": 1, "vicinity": "Spain"}, {"business_status": "OPERATIONAL", "geometry": {"location": {"lat": 40.9924769, "lng": -3.6381187}, "viewport": {"northeast": {"lat": 40.9938257802915, "lng": -3.636827019708498}, "southwest": {"lat": 40.9911278197085, "lng": -3.639524980291502}}}, "icon": "https://maps.gstatic.com/mapfiles/place_api/icons/v1/png_71/bus-71.png", "icon_background_color": "#10BDFF", "icon_mask_base_uri": "https://maps.gstatic.com/mapfiles/place_api/icons/v2/bus_share_taxi_pinlet", "name": "Buitrago - Terminal Autobuses", "photos": [{"height": 2088, "html_attributions": ["<a href=\"https://maps.google.com/maps/contrib/100308903178243622224\">Gabriel Manquillo</a>"], "photo_reference": "AWn5SU5gmxH_o6QG2RRruKWJm7iJ5KGrgPM0y09jGASb7VfMGpuCG1-IGxlJqLFSYSi-n1rluK1hE8h3l0HelAQJFE9blxUzI6uoDQkPk5aygF-qwdIPRo1O84uvcy_Jf6lS-r1zEUNlpSpW7V1t8OZW3lK9KmlrlDwnyhebaLmNETs4eCfsJnS-o3AMfSbKzy1NoHHySrT_fnWURBKr_HX_FHC0YvTkojH7t7ZrDxrv1CYGPmozQ3g0Rp6q4sHmygUsRGJuPynZHAi8CvSn64AmHPUBVEPjQkfzA4MxP5c-IbO16Hg8KrgAkAY_2kIqN8DhiDPCtKXNrFBg5dTv3Wf4Yw4GJxgvomPnwvBWXB74RNLBLttAUohPUujpiFS9xoTrdzWBMxLdbtzvPeLHqcgbomsJ2GQHIZw2KxaH5q_ionfszyKKmToc3ubqhkgQQdigiBdIp6pPR8QAazY_EGigTpm3ETQCoIvldg1pdTKCxEuLmuJuICBz56ll8iiZzA1m6N0qrTH32joWXaqN-e_x_Q8WDsICNKmb2908PYgzNqZf_vFpcgRcmaxDuBIf9gFElkY-HHn8gdlxUNS4ciNpiYJCy1rP765KRSIZUpMcsBHUqyPJQRD700x9ta0cB9NXSgIhHbCU", "width": 4640}], "place_id": "ChIJ8Ss6tzzkQw0RADGsft6rZqY", "plus_code": {"compound_code": "X9R6+XQ Buitrago del Lozoya, Spain", "global_code": "8CGRX9R6+XQ"}, "rating": 5, "reference": "ChIJ8Ss6tzzkQw0RADGsft6rZqY", "scope": "GOOGLE", "types": ["bus_station", "transit_station", "point_of_interest", "establishment"], "user_ratings_total": 1, "vicinity": "Spain"}, {"business_status": "OPERATIONAL", "geometry": {"location": {"lat": 40.9815248, "lng": -3.693363300000001}, "viewport": {"northeast": {"lat": 40.9828708302915, "lng": -3.692034319708497}, "southwest": {"lat": 40.9801728697085, "lng": -3.694732280291501}}}, "icon": "https://maps.gstatic.com/mapfiles/place_api/icons/v1/png_71/bus-71.png", "icon_background_color": "#10BDFF", "icon_mask_base_uri": "https://maps.gstatic.com/mapfiles/place_api/icons/v2/bus_share_taxi_pinlet", "name": "Ctra.M634-Pinilla De Buitrago", "place_id": "ChIJG0aJ-tfjQw0Rl9d27x-pEc0", "plus_code": {"compound_code": "X8J4+JM Pinilla de Buitrago, Spain", "global_code": "8CGRX8J4+JM"}, "reference": "ChIJG0aJ-tfjQw0Rl9d27x-pEc0", "scope": "GOOGLE", "types": ["bus_station", "transit_station", "point_of_interest", "establishment"], "vicinity": "Spain"}, {"business_status": "OPERATIONAL", "geometry": {"location": {"lat": 40.9927416, "lng": -3.7084802}, "viewport": {"northeast": {"lat": 40.9940846302915, "lng": -3.707132269708497}, "southwest": {"lat": 40.9913866697085, "lng": -3.709830230291502}}}, "icon": "https://maps.gstatic.com/mapfiles/place_api/icons/v1/png_71/bus-71.png", "icon_background_color": "#10BDFF", "icon_mask_base_uri": "https://maps.gstatic.com/mapfiles/place_api/icons/v2/bus_share_taxi_pinlet", "name": "San Mamés-Pza.Constitución", "place_id": "ChIJwfekeTHiQw0R6lBwd-SG4eo", "plus_code": {"compound_code": "X7VR+3J San Mamés, Spain", "global_code": "8CGRX7VR+3J"}, "reference": "ChIJwfekeTHiQw0R6lBwd-SG4eo", "scope": "GOOGLE", "types": ["bus_station", "transit_station", "point_of_interest", "establishment"], "vicinity": "Spain"}, {"business_status": "OPERATIONAL", "geometry": {"location": {"lat": 41.03959119999999, "lng": -3.6407245}, "viewport": {"northeast": {"lat": 41.04095148029149, "lng": -3.639351769708498}, "southwest": {"lat": 41.03825351970849, "lng": -3.642049730291502}}}, "icon": "https://maps.gstatic.com/mapfiles/place_api/icons/v1/png_71/bus-71.png", "icon_background_color": "#10BDFF", "icon_mask_base_uri": "https://maps.gstatic.com/mapfiles/place_api/icons/v2/bus_share_taxi_pinlet", "name": "Braojos", "photos": [{"height": 4032, "html_attributions": ["<a href=\"https://maps.google.com/maps/contrib/114110607861927411971\">Crescencio Munoz</a>"], "photo_reference": "AWn5SU7E-ZGO_V2vU7izoUTwBdFd7uVauNyc8S_n9Gf9bGx7-itb8LTibNMyLFGnCU4qAQzgHMYxZDVLuJvTvtjXWS7OqfEgOGmdIENl3k4wAT75F8NmsHdSKOFgmxq-5V35wFrt8xO_it7FWe1wIH4mQbe9pCGTJpmejuCphq0JuNWqEN9q21auWhaXEQm5BmkGCH--Nisoj4sg2WSdM19eg29cwWhaDBGhn0-yGkvSEkHDzrYIQhYCeHdpeQy91-C1PjjjNKBfi4ZK0rQOIx8aJlilPyMZmpLihUiHzZNHZiYdvnTRQNlIndMmzc5bvrpYmRNeqDJZEMMrrbHJ9c_svuANamj_6t_GZYHphqKJ2ElaiAwyd8rvvAZedaSCMHTLWG2iRju1JDckXseG7VlCEZcGOO4kl8aKTFRjHAn-qBRjDqoVB-Rb-SZnhtR4YYgPokdiSvt9ZxvfSKN1evY2syVqd_OhkqtOFK2HS-YMCfImIz342LE8WmOyYfYwxujBbUIZ-sqMVwd5CoZQoxR0G0VGqbbwekcPpYbdF4undNU5KBUo2hutL0-lLJmgjluD_ZwRKR00qYz2ghKYxsAAg31mPIlkvK3JczSD5UIMXFmEA2qLm_pvjMe-EHXaPNomDX61ag", "width": 3024}], "place_id": "ChIJbZuRGOvkQw0Ri5_WQakf74Y", "plus_code": {"compound_code": "29Q5+RP Braojos, Spain", "global_code": "8CHR29Q5+RP"}, "rating": 4.5, "reference": "ChIJbZuRGOvkQw0Ri5_WQakf74Y", "scope": "GOOGLE", "types": ["bus_station", "transit_station", "point_of_interest", "establishment"], "user_ratings_total": 4, "vicinity": "Spain"}, {"business_status": "OPERATIONAL", "geometry": {"location": {"lat": 41.030248, "lng": -3.6249579}, "viewport": {"northeast": {"lat": 41.0315748802915, "lng": -3.623575419708498}, "southwest": {"lat": 41.0288769197085, "lng": -3.626273380291503}}}, "icon": "https://maps.gstatic.com/mapfiles/place_api/icons/v1/png_71/bus-71.png", "icon_background_color": "#10BDFF", "icon_mask_base_uri": "https://maps.gstatic.com/mapfiles/place_api/icons/v2/bus_share_taxi_pinlet", "name": "La Serna - Frente a Iglesia", "place_id": "ChIJR3HXWfzkQw0RgSXHe6lGHUA", "plus_code": {"compound_code": "29JG+32 La Serna del Monte, Spain", "global_code": "8CHR29JG+32"}, "reference": "ChIJR3HXWfzkQw0RgSXHe6lGHUA", "scope": "GOOGLE", "types": ["bus_station", "transit_station", "point_of_interest", "establishment"], "vicinity": "Spain"}, {"business_status": "OPERATIONAL", "geometry": {"location": {"lat": 41.0128134, "lng": -3.602006300000001}, "viewport": {"northeast": {"lat": 41.0141915802915, "lng": -3.600657819708497}, "southwest": {"lat": 41.0114936197085, "lng": -3.603355780291501}}}, "icon": "https://maps.gstatic.com/mapfiles/place_api/icons/v1/png_71/bus-71.png", "icon_background_color": "#10BDFF", "icon_mask_base_uri": "https://maps.gstatic.com/mapfiles/place_api/icons/v2/bus_share_taxi_pinlet", "name": "Gandullas-Pza.Sierra", "photos": [{"height": 1080, "html_attributions": ["<a href=\"https://maps.google.com/maps/contrib/108991065925202119120\">Jesus</a>"], "photo_reference": "AWn5SU6jFE0kf0q9DP5WOVzV0QgwDsJWO8qqe44cP7ZLQojS2KdOBVgNZnyWtV6opYIU_pLglLUc2IuqPQKXgdlm66ibl5e35vfF3Aox992zqEXvoC0GihV24agXBVW4Grms_32x8S4xKSxEbc5Fz-kZFW6e-_0PciONsq1bY9LDGEDdrlQrWIdV7aIMzPkSL7Cx-zEUMfxDIVWC3HpKnxqWAur6xArXoE7122DfFmRc9vMgKEhcgpcsKVWQm6-VRWFBQuoCxIY97aKQv93IngfdgZ-zqriFJSn2sx3al1yxxi5Rej-M2cuRiav3yTcExjFUG0EcoNiPn1dDh-fE5_UWF6sZwT-UN1MlG2m_9FB141NlP-YL74yTug6JnFDd7W_zpHbTR0HLS-o31UL4Qezlw8VeWH77CFDq1e9TTaZZSnMgxhWSl8azETR-OCe9gb_q3ei6pV5UPvLWCLwgq_rhHaOBlVv8BlplSqJTBT3psn1ezsOS6EfW3AVvD0GYsx1qXVYDfsQAKST6RFZqCWFwPOZQy4Mt592VbjkW3rOsJ0W9zcyf6A1oWpv4ab97XwtP1PhFA7jYkXULwoOMTtMiOnj09J4mIbiWK7AyWYmOUP0hledZT1BlaccBtM2tVI4PvfOAcQ", "width": 1920}], "place_id": "ChIJZ7X1Wr3lQw0RU0LF4UFCx9M", "plus_code": {"compound_code": "297X+45 Gandullas, Spain", "global_code": "8CHR297X+45"}, "reference": "ChIJZ7X1Wr3lQw0RU0LF4UFCx9M", "scope": "GOOGLE", "types": ["bus_station", "transit_station", "point_of_interest", "establishment"], "vicinity": "Spain"}, {"business_status": "OPERATIONAL", "geometry": {"location": {"lat": 40.9648695, "lng": -3.717320399999999}, "viewport": {"northeast": {"lat": 40.9662057302915, "lng": -3.715995219708498}, "southwest": {"lat": 40.96350776970851, "lng": -3.718693180291503}}}, "icon": "https://maps.gstatic.com/mapfiles/place_api/icons/v1/png_71/bus-71.png", "icon_background_color": "#10BDFF", "icon_mask_base_uri": "https://maps.gstatic.com/mapfiles/place_api/icons/v2/bus_share_taxi_pinlet", "name": "Gargantilla-Pza Carlos Ruiz", "place_id": "ChIJSeeGTpHhQw0Rez-KJW2lRA4", "plus_code": {"compound_code": "X77M+W3 Gargantilla del Lozoya, Spain", "global_code": "8CGRX77M+W3"}, "reference": "ChIJSeeGTpHhQw0Rez-KJW2lRA4", "scope": "GOOGLE", "types": ["bus_station", "transit_station", "point_of_interest", "establishment"], "vicinity": "Spain"}, {"business_status": "OPERATIONAL", "geometry": {"location": {"lat": 41.033024, "lng": -3.5993117}, "viewport": {"northeast": {"lat": 41.0343389802915, "lng": -3.597963919708498}, "southwest": {"lat": 41.0316410197085, "lng": -3.600661880291502}}}, "icon": "https://maps.gstatic.com/mapfiles/place_api/icons/v1/png_71/bus-71.png", "icon_background_color": "#10BDFF", "icon_mask_base_uri": "https://maps.gstatic.com/mapfiles/place_api/icons/v2/bus_share_taxi_pinlet", "name": "Piñuecar - Ayuntamiento", "photos": [{"height": 2268, "html_attributions": ["<a href=\"https://maps.google.com/maps/contrib/109635744922462026818\">Gnicolini Stevent</a>"], "photo_reference": "AWn5SU5K-kOv8OCMaKily54Pko9KreSspIfgWRq-8BSC2zEEKeZd_Dc5MAn2r6xKJl4FN3lH27fwm9XU97zgfku9YVtCAa1vEZ77lI2nNxlbOj3Nni6_JVU0Hv-ypsUKknM_p9fWomRQc8ILQoeFrsL0S4eFaOjy0kz2R8gGEnipkjwee8iQjULIzO4XO7j27kKeh7SpwiHSfo0kmCPlSK6zzrZ_f3758Jbso8IT_ue4OVYQWV8HKKmAJWRCx5V4UXl866K3VwAUu0s6h01mAhJnY4n9nH3FPML1n922rLXZX_vVVbsENmlMXWB_zwYsaZQHe7OLWHRy4SYgIPP3AQxtlWHQ4Qdh7qytoFxDUT8jiDYuP4dnZ0vdLDUfBjwOiSSW3O7ugRng5upvJDQSo22PLctQYla56cmo0zs7Jjb155HD2Rqu5aN0FvbHzsSkuP4Vo8ui7OPM439OS4_m51KG4L-4BHMd_NHspVcBZjcqvrF4MmBfrPAOixZIcIfB54VEBG461dttDPJG-6kDUZdXouI3PoD3WkjWNyxjGSWbe8KUYiFXyw5hiM0q7ycRlDuFqzvYoc6ShBFbN3SIxIeOr-LC2DfFWVk7vc4Ai4JVHnUZ3gqvmHNOwl1IVBiH_WgREr5uslsb", "width": 4032}], "place_id": "ChIJPxwzj3LlQw0RhrZWiv8EbZ4", "plus_code": {"compound_code": "2CM2+67 Piñuécar, Spain", "global_code": "8CHR2CM2+67"}, "rating": 5, "reference": "ChIJPxwzj3LlQw0RhrZWiv8EbZ4", "scope": "GOOGLE", "types": ["bus_station", "transit_station", "point_of_interest", "establishment"], "user_ratings_total": 2, "vicinity": "Spain"}]