[{"business_status": "OPERATIONAL", "geometry": {"location": {"lat": 40.23110929999999, "lng": -3.7815041}, "viewport": {"northeast": {"lat": 40.23207188029149, "lng": -3.779506769708497}, "southwest": {"lat": 40.2293739197085, "lng": -3.782204730291502}}}, "icon": "https://maps.gstatic.com/mapfiles/place_api/icons/v1/png_71/generic_business-71.png", "icon_background_color": "#7B9EB0", "icon_mask_base_uri": "https://maps.gstatic.com/mapfiles/place_api/icons/v2/generic_pinlet", "name": "South polyclinic Madrid, S.L.", "photos": [{"height": 2448, "html_attributions": ["<a href=\"https://maps.google.com/maps/contrib/113551238451289112805\">juanlu</a>"], "photo_reference": "AWn5SU5xJ9cgYU42IDh9hmR99JaXZmk-o89cF1Zs4Oe0dBRr0wlJgPJMyQ4jRdubrgAaxbUn-M9HahdJC7rn7fSWb9dmZnwToVp7a-IYkp8-4vLvhmP-LOFlsml-Jr92kMwi7FGKWUvy-Tr50Z-MC-o_IWEfWYTE85MJo_jf0Doj9aWjT0ImaiH9XigBdO4rmcOr7taWJ-o4SCa4qjgbkdoci_ifiIB1VsN4htVDTalpK6uhrMCYcT1cpiLCxXew0paErWF-NjCYBoFncYToi0KqaYRznGFD_AtQbFXOJOFsN4NotgzcrpkRBnuiTIW5BQN04vbfWcufqP2DGO2p_fu70wn5xlTLB5l6pDhj1kl1WrbDnNPTtM5FgtTM0URU9GI4YqMYXJfocVaFBARcNCa3uruYA58Q-dwMOK0TCgBtSsQfPQiTSbeZWNDQf4tWmBdRtJGYPH6hqlanbCPowVqX45wpnnCbos9_Gt8isCYRqiQnNYhcijtQeMpETNKPgVeFOvFM2wYlg__FoK5sS0dIZc28n8qeRlR1QYU_bAI7mNp2fq3aiq4yWpawkwqX6THr3zN5PxhOODyYAoorGbLzNfDpMyj8u0OLJjOi4vVTwyjquxVK14ZkVGKthKkxD5KW", "width": 3264}], "place_id": "ChIJlxA3JyH1QQ0R_o_vvw1boEQ", "plus_code": {"compound_code": "66J9+C9 Parla, Spain", "global_code": "8CGR66J9+C9"}, "rating": 3, "reference": "ChIJlxA3JyH1QQ0R_o_vvw1boEQ", "scope": "GOOGLE", "types": ["doctor", "health", "point_of_interest", "establishment"], "user_ratings_total": 343, "vicinity": "Calle Federica Montseny, 33, Parla"}, {"business_status": "OPERATIONAL", "geometry": {"location": {"lat": 40.2141362, "lng": -3.8557964}, "viewport": {"northeast": {"lat": 40.2155127802915, "lng": -3.854428219708498}, "southwest": {"lat": 40.2128148197085, "lng": -3.857126180291502}}}, "icon": "https://maps.gstatic.com/mapfiles/place_api/icons/v1/png_71/shopping-71.png", "icon_background_color": "#4B96F3", "icon_mask_base_uri": "https://maps.gstatic.com/mapfiles/place_api/icons/v2/shopping_pinlet", "international_phone_number": "+34 918 14 18 12", "name": "Opticalia Laia", "opening_hours": {"open_now": false}, "photos": [{"height": 1066, "html_attributions": ["<a href=\"https://maps.google.com/maps/contrib/114205195960908348755\">Opticalia Laia</a>"], "photo_reference": "AWn5SU5vi97gtKh8FrDsVhsxQH7uKDJSRDZfTHdVnJKgu8YDt3ga5oJTWoCFVvsqyUb3NIgCdZnHStDZqTriScofdZjuoiu08H0iSrck6y5h_4mEwDbdTq5X3bAEjPIEftq3rnU4aEVPmsi1F8HTS9hLbUnFa1wlQQj8eiEaXHuvqrfM1wN_3mWTtwyzfsgAUA_caciXP7rsafoz_JmOLGaXFVhMpGj1Rg7f_kOiUMbzesR4gcyn7luUdNHxpdDq4GpF1PvQzoOxo3PhuB3uHMrp-vXa5KNRDBoeHs7wXaFU5LMXZY0wgasQmd-xsZW_BN-ymFrjEP-a5JM", "width": 1895}], "place_id": "ChIJo0TE_g_zQQ0Rgzfa8JjbUpc", "plus_code": {"compound_code": "647V+MM Griñón, Spain", "global_code": "8CGR647V+MM"}, "rating": 4.8, "reference": "ChIJo0TE_g_zQQ0Rgzfa8JjbUpc", "scope": "GOOGLE", "types": ["store", "doctor", "health", "point_of_interest", "establishment"], "user_ratings_total": 61, "vicinity": "Calle Mayor, 109, Griñón"}, {"business_status": "OPERATIONAL", "geometry": {"location": {"lat": 40.21395709999999, "lng": -3.855586500000001}, "viewport": {"northeast": {"lat": 40.2153679802915, "lng": -3.854128169708499}, "southwest": {"lat": 40.2126700197085, "lng": -3.856826130291503}}}, "icon": "https://maps.gstatic.com/mapfiles/place_api/icons/v1/png_71/generic_business-71.png", "icon_background_color": "#7B9EB0", "icon_mask_base_uri": "https://maps.gstatic.com/mapfiles/place_api/icons/v2/generic_pinlet", "international_phone_number": "+34 918 10 31 79", "name": "Clínica De Podologia David Sáenz López", "opening_hours": {"open_now": false}, "photos": [{"height": 3968, "html_attributions": ["<a href=\"https://maps.google.com/maps/contrib/116336272328397781801\">Stephane Van De Winckele</a>"], "photo_reference": "AWn5SU4Q02oR3UvxkHe2hPg52mx7WXzgWPG6RDP3tX7TURw7MNGxuhSz1A95xsqQM7PrNe2RkMw_AYdbnK27zuMDobWKjcdolHkfub8gLsBMSp_Ur-VCatQ20GleWj-dc1uIoTWKtdoSsH8Emir0buPqI8ZHByqv0wvXWHr-uU7vFWuc7CNeZZIZYNQ9N9OD6VEgE1h9Pq7T04AjBIAqMMcPcPObRV72_6i6R-CrcR1djNAi488EJNEAHtnM1dV4Qrsv7jBGf8aHGJKvhwFRevW_QtO7Cvs2xztBteWZuTyUG1lca74ngMQ3Xd6fSVFgck2mtTmtRtUPXB4dDoCvt4PNIJiF7rrGai9HE0ODoyoIjXdUa7O45-4RK_oQOCi-swx0PHzrUBt3gSK7tkVIgaB_vdarJoEBmpP9agCJ7-LaAIo04d8esEdr97AHkG5NIRLFN9cy5Ar1g_f3NRr74IBtEnTWmpW1aGIj0IA9LF85KjrSEDk01sArxreMFNM4djVbguG4ndFPL2inS66eFXJIq_evncmrlWQ6qlCWh9SdZm2S4meThfvBPuY78g41_v6f94tU7Tl2XJsCC7hLCtbGSmVnJT7478zxTFjkLDSjYGDf-oU_RfOUazw4erXJi3pjWVu2DA", "width": 2976}], "place_id": "ChIJMcktUwXzQQ0RT-iZBjR4hTk", "plus_code": {"compound_code": "647V+HQ Griñón, Spain", "global_code": "8CGR647V+HQ"}, "rating": 4.9, "reference": "ChIJMcktUwXzQQ0RT-iZBjR4hTk", "scope": "GOOGLE", "types": ["doctor", "health", "point_of_interest", "establishment"], "user_ratings_total": 28, "vicinity": "Calle Mayor, 109, Griñón"}, {"business_status": "OPERATIONAL", "geometry": {"location": {"lat": 40.2149773, "lng": -3.8536222}, "viewport": {"northeast": {"lat": 40.2162903302915, "lng": -3.852302369708497}, "southwest": {"lat": 40.2135923697085, "lng": -3.855000330291502}}}, "icon": "https://maps.gstatic.com/mapfiles/place_api/icons/v1/png_71/generic_business-71.png", "icon_background_color": "#7B9EB0", "icon_mask_base_uri": "https://maps.gstatic.com/mapfiles/place_api/icons/v2/generic_pinlet", "international_phone_number": "+34 918 10 37 19", "name": "Clínica Dental Griñón-Dra Miriam Díaz", "opening_hours": {"open_now": false}, "photos": [{"height": 4000, "html_attributions": ["<a href=\"https://maps.google.com/maps/contrib/114203440376571153417\">Cecilia Cruz</a>"], "photo_reference": "AWn5SU5SkTnssEsSyoEGff2KmmubPwagt8lyPPCLVb9QBr3tujOyWykhx-otar0tuojeFWyUP4xJwPGS6ZsnzPP7OqqwiqTCLTKZwXRlXQ5DXsMlUFpJ3DCfUxUuZdz8sFqjA8_Lk57iO8cmfdo5pH8fmCkuyZuiRysnQ_uavmiQQnBlEwreohxZ6KUMUr-rsJF6rzRmdaHRPY-4q95EZVEx10mTeb6fZUSG_UQ8FEuTFwWFLyaWhNSuFPhPiYqAVkhjPYEQwHx21WZV1tdKuLXFtlA0G6J5_0SkBdjcN48ypfkMUfZzXbcYgMG1OJlPaEdMHlEJHJYcNVwOBvc39lKFLgixwoBl6iJxrYYl4gsx390khlYhru5hHJKvisQiN3GPFLlUU4n3u_NxXOm0IgNmT7EfKj1F1ECSgWBocoAGPQ9SrVG9FSkrOxMGiFD6D1yChqb85GbpE-A1-_zT0Gkh0tk1avS_MPdW1S4ZxTeYSnd3DHaqqohmcG4QS6rTzmJ_LDOwA_P7Esl5DnfIju_AmsMxvcgBTEmh1qLZS2BONkah5nlnw7DZEivH4-PAXlSUM2J5IS8I1vGlIIF_lYWXq65DSd9YTzjjulYyMuGDZmMMLqXL7E_jj21ppcOIninav81KSX-FLoitqyBZD4k-wS2LUOs", "width": 3000}], "place_id": "ChIJvSVAOxDzQQ0RuCj4sFWkCCY", "plus_code": {"compound_code": "647W+XH Griñón, Spain", "global_code": "8CGR647W+XH"}, "rating": 5, "reference": "ChIJvSVAOxDzQQ0RuCj4sFWkCCY", "scope": "GOOGLE", "types": ["dentist", "doctor", "health", "point_of_interest", "establishment"], "user_ratings_total": 14, "vicinity": "Paseo de la Cárcava, 4, Griñón"}, {"business_status": "OPERATIONAL", "geometry": {"location": {"lat": 40.21069900000001, "lng": -3.8560067}, "viewport": {"northeast": {"lat": 40.21198303029151, "lng": -3.854649369708497}, "southwest": {"lat": 40.20928506970851, "lng": -3.857347330291502}}}, "icon": "https://maps.gstatic.com/mapfiles/place_api/icons/v1/png_71/generic_business-71.png", "icon_background_color": "#7B9EB0", "icon_mask_base_uri": "https://maps.gstatic.com/mapfiles/place_api/icons/v2/generic_pinlet", "international_phone_number": "+34 685 86 64 64", "name": "Fisiohand", "opening_hours": {"open_now": false}, "photos": [{"height": 1000, "html_attributions": ["<a href=\"https://maps.google.com/maps/contrib/101235699349455837828\">Fisiohand</a>"], "photo_reference": "AWn5SU4m4-Tu285rVTL1gFzKHNAsVDe-3OneDPSCsHJhU_wKEXW2HuUam4-agC_XmN2_2-CJNPLBLubsLFVeExI6wg2kamUQbsgD1qXN4D713BsGPb9UgHf0CPNZGK4oCJNAAI18hsjkfl2sZ1Ykt4bcrVb6JD3QinDhAZ3UlaM0JxeOnJYQ584lhcWbdramylLG5-h4TXi7v5llwppZqcv1OSOZekIie7rTelqxViGRKA7EKCXNx5XFZ0bo-0JSU-ZfJRq7rKcmFjLJTxfIRr8lRpxvf_3aTahczggi71oLnHjxJTSHNk0BQU_aHiXj6STbFAzyW9KX", "width": 2500}], "place_id": "ChIJl2ITGgzzQQ0RaZLhB0H4ckg", "plus_code": {"compound_code": "646V+7H Griñón, Spain", "global_code": "8CGR646V+7H"}, "rating": 4.8, "reference": "ChIJl2ITGgzzQQ0RaZLhB0H4ckg", "scope": "GOOGLE", "types": ["physiotherapist", "doctor", "health", "point_of_interest", "establishment"], "user_ratings_total": 197, "vicinity": "Paseo de la Salle, 38, Griñón"}, {"business_status": "OPERATIONAL", "geometry": {"location": {"lat": 40.18881289999999, "lng": -3.838148799999999}, "viewport": {"northeast": {"lat": 40.1901280302915, "lng": -3.836828769708497}, "southwest": {"lat": 40.1874300697085, "lng": -3.839526730291502}}}, "icon": "https://maps.gstatic.com/mapfiles/place_api/icons/v1/png_71/generic_business-71.png", "icon_background_color": "#7B9EB0", "icon_mask_base_uri": "https://maps.gstatic.com/mapfiles/place_api/icons/v2/generic_pinlet", "international_phone_number": "+34 675 81 24 86", "name": "Clínica Cubas", "opening_hours": {"open_now": false}, "photos": [{"height": 460, "html_attributions": ["<a href=\"https://maps.google.com/maps/contrib/104911428938141701384\">Clínica Cubas</a>"], "photo_reference": "AWn5SU62YnfMuy4gN2LgsoHA-TIgGLqhhI2lp82YTWisw3BFeCtOKcs8vSYflhYBfJRHsNQoIDbrlxj0pL7KmOHdx9N-3oaYdHkfioKiLzEYjkbA7BQPGdTRzTvwrFdj7dDFEUTc6SN-xZRl1lC9sAi9MQA5YIrGEMSgQ6_oPiN23gzUC97bGpPqDzDBcSTd282cY8upytdeZY_XalbuGrIoLojR6NEFyBBxVem7sObenBOhTWgEGvSjIP5nZlytm2SyuQfNpR_Eyk4NeWzlCNPiC0pu0QqObNTyROObjSwuAZM8_cj0BEV0_zTLAk9rzn-KW4GjkxpPSIY", "width": 640}], "place_id": "ChIJa-p_2pPzQQ0Rv8l6TUz5HW4", "plus_code": {"compound_code": "55Q6+GP Cubas de la Sagra, Spain", "global_code": "8CGR55Q6+GP"}, "rating": 4.8, "reference": "ChIJa-p_2pPzQQ0Rv8l6TUz5HW4", "scope": "GOOGLE", "types": ["dentist", "physiotherapist", "doctor", "health", "point_of_interest", "establishment"], "user_ratings_total": 58, "vicinity": "Calle Santa Juana, 13, Cubas de la Sagra"}, {"business_status": "OPERATIONAL", "geometry": {"location": {"lat": 40.2004993, "lng": -3.7997378}, "viewport": {"northeast": {"lat": 40.20186913029149, "lng": -3.798367869708498}, "southwest": {"lat": 40.19917116970849, "lng": -3.801065830291503}}}, "icon": "https://maps.gstatic.com/mapfiles/place_api/icons/v1/png_71/shopping-71.png", "icon_background_color": "#4B96F3", "icon_mask_base_uri": "https://maps.gstatic.com/mapfiles/place_api/icons/v2/shopping_pinlet", "international_phone_number": "+34 918 16 07 97", "name": "Optica OPTIRED", "opening_hours": {"open_now": false}, "photos": [{"height": 634, "html_attributions": ["<a href=\"https://maps.google.com/maps/contrib/100998239223947890465\">Optica OPTIRED</a>"], "photo_reference": "AWn5SU6s36BBoYrfhR-cKem9Oz9F-MO7eUdhkU4HqnXg_3hWDW3UW0cpOAtm7Kqpko3h7wyWqFiGPB24eB3VU3WWThsIEIq8Tra6P98MjBvqNs29PsDgGErNFg8aJnY5IpKK4Lxjub4A4E2-evSpokU61vxCwUbKKdNCqtOFyEPF1UUDJtbnQtYJra4rWQGXdvulydLCHaGEqNGwZlr-eG5B7ZKykGaSqt2T46s1DnVcQ1HKj-XmXhbe21lPfBwOps-Hz7GiJc0tznFlTLdgaFZL-m8vHG3Sc2QluWCfO7iVbwjsfnri8F576_OQsEZHNLu_sKN3ciVITR4", "width": 900}], "place_id": "ChIJP2POA1z0QQ0RZgeV-xvEfX4", "plus_code": {"compound_code": "6622+54 Torrejón de la Calzada, Spain", "global_code": "8CGR6622+54"}, "rating": 5, "reference": "ChIJP2POA1z0QQ0RZgeV-xvEfX4", "scope": "GOOGLE", "types": ["store", "doctor", "health", "point_of_interest", "establishment"], "user_ratings_total": 60, "vicinity": "Calle de 12 de Octubre, 2, Torrejón de la Calzada"}, {"business_status": "OPERATIONAL", "geometry": {"location": {"lat": 40.2523236, "lng": -3.8291743}, "viewport": {"northeast": {"lat": 40.2536512302915, "lng": -3.827853369708497}, "southwest": {"lat": 40.2509532697085, "lng": -3.830551330291502}}}, "icon": "https://maps.gstatic.com/mapfiles/place_api/icons/v1/png_71/generic_business-71.png", "icon_background_color": "#7B9EB0", "icon_mask_base_uri": "https://maps.gstatic.com/mapfiles/place_api/icons/v2/generic_pinlet", "international_phone_number": "+34 916 04 27 00", "name": "MY Dental", "opening_hours": {"open_now": false}, "photos": [{"height": 1500, "html_attributions": ["<a href=\"https://maps.google.com/maps/contrib/105893670908649394839\">MY Dental</a>"], "photo_reference": "AWn5SU6pKdt5O2ZYf2xWkir_Ok-fhia5IBMN0Q2KHMJv7TxheUDY4x-wWXV92-z0kqKGJx3Cg-UKBaU1MEHL6dAGF5eqqSLb9RE6Z-1OLa0U69YM9tP6Afw-1QtN07y7GLf3Lca8Lc8prdtZdajh7akSI1Z7eVxHiTCY9X5pawun7ZxbrS3bhSgfMWvLjRCPZWdPHN_hXtCv-PgTgV2EQ4nAJgQ496aSmspyFxItAt_Hwe1APLYtgA4CrALZuNIcIbMTlWVVfcgfEbMFXXuGA5wtvJwpnfaXrFl_KdFQBPnOXH2LNf6O-oG8axEwUOxxuz5Ud6e4OLf35Q0", "width": 2000}], "place_id": "ChIJ3-7XO6mMQQ0RGK5wGACTUVM", "plus_code": {"compound_code": "752C+W8 Humanes de Madrid, Spain", "global_code": "8CGR752C+W8"}, "rating": 4.6, "reference": "ChIJ3-7XO6mMQQ0RGK5wGACTUVM", "scope": "GOOGLE", "types": ["dentist", "doctor", "health", "point_of_interest", "establishment"], "user_ratings_total": 179, "vicinity": "Calle Madrid, 53, Humanes de Madrid"}, {"business_status": "OPERATIONAL", "geometry": {"location": {"lat": 40.2546889, "lng": -3.8240311}, "viewport": {"northeast": {"lat": 40.2560050302915, "lng": -3.822753069708498}, "southwest": {"lat": 40.2533070697085, "lng": -3.825451030291502}}}, "icon": "https://maps.gstatic.com/mapfiles/place_api/icons/v1/png_71/generic_business-71.png", "icon_background_color": "#7B9EB0", "icon_mask_base_uri": "https://maps.gstatic.com/mapfiles/place_api/icons/v2/generic_pinlet", "international_phone_number": "+34 916 04 11 13", "name": "Clínica Rubio", "opening_hours": {"open_now": false}, "photos": [{"height": 810, "html_attributions": ["<a href=\"https://maps.google.com/maps/contrib/105433241158380977464\">Clínica Rubio</a>"], "photo_reference": "AWn5SU6x3nmdxA8Qwo2edwg4KB48wf_0Cr3skiwLtiK2Ej9H5B9JxLNW0XJWzPi3BIk5FZ1sf52Cg-ct5J5pgFS9kjir4zLjQAYG3In1uqmSxLFqKkY89XlXeHH86coVMdH0XHzCJugeQmHCysGexcc8v6ao1UDoKdj7v0vL4cp2Yo8bWzYZJwDWQAlvVTHn-C82SZNVUrgmXHvvxR70hlMNhpiZJUG-P3cNsPwGcLTxc3g7k4X9U0VY-netM3AqbgLTHJ6k-Pi6iX5Bv5SD8-WWRA5tlQo3TBDZ3wGF2vfHYfV524J9TAZ255cccq0TLTxcNbzojLcrhbk", "width": 1440}], "place_id": "ChIJOQKrHaiMQQ0R3oY4aQg3GhI", "plus_code": {"compound_code": "753G+V9 Humanes de Madrid, Spain", "global_code": "8CGR753G+V9"}, "rating": 4.8, "reference": "ChIJOQKrHaiMQQ0R3oY4aQg3GhI", "scope": "GOOGLE", "types": ["physiotherapist", "doctor", "health", "point_of_interest", "establishment"], "user_ratings_total": 45, "vicinity": "Calle Ibiza, 10, Humanes de Madrid"}, {"business_status": "OPERATIONAL", "geometry": {"location": {"lat": 40.2183758, "lng": -3.7829572}, "viewport": {"northeast": {"lat": 40.2217139, "lng": -3.780717849999999}, "southwest": {"lat": 40.2146883, "lng": -3.783703650000001}}}, "icon": "https://maps.gstatic.com/mapfiles/place_api/icons/v1/png_71/hospital-71.png", "icon_background_color": "#F88181", "icon_mask_base_uri": "https://maps.gstatic.com/mapfiles/place_api/icons/v2/hospital-H_pinlet", "international_phone_number": "+34 911 91 30 00", "name": "Infant Cristina University Hospital", "opening_hours": {"open_now": true}, "photos": [{"height": 9000, "html_attributions": ["<a href=\"https://maps.google.com/maps/contrib/109469627215335617594\">Alan Park</a>"], "photo_reference": "AWn5SU6gju10XkGwcbCrucIIo3Qt5cY2Sjt7oT9emUUXBejt9lTPFOQ6lSJeePrxP4Ae0P5aC6ODDLRWpqTt83elup2E2_AaEgWZyP6MSce4IoAxJRtF-pRof7XcqRV7malWPDFtIImKfFhObc5yhXkBh5XMN8S7iLdI3lIQkno1tlmkv4Vfbb31Qb6-6bO02YRYdoxwzr2quHycTKwRQF_RPhNy4cjrcf-BUs_xlqGz-zlDJOu6F2AX-cMc-C52EiqXmDRDOZMgOH7hP7Bn_Y23hOoAbfDDSMPFJqD91JeJzaU0wDAM1ZzFMfo4EzQb38Rn15uDci6fRaiFptcTUu_f9W2R2nvOXFuKjgfCiQf-ndrSZy_aN2bxBEZoqWLMZUrVGp-fBPOaovRV0Ts00XrYajPKKMBESrVBF1d4LsoUS0NeFcmO564Pcosxo_6nZm67jeWTe31eFqkDpttaagPrN6tUD22b19uoiyjT70gIrmF_BsAtr8G4axN7TnLwCC6_g0cyJiIUmo31ASR6YAIIUBLf8Rwrt4YANCBJo6sAjtZg8ZPy-19JqgadjvV17zlJCPjx30nB4WGfBcxV4_Hld--kSTmswG682P2yf3-IKvmPul-Dgj4cXSZeajyDHJPIp0iz3A", "width": 12000}], "place_id": "ChIJvTJ_px31QQ0R0bpAvtIRuuQ", "plus_code": {"compound_code": "6698+9R Parla, Spain", "global_code": "8CGR6698+9R"}, "rating": 2.3, "reference": "ChIJvTJ_px31QQ0R0bpAvtIRuuQ", "scope": "GOOGLE", "types": ["hospital", "doctor", "health", "point_of_interest", "establishment"], "user_ratings_total": 910, "vicinity": "Avenida 9 de Junio, 2, Parla"}, {"business_status": "OPERATIONAL", "geometry": {"location": {"lat": 40.1576859, "lng": -3.877283499999999}, "viewport": {"northeast": {"lat": 40.1591261302915, "lng": -3.875846169708497}, "southwest": {"lat": 40.1564281697085, "lng": -3.878544130291501}}}, "icon": "https://maps.gstatic.com/mapfiles/place_api/icons/v1/png_71/generic_business-71.png", "icon_background_color": "#7B9EB0", "icon_mask_base_uri": "https://maps.gstatic.com/mapfiles/place_api/icons/v2/generic_pinlet", "international_phone_number": "+34 616 05 61 55", "name": "Biomecánica Martínez", "opening_hours": {"open_now": false}, "photos": [{"height": 678, "html_attributions": ["<a href=\"https://maps.google.com/maps/contrib/115694849729174758871\">Biomecánica Martínez</a>"], "photo_reference": "AWn5SU6ZZeuVpYu7v0iGaCxoC5FIIrynANGXfEhgpWFzl7FhKmR4WqMRKGQncMXrr7FqzDBCRqHxP_2iMKwNxnhxDqOO-wiKIT-gL8d2KZXFBRxj3n8u9Ks_P-g4wMh8fAykcUaUSCZMi8rKb2f7JYfJ7i-h48vT2amwYrbaoujzAvV8vKCA479NOChmG6CUHmoRwzuXPGr5ybGY39jgXQ9U7rcIEdJC_cVMv3jF5C8pEMViFmD2Z6yNs1qJaf3EOq6YHoVU9xK7R_NFHpD8v70R6xhCchr1WbsAXsijUSyhMLF_vyOA-qQK5K9uN2MXG2j7QlIF5Q7ClzY", "width": 1204}], "place_id": "ChIJnxNjyYjxQQ0R01agwaTI7RQ", "plus_code": {"compound_code": "545F+33 Ugena, Spain", "global_code": "8CGR545F+33"}, "rating": 4.9, "reference": "ChIJnxNjyYjxQQ0R01agwaTI7RQ", "scope": "GOOGLE", "types": ["doctor", "health", "point_of_interest", "establishment"], "user_ratings_total": 421, "vicinity": "Calle Norte, 2, Ugena"}, {"business_status": "OPERATIONAL", "geometry": {"location": {"lat": 40.2075565, "lng": -3.855678199999999}, "viewport": {"northeast": {"lat": 40.20886698029149, "lng": -3.854249119708498}, "southwest": {"lat": 40.2061690197085, "lng": -3.856947080291503}}}, "icon": "https://maps.gstatic.com/mapfiles/place_api/icons/v1/png_71/generic_business-71.png", "icon_background_color": "#7B9EB0", "icon_mask_base_uri": "https://maps.gstatic.com/mapfiles/place_api/icons/v2/generic_pinlet", "international_phone_number": "+34 918 14 15 12", "name": "Centro Medicina Estética, Peluquería y Estética Arroyo Prestigio", "opening_hours": {"open_now": false}, "photos": [{"height": 400, "html_attributions": ["<a href=\"https://maps.google.com/maps/contrib/105343442570755880097\">Centro Medicina Estética, Peluquería y Estética Arroyo Prestigio</a>"], "photo_reference": "AWn5SU7p32wtY8uDaPdQ04dGEIfnBchIcAa1j1FD8-cvyD_no1IPQ_fn7xbVUUEMWU6UNZbop5opY8RLJDs3L0bVU9rjQydwMIGgOF16-y8pLxBMte7YfrPbmwzxBgAitpUPM6A0Uyh8QYE-6HOq0NYM8BUEe0w3ie1XrxJnjygD73ftkJPUOXLLSxYR1CKhVpdZdp3SCO56LYgJe6UZXQ4FEZlaZS5cBZRHn7KNmEhvzjIacXHTLp0W6qmh0Kw_0gTT1fjkEGhoE6GeRvbD42D3SE-eV4mEZjNrIMZumzhKI05SxUOdTXPrzxJnJ0gj3vmdLMhosaaG8UQ", "width": 709}], "place_id": "ChIJUQjDIwbzQQ0RJ3Hboa04ymk", "plus_code": {"compound_code": "645V+2P Griñón, Spain", "global_code": "8CGR645V+2P"}, "rating": 4.2, "reference": "ChIJUQjDIwbzQQ0RJ3Hboa04ymk", "scope": "GOOGLE", "types": ["beauty_salon", "spa", "hair_care", "doctor", "health", "point_of_interest", "establishment"], "user_ratings_total": 180, "vicinity": "Avenida de Portugal, 32, Local 1, Griñón"}, {"business_status": "OPERATIONAL", "geometry": {"location": {"lat": 40.23075609999999, "lng": -3.7767559}, "viewport": {"northeast": {"lat": 40.23202888029149, "lng": -3.775454819708498}, "southwest": {"lat": 40.2293309197085, "lng": -3.778152780291502}}}, "icon": "https://maps.gstatic.com/mapfiles/place_api/icons/v1/png_71/generic_business-71.png", "icon_background_color": "#7B9EB0", "icon_mask_base_uri": "https://maps.gstatic.com/mapfiles/place_api/icons/v2/generic_pinlet", "name": "Acupuntura Shin GI Tai", "place_id": "ChIJkagtbSP1QQ0RbwA9KjaBq8E", "plus_code": {"compound_code": "66JF+87 Parla, Spain", "global_code": "8CGR66JF+87"}, "rating": 5, "reference": "ChIJkagtbSP1QQ0RbwA9KjaBq8E", "scope": "GOOGLE", "types": ["doctor", "health", "point_of_interest", "establishment"], "user_ratings_total": 1, "vicinity": "Calle Toledo, 34, Parla"}, {"business_status": "OPERATIONAL", "geometry": {"location": {"lat": 40.2130733, "lng": -3.852035599999999}, "viewport": {"northeast": {"lat": 40.21440633029149, "lng": -3.850695069708498}, "southwest": {"lat": 40.2117083697085, "lng": -3.853393030291502}}}, "icon": "https://maps.gstatic.com/mapfiles/place_api/icons/v1/png_71/generic_business-71.png", "icon_background_color": "#7B9EB0", "icon_mask_base_uri": "https://maps.gstatic.com/mapfiles/place_api/icons/v2/generic_pinlet", "international_phone_number": "+34 692 63 29 42", "name": "Bilbo Veterinary Clinic", "opening_hours": {"open_now": false}, "photos": [{"height": 4032, "html_attributions": ["<a href=\"https://maps.google.com/maps/contrib/111109396074714996235\">Clínica Veterinaria Pura Vida</a>"], "photo_reference": "AWn5SU4qAIBOtixT5-J3e0FHfQAAkHQfpuD1Bshi6O6q5Df_w-ntAulKRsw_W7cCAO32cc2WjR4egaf56arFruIPXUtmvPiuKrOsKZABj1ayd0Q-gyL2ySkQKDgqDsKlp47RCztSQtC7QjSEA1lx6S2p-LxTYHgapGo0qvKAhEGymn0z41rYT_QooyQhWlRmpnQJFo8FBXunAOOhlhq4BI9UPbaOt1LD8Cuslcpr0Tgzau1pbxR6bhVySufD-_JrHx3tez3c2LcpfcZrBM9gWeH4ovnZHAcDBwAVIJ8gpt4O0Q8VrOvgiz1Z-fBdlCEtWmT_AbjwdeSIYDc", "width": 3024}], "place_id": "ChIJLQ9hOA7zQQ0RNz2ea7iLtg0", "plus_code": {"compound_code": "647X+65 Griñón, Spain", "global_code": "8CGR647X+65"}, "rating": 4.6, "reference": "ChIJLQ9hOA7zQQ0RNz2ea7iLtg0", "scope": "GOOGLE", "types": ["veterinary_care", "doctor", "health", "point_of_interest", "establishment"], "user_ratings_total": 160, "vicinity": "Calle Mayor, 44, Griñón"}, {"business_status": "OPERATIONAL", "geometry": {"location": {"lat": 40.2142124, "lng": -3.8616191}, "viewport": {"northeast": {"lat": 40.2155504302915, "lng": -3.860212419708497}, "southwest": {"lat": 40.2128524697085, "lng": -3.862910380291502}}}, "icon": "https://maps.gstatic.com/mapfiles/place_api/icons/v1/png_71/generic_business-71.png", "icon_background_color": "#7B9EB0", "icon_mask_base_uri": "https://maps.gstatic.com/mapfiles/place_api/icons/v2/generic_pinlet", "international_phone_number": "+34 696 73 65 41", "name": "Jonatan Ochoa Osteopatia y Fisioterapia", "place_id": "ChIJr68BtRzzQQ0RrYwf7yatfuI", "plus_code": {"compound_code": "647Q+M9 Griñón, Spain", "global_code": "8CGR647Q+M9"}, "rating": 5, "reference": "ChIJr68BtRzzQQ0RrYwf7yatfuI", "scope": "GOOGLE", "types": ["doctor", "health", "point_of_interest", "establishment"], "user_ratings_total": 2, "vicinity": "Calle Gorriones, 1, Griñón"}, {"business_status": "OPERATIONAL", "geometry": {"location": {"lat": 40.21918719999999, "lng": -3.8646265}, "viewport": {"northeast": {"lat": 40.22047698029149, "lng": -3.863307419708498}, "southwest": {"lat": 40.2177790197085, "lng": -3.866005380291502}}}, "icon": "https://maps.gstatic.com/mapfiles/place_api/icons/v1/png_71/generic_business-71.png", "icon_background_color": "#7B9EB0", "icon_mask_base_uri": "https://maps.gstatic.com/mapfiles/place_api/icons/v2/generic_pinlet", "name": "Carolina", "place_id": "ChIJmyuNG0vzQQ0ReHGVLQK7SiU", "plus_code": {"compound_code": "649P+M4 Griñón, Spain", "global_code": "8CGR649P+M4"}, "reference": "ChIJmyuNG0vzQQ0ReHGVLQK7SiU", "scope": "GOOGLE", "types": ["doctor", "health", "point_of_interest", "establishment"], "vicinity": "Calle Cedros Altos, 14, Griñón"}, {"business_status": "OPERATIONAL", "geometry": {"location": {"lat": 40.199676, "lng": -3.8477919}, "viewport": {"northeast": {"lat": 40.20111128029149, "lng": -3.846532319708498}, "southwest": {"lat": 40.19841331970849, "lng": -3.849230280291503}}}, "icon": "https://maps.gstatic.com/mapfiles/place_api/icons/v1/png_71/generic_business-71.png", "icon_background_color": "#7B9EB0", "icon_mask_base_uri": "https://maps.gstatic.com/mapfiles/place_api/icons/v2/generic_pinlet", "international_phone_number": "+34 617 48 52 91", "name": "FISIOTERAPIA Y PODOLOGIA LA SAGRA", "opening_hours": {"open_now": false}, "photos": [{"height": 2268, "html_attributions": ["<a href=\"https://maps.google.com/maps/contrib/113584835066271222986\">Manuel Adame</a>"], "photo_reference": "AWn5SU5_IqBl7LWDCjDUl2Ea9RvxlF7q-IYWNjGbKTOQdaCtPTDKBXhBzay0aiWq690ll4PxKMCyLJ3oINMJdf7qnGf5uJdatgC3GKgNoc9MAmwj6k871KMlf3ExN04xO4cevnCEOiqdzsLkVlL1dxParauCujeZ8inKyLlQ_QCULI6PHJY6vVTPn-1gBoKuuZfPpiTxCWiHfTXOLtzPqvU-B9Jd8hQYEx-EYc0Bc2aJp7eg8Qyp8seKUGDGAXb7BtWE2rDy3YoOaAHryGm0twfA-i1RAy64UK8e7PtfOq6_NlqncHflBUo9e_TbSKenpf3TiNk76kFgj-c6pDtMMYK-ZkxZrE3fsoeAwldeWF4sbWNh-nq1riQdAsx7YHDuaP5w0OksZuCNVvEnqWQnb7pXoE0HkX68wjuXtHeyjyiFdgki5O6TLKsQfQYF9eNliOjyRpnOeeUhYaj6DHXOR-rPx2xKHtYS0iPZCJG0rf_BoTkJVs4Ka6He26QMCP1w2L8ZrYHHZJn6ESGWsQomXDgcI38JLx5MSE5vd0_8fxjt5CjRrZu7UQKp2F65YM6ompggzje85ttL48UnvqUYzh7o55K_AcFPamobu6hdWuAZa8fk1bW7M8oOlwUQuCMtxTxJ", "width": 4032}], "place_id": "ChIJ4-ecKh3zQQ0R-RiGcL1eGgA", "plus_code": {"compound_code": "55X2+VV Cubas de la Sagra, Spain", "global_code": "8CGR55X2+VV"}, "rating": 5, "reference": "ChIJ4-ecKh3zQQ0R-RiGcL1eGgA", "scope": "GOOGLE", "types": ["physiotherapist", "doctor", "health", "point_of_interest", "establishment"], "user_ratings_total": 35, "vicinity": "Avenida Acacias, 1, Cubas de la Sagra"}, {"business_status": "OPERATIONAL", "geometry": {"location": {"lat": 40.1899097, "lng": -3.8396288}, "viewport": {"northeast": {"lat": 40.19120993029151, "lng": -3.838256069708497}, "southwest": {"lat": 40.18851196970851, "lng": -3.840954030291501}}}, "icon": "https://maps.gstatic.com/mapfiles/place_api/icons/v1/png_71/shopping-71.png", "icon_background_color": "#4B96F3", "icon_mask_base_uri": "https://maps.gstatic.com/mapfiles/place_api/icons/v2/shopping_pinlet", "international_phone_number": "+34 911 30 81 72", "name": "ÓPTICA Y AUDIOLOGÍA CUBAS", "opening_hours": {"open_now": false}, "photos": [{"height": 2048, "html_attributions": ["<a href=\"https://maps.google.com/maps/contrib/106091651537518099279\">ÓPTICA Y AUDIOLOGÍA CUBAS</a>"], "photo_reference": "AWn5SU5wE7laJEczOA1Z3Qa8u_wvRGx4ZAwwAt7sbWP0qjOEt3zucoGDXd6ImI439UbpJIOD6m8cn8BPFANSXJ27HPFIJKTKjpNSPTft67iaAM0gwgPyHogTF_OTDtf3zc3m_DnS2_gwoX8pRvdINCeujpLgO87n7E1Gv3hV3RmxBiyT9DL2lW5CwLUqwJjj9viJ7ZsT5sDXOQLh7IKYRjkyX1sSOK4rtmd8IqSUhsyhZSE5g89NawUJHQDl1Y9wa3SE1owwxCNvvQL5k8wDB25N4WQm_kjDJVx2FMw5u0V66nyX6qllwefgmWerXu_UY4e7r7L8oQGH", "width": 1536}], "place_id": "ChIJkYdupJjzQQ0R02ip2S1rDN4", "plus_code": {"compound_code": "55Q6+X4 Cubas de la Sagra, Spain", "global_code": "8CGR55Q6+X4"}, "rating": 5, "reference": "ChIJkYdupJjzQQ0R02ip2S1rDN4", "scope": "GOOGLE", "types": ["store", "doctor", "health", "point_of_interest", "establishment"], "user_ratings_total": 112, "vicinity": "Calle Real, 38, Cubas de la Sagra"}, {"business_status": "OPERATIONAL", "geometry": {"location": {"lat": 40.1896514, "lng": -3.839794}, "viewport": {"northeast": {"lat": 40.1910307302915, "lng": -3.838568769708497}, "southwest": {"lat": 40.1883327697085, "lng": -3.841266730291502}}}, "icon": "https://maps.gstatic.com/mapfiles/place_api/icons/v1/png_71/generic_business-71.png", "icon_background_color": "#7B9EB0", "icon_mask_base_uri": "https://maps.gstatic.com/mapfiles/place_api/icons/v2/generic_pinlet", "international_phone_number": "+34 918 14 39 52", "name": "S&C Clínica Dental Cubas de la Sagra", "opening_hours": {"open_now": false}, "photos": [{"height": 1042, "html_attributions": ["<a href=\"https://maps.google.com/maps/contrib/116035742779400355534\">S&amp;C Clínica Dental Cubas de la Sagra</a>"], "photo_reference": "AWn5SU4L5RDVSjaAxRqU9C-kpwfaDldr5piT_gD_M-YI4m79DnhFqhseUNgjQLG3OSgIUFAc28XRPmxLpmw9RAQKyZMr6t8LJ_iPNS_i3SFyABysdxbKbYyCmWvIRwvXOV_Eq53fUUEMA8g3raYsNXcz1kO8yOd9vuBjCUIdGQv-myVK362GHaKfFEbsYeg-u-RyS9jr4nFJaC7TdBGfbtAjiYT3C9s7Lj2iEp7aGc3k4xhYavEPLTASQzL5k5NyHmtVxpWkKbhNNwox_Pw9abBTDFDKm1zS97t7S6TsODBobM7U4Uk6pSmJLoCyTNOA6_UfaaILdjnYobg", "width": 2048}], "place_id": "ChIJ1YnoTZHzQQ0RVTgwrXsswdk", "plus_code": {"compound_code": "55Q6+V3 Cubas de la Sagra, Spain", "global_code": "8CGR55Q6+V3"}, "rating": 4.5, "reference": "ChIJ1YnoTZHzQQ0RVTgwrXsswdk", "scope": "GOOGLE", "types": ["dentist", "doctor", "health", "point_of_interest", "establishment"], "user_ratings_total": 51, "vicinity": "Calle Real, 38, local 2B, Cubas de la Sagra"}, {"business_status": "OPERATIONAL", "geometry": {"location": {"lat": 40.1868549, "lng": -3.8389717}, "viewport": {"northeast": {"lat": 40.1882646302915, "lng": -3.837725519708498}, "southwest": {"lat": 40.1855666697085, "lng": -3.840423480291502}}}, "icon": "https://maps.gstatic.com/mapfiles/place_api/icons/v1/png_71/civic_building-71.png", "icon_background_color": "#7B9EB0", "icon_mask_base_uri": "https://maps.gstatic.com/mapfiles/place_api/icons/v2/civic-bldg_pinlet", "international_phone_number": "+34 918 14 36 77", "name": "Centro de Salud Doctor Aguilar", "opening_hours": {"open_now": false}, "photos": [{"height": 3072, "html_attributions": ["<a href=\"https://maps.google.com/maps/contrib/109367558417942931625\">yaocheng zhang</a>"], "photo_reference": "AWn5SU4fJOHEFUUM354x-r5wssf5VBQQw0XRU8Mn-GqJ0ExFvJ5Y9FZi06m7o5QkbYT4a7NkJk9NHgnQAYIrbjKonIpAqw3mBKutkuTnvKDotll_rbRvaV_u5jDZSWIvh4MDc6J5drjVLS5FL7e4V4ZA2yjdGvwnCjNXg0JOcTr8uvEJEDWwZopt6aguU1lh45iROvDuRFvnau-FaojzbILLZdvwKHBI0SuojznH9GDrrlyGn3GXbMbbtblF9fMmaXPRWiqMlI3DLpN5OcDvU-uW25iLl3CDaPk_6Oo8OcyIUVkpsa9X_77xrkOSj0szeNhVp05U9gD00l0Z9aObvJppOHF8GwKCP6O7f3FfilvvE6VWXciYEqyMcbcDUuV1m74R61HZbhX-g0R1U4vLZQboe72ybNR5GbJCakbAsiM-yfsPaYicQKIqUQTbPtcm80gCL4wwDVO8fnplKyAiaVYcYi_Gp6DscIs4Sbu4Q62nTsWUx2MrlZN-OxaEonekijH4_XOfnj8u2CsEiaMKrEYzgKcXwVP_U5iI1gXO58qtuhzOj18Hsg4jzPL_NmjmpkxsuE1r2sdG-3nSjo2JHTbbWmRxL5_w8wLwuT7yUhtBFRlsCLBkTrv6vQ9eGi47jWFF", "width": 4096}], "place_id": "ChIJ-XfnnpPzQQ0RKczpIFRUWRI", "plus_code": {"compound_code": "55P6+PC Cubas de la Sagra, Spain", "global_code": "8CGR55P6+PC"}, "rating": 1.8, "reference": "ChIJ-XfnnpPzQQ0RKczpIFRUWRI", "scope": "GOOGLE", "types": ["doctor", "health", "point_of_interest", "establishment"], "user_ratings_total": 35, "vicinity": "Calle San Isidro, 5, Cubas de la Sagra"}]