[{"business_status": "OPERATIONAL", "geometry": {"location": {"lat": 40.122224, "lng": -3.3431825}, "viewport": {"northeast": {"lat": 40.1236001802915, "lng": -3.341895169708498}, "southwest": {"lat": 40.1209022197085, "lng": -3.344593130291502}}}, "icon": "https://maps.gstatic.com/mapfiles/place_api/icons/v1/png_71/generic_business-71.png", "icon_background_color": "#7B9EB0", "icon_mask_base_uri": "https://maps.gstatic.com/mapfiles/place_api/icons/v2/generic_pinlet", "international_phone_number": "+34 918 74 73 54", "name": "Granja La Luna residencia canina en Madrid", "opening_hours": {"open_now": false}, "photos": [{"height": 1098, "html_attributions": ["<a href=\"https://maps.google.com/maps/contrib/103783968233122432212\">Granja La Luna residencia canina en Madrid</a>"], "photo_reference": "AWn5SU51oCVi22Dvi0rM9IO9F08x4B-hE_9AmWgr0FXzPgRO2vTe_qbfEjr0W49vwCIhZTlnXBLNfpyDLm-6940Mxi42N2bVrOF0frBnTH7TuKghIODlcqtW6cGt9tuv43gSXI2zTfp7LrmMTlBGBcWF8Jg-nv9jDYX98uPGPbB1MPXo2XkY7v09ruREhVIlLIugCdvaZZx__o-6mgfPHqsmo5CCxsebj1J7kGmCVgUwAIpnGhmEvcMvWUfEygYdCibbU-OtTDdwovlg6G3t0-re7TI4j3OnYnd_bIkyfmRQKHXYkEFccm7sngarO7UKamxJu92PKbtl", "width": 2735}], "place_id": "ChIJc4UZuNhtQg0R7q4PYLUVR1w", "plus_code": {"compound_code": "4MC4+VP Belmonte de Tajo, Spain", "global_code": "8CGR4MC4+VP"}, "rating": 4.6, "reference": "ChIJc4UZuNhtQg0R7q4PYLUVR1w", "scope": "GOOGLE", "types": ["veterinary_care", "park", "lodging", "point_of_interest", "establishment"], "user_ratings_total": 86, "vicinity": "Camino piedras Blancas, Senda del macho, 1, Belmonte de Tajo"}, {"business_status": "OPERATIONAL", "geometry": {"location": {"lat": 40.1614838, "lng": -3.3651045}, "viewport": {"northeast": {"lat": 40.1629538802915, "lng": -3.364047669708498}, "southwest": {"lat": 40.1602559197085, "lng": -3.366745630291502}}}, "icon": "https://maps.gstatic.com/mapfiles/place_api/icons/v1/png_71/park-71.png", "icon_background_color": "#4DB546", "icon_mask_base_uri": "https://maps.gstatic.com/mapfiles/place_api/icons/v2/tree_pinlet", "name": "Municipal de Valdelaguna Park", "opening_hours": {"open_now": true}, "photos": [{"height": 2736, "html_attributions": ["<a href=\"https://maps.google.com/maps/contrib/111900392151749429418\">Sabrina Salerno</a>"], "photo_reference": "AWn5SU6glgw41PIJXD4cZPGCKbpYPm6GsA5ywULdxZCjG6aoM_ttmpgbYiS47tu5XmZ_xkYWUSSvYsiS2jUyZxR0lvA8gcW-qWFFwbDUqClwwgoKwFmaTWCDQzzGOpLFCGRcb6FYywVART71tnzTR2ckeuk7pNAnf7rSxSf5VG2o4NYNrhUX0H0UV6bCJ0NnuoU10zQA7ZfwbmyRQ4hjfimfQp8T2Rd5mjvAVCQ7DvFSR67ptnhkyjvY96pU5eKFC6_VSREqTU_TnOjBNKm6yL5lhILTLTlAUVHutnr0Y2uV4zgOk9S3cz4SP7F_mkdfuhvW0LerHKXbxR4mYQy27BHYqPUTy09W72DjD5yEbZRyNxyWbluIvnsqsAEm4N6-LR9xhpIpZKN6PuyKWDkygHR3qdjHuuj81wbCc3HK1pKgeUtO99DPE7ju1i8uaPJAwYT4I_9z5VaOC4a8sYD3-RQcUu28BhibnjvrFhvIiWrSZmPT0t2XYWjA39X6sqobp--ULacEfbfPgFkBoWeEJP3Zt61tU7dL2V-pzTTlkctGIBMqUirT84TYk85qTApGl1AI9-KvuTzjp_qctjTXMO31otKZ9mq9_oSymvGQnD2bxOWMjks3AgMV2qt1-CNlaZsO0uune__C", "width": 3648}], "place_id": "ChIJX7T02XJtQg0RLNtbcN5B204", "plus_code": {"compound_code": "5J6M+HX Valdelaguna, Spain", "global_code": "8CGR5J6M+HX"}, "rating": 3.7, "reference": "ChIJX7T02XJtQg0RLNtbcN5B204", "scope": "GOOGLE", "types": ["park", "point_of_interest", "establishment"], "user_ratings_total": 7, "vicinity": "Valdelaguna"}, {"business_status": "OPERATIONAL", "geometry": {"location": {"lat": 40.1628193, "lng": -3.3402481}, "viewport": {"northeast": {"lat": 40.1641682802915, "lng": -3.338899119708498}, "southwest": {"lat": 40.1614703197085, "lng": -3.341597080291502}}}, "icon": "https://maps.gstatic.com/mapfiles/place_api/icons/v1/png_71/park-71.png", "icon_background_color": "#4DB546", "icon_mask_base_uri": "https://maps.gstatic.com/mapfiles/place_api/icons/v2/tree_pinlet", "name": "Fuente barranco del infierno, Camaras", "place_id": "ChIJpZeiDABtQg0RwFaEWmx4U5w", "reference": "ChIJpZeiDABtQg0RwFaEWmx4U5w", "scope": "GOOGLE", "types": ["park", "point_of_interest", "establishment"], "vicinity": "5M75+4W, Valdelaguna"}, {"business_status": "OPERATIONAL", "geometry": {"location": {"lat": 40.1340518, "lng": -3.3428736}, "viewport": {"northeast": {"lat": 40.13534253029149, "lng": -3.341620269708498}, "southwest": {"lat": 40.1326445697085, "lng": -3.344318230291502}}}, "icon": "https://maps.gstatic.com/mapfiles/place_api/icons/v1/png_71/park-71.png", "icon_background_color": "#4DB546", "icon_mask_base_uri": "https://maps.gstatic.com/mapfiles/place_api/icons/v2/tree_pinlet", "name": "Fuente Park", "opening_hours": {"open_now": true}, "place_id": "ChIJCyyYorBtQg0R3vl__I8O8JY", "plus_code": {"compound_code": "4MM4+JV Belmonte de Tajo, Spain", "global_code": "8CGR4MM4+JV"}, "reference": "ChIJCyyYorBtQg0R3vl__I8O8JY", "scope": "GOOGLE", "types": ["park", "point_of_interest", "establishment"], "vicinity": "Calle Gregorio Romero Alonso, 57, Belmonte de Tajo"}, {"business_status": "OPERATIONAL", "geometry": {"location": {"lat": 40.147192, "lng": -3.4079342}, "viewport": {"northeast": {"lat": 40.1485279802915, "lng": -3.406576519708498}, "southwest": {"lat": 40.14583001970851, "lng": -3.409274480291502}}}, "icon": "https://maps.gstatic.com/mapfiles/place_api/icons/v1/png_71/park-71.png", "icon_background_color": "#4DB546", "icon_mask_base_uri": "https://maps.gstatic.com/mapfiles/place_api/icons/v2/tree_pinlet", "name": "Área recreativa de Valdezarza", "opening_hours": {"open_now": true}, "photos": [{"height": 4624, "html_attributions": ["<a href=\"https://maps.google.com/maps/contrib/104788727036044388788\">SoniaB</a>"], "photo_reference": "AWn5SU5ONpX7_cojxcfN78ZLqIKaJ0G4GrsCh41qy4et8Mt1zvBjk7EvRUHscODNLNN8nUphK35UxLz6nbXgNCEoqFiJKYUq_jElE3DFZ6CT8Iu0RWz5FU71VH72Dq3Xd1-EfGoWPan24Pk5fS31uJ0-kLV85PhNjWq-KD-1WjqhN1HY3nwVHoUWyO_ZsGnQpLtMf-lxq_XELkYNbFjonrJfgm7i6iN9e07h3LSi3ZQO5lzaxL75ybYSLG9vMWQuZIkUO-mIDuVEhuBnWc8Hzq17g0Md3SOojf1jzJfullwp-oiLirtj5xZ0PZJ8SezkAnj3NA5urAO9wCxd9SGp9ux6VzHKpmkY5BgyD9Pl6ELq23DwSEN9y6e89ojw7JPB_nfg8KfIfC0jHI4dC2nx5-JT-aZMu9uTGUsOzCRKq_nhnfHj4LwuE-jIHbcFmsWB4PyFC_a2A5G5-EnUuw3_G5LjxQHawf8_3PRwR7vq5-rjD8qq_GoxLMpTYnZR9V4Sp9vCusifwGk7T90e4-J--rfd1MZhLhqVqlHHhXLzqBcgt99fLRmL4pQko7dJsKVc0VTWmvcEhqoW42goWLz2U13uzaZq7Io4QFhyhpLOBO9jUEKVtaZKPpYI2eJtf02u4gWcQIY72w", "width": 3468}], "place_id": "ChIJkzMEkP5tQg0RuFxGnRBXkuw", "plus_code": {"compound_code": "4HWR+VR Chinchón, Spain", "global_code": "8CGR4HWR+VR"}, "rating": 3.9, "reference": "ChIJkzMEkP5tQg0RuFxGnRBXkuw", "scope": "GOOGLE", "types": ["park", "point_of_interest", "establishment"], "user_ratings_total": 31, "vicinity": "Chinchón, Unnamed Road, 28370"}, {"business_status": "OPERATIONAL", "geometry": {"location": {"lat": 40.1918026, "lng": -3.3399393}, "viewport": {"northeast": {"lat": 40.1927952302915, "lng": -3.33811165}, "southwest": {"lat": 40.1900972697085, "lng": -3.345422250000001}}}, "icon": "https://maps.gstatic.com/mapfiles/place_api/icons/v1/png_71/park-71.png", "icon_background_color": "#4DB546", "icon_mask_base_uri": "https://maps.gstatic.com/mapfiles/place_api/icons/v2/tree_pinlet", "name": "Las Cumbres", "place_id": "ChIJiYwSEyVrQg0RI6Zr7lGDDnc", "reference": "ChIJiYwSEyVrQg0RI6Zr7lGDDnc", "scope": "GOOGLE", "types": ["park", "point_of_interest", "establishment"], "vicinity": "5MR6+P2, Perales de Tajuña"}, {"business_status": "OPERATIONAL", "geometry": {"location": {"lat": 40.1336041, "lng": -3.3323788}, "viewport": {"northeast": {"lat": 40.1350165802915, "lng": -3.331033819708499}, "southwest": {"lat": 40.1323186197085, "lng": -3.333731780291502}}}, "icon": "https://maps.gstatic.com/mapfiles/place_api/icons/v1/png_71/park-71.png", "icon_background_color": "#4DB546", "icon_mask_base_uri": "https://maps.gstatic.com/mapfiles/place_api/icons/v2/tree_pinlet", "name": "Letronas de Belmonte", "opening_hours": {"open_now": true}, "place_id": "ChIJ3zTxEQBvQg0RxsFUYkeF7PA", "plus_code": {"compound_code": "4MM9+C2 Belmonte de Tajo, Spain", "global_code": "8CGR4MM9+C2"}, "reference": "ChIJ3zTxEQBvQg0RxsFUYkeF7PA", "scope": "GOOGLE", "types": ["park", "point_of_interest", "establishment"], "vicinity": "Calle Gregorio Romero Alonso, 17P, Belmonte de Tajo"}, {"business_status": "OPERATIONAL", "geometry": {"location": {"lat": 40.1750323, "lng": -3.4247192}, "viewport": {"northeast": {"lat": 40.1765990802915, "lng": -3.422721419708498}, "southwest": {"lat": 40.1739011197085, "lng": -3.425419380291502}}}, "icon": "https://maps.gstatic.com/mapfiles/place_api/icons/v1/png_71/park-71.png", "icon_background_color": "#4DB546", "icon_mask_base_uri": "https://maps.gstatic.com/mapfiles/place_api/icons/v2/tree_pinlet", "name": "Cerro Villaverde", "opening_hours": {"open_now": true}, "photos": [{"height": 3000, "html_attributions": ["<a href=\"https://maps.google.com/maps/contrib/112121361647272001556\">Rafael</a>"], "photo_reference": "AWn5SU5uYZTjvlSw2aD_2VhFsGlsZYPl7Mvr8M5f5Gf9_mMMG49T5o3Q-20SCyOw0lfxfU21MwnS4-_4ZNMxKX27E76_oUke1jmwlZKBt_vMF6m2yc_zTuqoMqEji6tpUHo3L3tQrQ1xJ6tKhsr7k84FwV5K0TRuGWN3A_e92XGuS4xDekzKbzbQM4IbghSXA-fFzqfEDZPjpjtcT8SwwNKuI_xyz5F-iC7WUaTMosheFlAu4Qwtuo2J3pv0TIXY9FKs3duXvnmVqM2Q9jbTjbcGVQdy3u5bXn-g1I5az_d5qjzkJk9HlxpELlNhDJzJwTT2XbfdS4aeMvczz2P09ELBQHn0G0cz5RGzdKZkN0kEfK8hqBNK74YX_eIdif_XEShO-7po4vf1wQkVmbzb1waH0eosOhVaYuBkqv5ZSeR6Kh7l6BmzrtNOO0jV0CBqtwBEYURRdKc8wjYUjjftxrGl3pm16YRRa9HKT4dIN_hKLxx4wvNTkSmIhp0XbOcTl3PeAh4Xr05mXL2gc7rCKadRB6mDf3hddFqoPkKKqv0J4BarF402NjYRaQ8XCZmdAJ0N08RyulGGgz30FrXOq2fmSMcoNS0uHiXxQl7L_DBl9U6CF32l4ZSAKvFtvnfI_mPJTKNAvZqA", "width": 4000}], "place_id": "ChIJv6kPj_cTQg0RvSgijEpp9ow", "plus_code": {"compound_code": "5HGG+24 Chinchón, Spain", "global_code": "8CGR5HGG+24"}, "rating": 4.7, "reference": "ChIJv6kPj_cTQg0RvSgijEpp9ow", "scope": "GOOGLE", "types": ["park", "point_of_interest", "establishment"], "user_ratings_total": 6, "vicinity": "Chinchón, Unnamed Road, 28370"}, {"business_status": "OPERATIONAL", "geometry": {"location": {"lat": 40.1211535, "lng": -3.398204}, "viewport": {"northeast": {"lat": 40.1224847302915, "lng": -3.396894369708498}, "southwest": {"lat": 40.1197867697085, "lng": -3.399592330291502}}}, "icon": "https://maps.gstatic.com/mapfiles/place_api/icons/v1/png_71/park-71.png", "icon_background_color": "#4DB546", "icon_mask_base_uri": "https://maps.gstatic.com/mapfiles/place_api/icons/v2/tree_pinlet", "name": "Senda de Chinchón a Colmenar", "opening_hours": {"open_now": true}, "photos": [{"height": 3024, "html_attributions": ["<a href=\"https://maps.google.com/maps/contrib/112785528980594567543\">Álvaro Casado Manso</a>"], "photo_reference": "AWn5SU6Dtx5Zz2gLvGdTic5e_oM0BazKZp4aXvRekOMe172EQxyisA-bddJeJkSthh9xreo6yJkzif_y5Zsu86mIcaNPUuJ37zPDFmxC5EuO6AG3h4ChWUg4fpDIWsb9jEc60ey5MW_hfjr3cIluIFv5j5HFYeD6SCbtZhlLfZtNiKoGHKjLEvsDikyKiYYPrF79y0iQJ2F4krveiG434HGYfAFwsxA_ssaxkGd4EpAof6j6pIofxF-FGWpZxwOHISVzFXCZZsRwrQDaLllZhKVZtdzspcbdwnopnJlolnowYNxHygiaGd39jzSwQr3KosLm0aakaIYVo5EEVE88jHDGJvTxi0A3ezsgNNY2YkkLjUxyYwrZ2LElKfRuX11xogVSu84Mn9pAKr-SwT0hdk9vR3pBzVPNicrsvHSaNQGte5OjUKgTWfpP7WwncORaGxrvZ64iiL_3Pr0WTMTvw4THC1BHzHNeD9Oq0pVRSvt22bn8kPrVTjWPlFAi8XMJdv4ohVTgYoMPXjWB-Li8SiwK8JRXpcwjQg2Czt3ZNS-QQl2NSDbeDUmUvr2C5karRfZY6UOGhN43_qGqGXJ_6xWwVpACckaB1TEUl_3BEX16ISWsQCdAHekuZf1Q6YdAEJ4gYJSp2jqf", "width": 4032}], "place_id": "ChIJ5TrW4JZtQg0RZwIsBCWsy8E", "plus_code": {"compound_code": "4JC2+FP Chinchón, Spain", "global_code": "8CGR4JC2+FP"}, "rating": 4.7, "reference": "ChIJ5TrW4JZtQg0RZwIsBCWsy8E", "scope": "GOOGLE", "types": ["park", "point_of_interest", "establishment"], "user_ratings_total": 3, "vicinity": "Calle de Álvarez Laviada, Chinchón"}, {"business_status": "OPERATIONAL", "geometry": {"location": {"lat": 40.1402665, "lng": -3.4221687}, "viewport": {"northeast": {"lat": 40.1415895302915, "lng": -3.420805519708499}, "southwest": {"lat": 40.1388915697085, "lng": -3.423503480291502}}}, "icon": "https://maps.gstatic.com/mapfiles/place_api/icons/v1/png_71/park-71.png", "icon_background_color": "#4DB546", "icon_mask_base_uri": "https://maps.gstatic.com/mapfiles/place_api/icons/v2/tree_pinlet", "name": "Carrascosilla", "place_id": "ChIJ2XGJdwATQg0R1XmaEMtV9KM", "plus_code": {"compound_code": "4HRH+44 Chinchón, Spain", "global_code": "8CGR4HRH+44"}, "reference": "ChIJ2XGJdwATQg0R1XmaEMtV9KM", "scope": "GOOGLE", "types": ["park", "point_of_interest", "establishment"], "vicinity": "Chinchón"}, {"business_status": "OPERATIONAL", "geometry": {"location": {"lat": 40.1390612, "lng": -3.4239592}, "viewport": {"northeast": {"lat": 40.14022178029149, "lng": -3.422550219708497}, "southwest": {"lat": 40.13752381970849, "lng": -3.425248180291501}}}, "icon": "https://maps.gstatic.com/mapfiles/place_api/icons/v1/png_71/park-71.png", "icon_background_color": "#4DB546", "icon_mask_base_uri": "https://maps.gstatic.com/mapfiles/place_api/icons/v2/tree_pinlet", "name": "Parador Garden", "photos": [{"height": 3024, "html_attributions": ["<a href=\"https://maps.google.com/maps/contrib/100870854880141332746\">Luis Ruiz</a>"], "photo_reference": "AWn5SU5xNQKhAd_lvvgPCn10DTLAT-T7oTYy3bk5WZY_75qHPbQjxfK44Bo5H3R6iEUfAjzEGBY97oIvmZ9hOMflYG2BZidyAXBCf6viQZEHHTJLjt99dSn5jqNKwJ0Tr4B_q0SXoiPyBiEPuaQYNakVGyvvaI-N1mG0Vi1-Zf2HKu4VhlMqhjzkgSwpFo1j53v5YuOtUuFwdttm8gKZ00XcaGyotVjOf1qftyb4_kfQ03g2sWDrLQ-eIQBVoKhslLdGRimor_IjHHkPsL0fdc7GoIVNUH0Zq2hkJJXc_8rPvKsyy4kuN_WGEslDGpP-A2ywd8L8OHmPrs7CZYIKzanOL7wOYWaB4GGBJqS9CMYTAYHyldhr1160GgN-bKMsTkH1IZrcg2j8C-KwvTZ6AUi-hk4_RL0s3_HEsGXOrRIkQALrGgR4xIRjt6fY2RYBjES7Bi32Bum5F_43N7O02CLskI9meQpc0xYIYaTn46FMCWLmrDG5gnym2xXrAXGN-EvgkBM3-pwx6Mwo34LWKHgJ2T0U8gyemdUo0wPCTtKZgsTis_4TsuStCvoPshJMDWJy9euUIuxPnVYJHvAL4m5eh2BebzaIsg99xIdhlIk0-r5DRwRygjM3Q8jx3H0Fwu-vFZsMkA", "width": 4032}], "place_id": "ChIJSy4ZHAATQg0R0QcafXwfC_Q", "plus_code": {"compound_code": "4HQG+JC Chinchón, Spain", "global_code": "8CGR4HQG+JC"}, "rating": 5, "reference": "ChIJSy4ZHAATQg0R0QcafXwfC_Q", "scope": "GOOGLE", "types": ["park", "point_of_interest", "establishment"], "user_ratings_total": 1, "vicinity": "Chinchón"}, {"business_status": "OPERATIONAL", "geometry": {"location": {"lat": 40.1364807, "lng": -3.4225861}, "viewport": {"northeast": {"lat": 40.1378344302915, "lng": -3.421170719708498}, "southwest": {"lat": 40.1351364697085, "lng": -3.423868680291501}}}, "icon": "https://maps.gstatic.com/mapfiles/place_api/icons/v1/png_71/park-71.png", "icon_background_color": "#4DB546", "icon_mask_base_uri": "https://maps.gstatic.com/mapfiles/place_api/icons/v2/tree_pinlet", "name": "Parque de la Hormiga", "opening_hours": {"open_now": true}, "photos": [{"height": 3120, "html_attributions": ["<a href=\"https://maps.google.com/maps/contrib/110433814209563278314\">Claudia Janeth Gaviria Arbelaez</a>"], "photo_reference": "AWn5SU50s3M6x1A_WBMtxVYPRM_BDjT_qGvgtoeR69ux7R9rn3MzRXjmvKCQan-uwGpxP-DL6AJpqlQkt2eliAyNz8KOTgWre_fOtl_748KFNPGcpSpKpub8-LRGLgVJ42IrV9hw13OPbbzXRDHU40UnBemOLQLNM1djdgU94SvaLoLOgVSpo2nJrK2Hr5Y3xDYZMmS12Ak0wQ6iGWwEYO6tIaoRI78dAUIO5OR9GKBa2TW8Nrc-Kv-QdRA4DxLJKDqtnIS9kAQ3_XmTyFiU_CmOPdMfUPGB8kR48vsnP8gcp7bge0fB1ZZgPiAyrANv4v5emWi8kD7e0yh3mdfed5fqHEQETuncqYnp29AuwbIDLbgYKY7sM3KqfQ_YQw-Q7aMBHBise7xeL-Z-Excb15Tor_3W6ycJWxiMKP8ML5n9qAH2WhRNtEAHNlu4Hkz07dDw0aAXJxBWp0L22YEeqaNBuLhTFDRT4MSRVEkyhzF9vdrMbr7H0-RZTTBDIIaBkuX6b_9D0oL9FLqWTyk8uYlv61PsjDBarW90c6pIU4VJv9l73OjDDBOfEQyyFrqYKoIXPF9Py5oZ7pbR7cAhy9xm5WlnEjXb5P3cOrx9tsKlXTKduEp3yUsxEYfnUPGU1PoQetsFpw", "width": 4160}], "place_id": "ChIJ2U4lZSoTQg0RZxbtvjYbdew", "plus_code": {"compound_code": "4HPG+HX Chinchón, Spain", "global_code": "8CGR4HPG+HX"}, "rating": 3.9, "reference": "ChIJ2U4lZSoTQg0RZxbtvjYbdew", "scope": "GOOGLE", "types": ["park", "point_of_interest", "establishment"], "user_ratings_total": 294, "vicinity": "s/n,, Calle del Convento, Chinchón"}, {"business_status": "OPERATIONAL", "geometry": {"location": {"lat": 40.1389843, "lng": -3.4263691}, "viewport": {"northeast": {"lat": 40.1403436802915, "lng": -3.425040269708498}, "southwest": {"lat": 40.1376457197085, "lng": -3.427738230291502}}}, "icon": "https://maps.gstatic.com/mapfiles/place_api/icons/v1/png_71/park-71.png", "icon_background_color": "#4DB546", "icon_mask_base_uri": "https://maps.gstatic.com/mapfiles/place_api/icons/v2/tree_pinlet", "name": "Fuente seca", "opening_hours": {"open_now": true}, "place_id": "ChIJD4Mp4qITQg0RaJ3lCwwShGI", "plus_code": {"compound_code": "4HQF+HF Chinchón, Spain", "global_code": "8CGR4HQF+HF"}, "rating": 3, "reference": "ChIJD4Mp4qITQg0RaJ3lCwwShGI", "scope": "GOOGLE", "types": ["park", "point_of_interest", "establishment"], "user_ratings_total": 1, "vicinity": "Calle de Abapies, 1, Chinchón"}, {"business_status": "OPERATIONAL", "geometry": {"location": {"lat": 40.13427569999999, "lng": -3.424590799999999}, "viewport": {"northeast": {"lat": 40.13550618029149, "lng": -3.423011919708498}, "southwest": {"lat": 40.13280821970849, "lng": -3.425709880291502}}}, "icon": "https://maps.gstatic.com/mapfiles/place_api/icons/v1/png_71/park-71.png", "icon_background_color": "#4DB546", "icon_mask_base_uri": "https://maps.gstatic.com/mapfiles/place_api/icons/v2/tree_pinlet", "name": "Pumptrack Chinchon", "photos": [{"height": 4000, "html_attributions": ["<a href=\"https://maps.google.com/maps/contrib/108642512728020889456\">Christian Tidow Crespo</a>"], "photo_reference": "AWn5SU5_SfqdJKedkGoC5Cp9d2M969egfhx3QVsy-NFcwWZ0Vrvv8Mx8SwHNaFH0WX5YU4wYBIcdeC9wjju0n6a4KBG_5CgUOM7r_voFaCM1wpYbzBzhC5CMJwhOEUcQlhOUWhN4NMRXq6e5dyMwEvS918btup6436Oy-efYU3hSKIPM-VNrTdC-EZQKlxQDN5RI8SZIk0kBXojVpZTCbaoUZ0oMbASBx4XlcnZlFzUSq5BJhxNTl9mXT0e3iiAz87gG_fKMcNJbkySy94n7beYzqpunebDEYYB9i3_DbBYr8Qln91GandI29yhMGDqanHuLrfwfh9MTaydcfNEIzQWwzz1nBfBeKeDyeaI250RK9WVZr-HKvXyihkGNh88agJGLZLrEzP8AUmwZCMZ4RKQVL7HitAomZ1goNDaYCmTIk-sydlHTT2LZW8f41NVoKYnYkntcKil5vKlNfpzXiq_C_vXF1lSLjO8AHJFsGPpZkR79jKjtBp2bFfwy_YIsFLHioWZjTxYzDewWa_OnMgm6hqUlRPrI1DLjmgpa_diIxrDOb2a3H6GWB_sIb8RFEAskqX1clI0o0_qxfL6rd6k7N2n48m66HDOucJYuT9JpxOvdlNDzQ2UhJxuNwEGNczn-X8cohxaMA2N0RSbzvS1-xWKhlIY", "width": 2252}], "place_id": "ChIJxbMcZS4TQg0RVSMY0wGFlWA", "plus_code": {"compound_code": "4HMG+P5 Chinchón, Spain", "global_code": "8CGR4HMG+P5"}, "rating": 1, "reference": "ChIJxbMcZS4TQg0RVSMY0wGFlWA", "scope": "GOOGLE", "types": ["park", "point_of_interest", "establishment"], "user_ratings_total": 3, "vicinity": "Parque Camino Los Pinos, Calle de Valquejigoso, 12, Chinchón"}, {"business_status": "OPERATIONAL", "geometry": {"location": {"lat": 40.13388320000001, "lng": -3.424679799999999}, "viewport": {"northeast": {"lat": 40.13529878029151, "lng": -3.423081719708498}, "southwest": {"lat": 40.13260081970851, "lng": -3.425779680291502}}}, "icon": "https://maps.gstatic.com/mapfiles/place_api/icons/v1/png_71/park-71.png", "icon_background_color": "#4DB546", "icon_mask_base_uri": "https://maps.gstatic.com/mapfiles/place_api/icons/v2/tree_pinlet", "name": "Parque Camino Los Pinos", "opening_hours": {"open_now": true}, "photos": [{"height": 1800, "html_attributions": ["<a href=\"https://maps.google.com/maps/contrib/109755746948842681680\">Enrique de la torre silva</a>"], "photo_reference": "AWn5SU5O9IZC2YYNpOQL4BYrmtlm2dGtorf8V_bmJz-WbJ7_nNnqkEAhtq9siWKUbWlTFbAHz7NRgYx-PNwNSurcoT9dhJoaGy1j7JJTixTVWlVK6izLtNDOXaf8_gK_lwNiPSjzsrh5pe1UcbbrV3vL3hBOjMKm0VdLzlqAq9mYR-CL8ZHWcRvkLParRX-R3q8zdcGzSVlKS-d8965p6l0EQgL7lJuM4PDO6ddHvZ-1cJJdCJYoytyaY-lN1N3cudJ1ix8vR_W-79zw0xv-1IISySgw1g5e02u3gxXLY2M_sOdfGkLjBiV896h3N8NONtMdcnR1eYn_cjoN4ZW2gz8HHnckvWIPs0wiG1ZymbsmFsqTOZULPLFzOgYTfzlTToAUz70EkkIbDsCDaa9x2x3NZajtURHLkphAPyTypyBisMWrSRz1iuZB37ZbCMgq9ji26XBfwReWmeYcLoel6H-ooYtJYtyjS4_bvJmvkN-YOSAy4Y7G_YHf8GFteeDrONYfF22xDBnJMJk4vSpQ8RT2jKIEPRMBjkJuMuYztg0Y97qRf_HQ0Q9AHzeSApqcos-xsCrY-4r-mQ37nCEycwx2M58MmyrLjuuDkd8FSBlAMjEfS87YU0HE_qrw0ZubCaWPab6lFeU3", "width": 4000}], "place_id": "ChIJ3wYuUdQSQg0RCuXCstIXwzk", "plus_code": {"compound_code": "4HMG+H4 Chinchón, Spain", "global_code": "8CGR4HMG+H4"}, "rating": 4.5, "reference": "ChIJ3wYuUdQSQg0RCuXCstIXwzk", "scope": "GOOGLE", "types": ["park", "point_of_interest", "establishment"], "user_ratings_total": 27, "vicinity": "Calle de Valquejigoso, 12, Chinchón"}, {"business_status": "OPERATIONAL", "geometry": {"location": {"lat": 40.1141689, "lng": -3.3969796}, "viewport": {"northeast": {"lat": 40.1154233802915, "lng": -3.395474669708498}, "southwest": {"lat": 40.1127254197085, "lng": -3.398172630291502}}}, "icon": "https://maps.gstatic.com/mapfiles/place_api/icons/v1/png_71/park-71.png", "icon_background_color": "#4DB546", "icon_mask_base_uri": "https://maps.gstatic.com/mapfiles/place_api/icons/v2/tree_pinlet", "name": "Plaza Reyes Católicos", "place_id": "ChIJ10N-keltQg0RRPtx1G2y4ww", "plus_code": {"compound_code": "4J73+M6 Colmenar de Oreja, Spain", "global_code": "8CGR4J73+M6"}, "rating": 5, "reference": "ChIJ10N-keltQg0RRPtx1G2y4ww", "scope": "GOOGLE", "types": ["park", "point_of_interest", "establishment"], "user_ratings_total": 3, "vicinity": "Plaza Reyes Catolicos, 4, Colmenar de Oreja"}, {"business_status": "OPERATIONAL", "geometry": {"location": {"lat": 40.1107086, "lng": -3.3880665}, "viewport": {"northeast": {"lat": 40.1122619302915, "lng": -3.386636619708498}, "southwest": {"lat": 40.1095639697085, "lng": -3.389334580291502}}}, "icon": "https://maps.gstatic.com/mapfiles/place_api/icons/v1/png_71/park-71.png", "icon_background_color": "#4DB546", "icon_mask_base_uri": "https://maps.gstatic.com/mapfiles/place_api/icons/v2/tree_pinlet", "international_phone_number": "+34 651 16 18 93", "name": "PERA PARTY", "place_id": "ChIJLVFIlY9tQg0RxpbULBAtWR0", "plus_code": {"compound_code": "4J66+7Q Colmenar de Oreja, Spain", "global_code": "8CGR4J66+7Q"}, "rating": 4.9, "reference": "ChIJLVFIlY9tQg0RxpbULBAtWR0", "scope": "GOOGLE", "types": ["park", "point_of_interest", "establishment"], "user_ratings_total": 28, "vicinity": "Calle Malcasado, 37, Colmenar de Oreja"}, {"business_status": "OPERATIONAL", "geometry": {"location": {"lat": 40.1325367, "lng": -3.4277233}, "viewport": {"northeast": {"lat": 40.1339009302915, "lng": -3.426126569708498}, "southwest": {"lat": 40.1312029697085, "lng": -3.428824530291501}}}, "icon": "https://maps.gstatic.com/mapfiles/place_api/icons/v1/png_71/park-71.png", "icon_background_color": "#4DB546", "icon_mask_base_uri": "https://maps.gstatic.com/mapfiles/place_api/icons/v2/tree_pinlet", "name": "La soñada", "photos": [{"height": 1800, "html_attributions": ["<a href=\"https://maps.google.com/maps/contrib/113366992752853876198\">Babak Kamgar</a>"], "photo_reference": "AWn5SU4MFHsOP76PCG1uC04gLMC4LqT2IyHECpDoYa-9xE5Ubih4jiQCCGCr3-mDzoZ9bhhmkxHmZ1T_i3kTn841GCdLKpUaue2Gtkh7NOrALNtU-OYyakOmzvY_L3TnQn6vkv2BxdUpLFcl_Shmg4sZDnzYJ82ld0Ce2dvfpbISdeBegRmoAKoRmN5avCasxnfYfBGmUEy78KUsVa3S9SPbKYPQ5QHaOqlZ4NvSjgL8JOGNCnv34nZqACEHkjEMIwnswSbly0hoFTshhSjPX1ijiB6UPf7xQk7KGO_86K6KNHlGF9UIIF3wKmHEBczdzJkWPLMWyC7vwY4UdHc2HVefSIIV06YLVdtBgItCkI-s52ro1olIJNtu_MSXVs5e7miRCbfEAzLshOaG0QBp5HyWuo_bYQ9MGkAZIHmC7xZevxuS0Op77dkJt8IslYuc426lLODT9F3CVeIRuzIzSXsrpPpRaVuKf98rWifQLC-m396qSFxLv4FPMJkP7BTxz_7uT4uRdoGu5VWvLccGuj8_uUgfNuOVu1PLSpX9aDn8DxXMw456no0Bq6-Tu85jWjb7JNA7r27Zchq-Pug3bxC1Ye-kYNC6YDe5NCvWYg09YLuvrVW14HqmdivZkytvqXX2iE0Mm9oI6Co8p5xhXWmJukxr0zc", "width": 4000}], "place_id": "ChIJ-SJwUAATQg0RJt4Bj6q5yC8", "plus_code": {"compound_code": "4HMC+2W Chinchón, Spain", "global_code": "8CGR4HMC+2W"}, "rating": 5, "reference": "ChIJ-SJwUAATQg0RJt4Bj6q5yC8", "scope": "GOOGLE", "types": ["park", "point_of_interest", "establishment"], "user_ratings_total": 6, "vicinity": "Camino Tenería, 1, Chinchón"}, {"business_status": "OPERATIONAL", "geometry": {"location": {"lat": 40.1098823, "lng": -3.39055}, "viewport": {"northeast": {"lat": 40.1112723802915, "lng": -3.389257469708499}, "southwest": {"lat": 40.1085744197085, "lng": -3.391955430291502}}}, "icon": "https://maps.gstatic.com/mapfiles/place_api/icons/v1/png_71/park-71.png", "icon_background_color": "#4DB546", "icon_mask_base_uri": "https://maps.gstatic.com/mapfiles/place_api/icons/v2/tree_pinlet", "name": "Las fuentes de los huertos", "photos": [{"height": 1280, "html_attributions": ["<a href=\"https://maps.google.com/maps/contrib/115244185830623837874\">Nerea Martinez Guerrero</a>"], "photo_reference": "AWn5SU4Ly0XgYfAKttS-7lrZhSNLJG6uVXMBQTqp8AiSPY3Kl0FaQhQkAO1stxojmJskPE0ardGjp64K8ivFrQestWuXnRqrMBuyZuHicFTnSC2QA1Pd6uUB0QW2_eWsY0THI3kyCtQWRfqML2GcOROeY4ukplacLpHuro2rg7zUl54-rum2kibh2RznLg2zIt83UjkvvRbbe-oADeT5M2g9kbJeIFXUKpkTzMkjwlySyBcwoWxhCi9DgbHmTakJFBTgCF0D8i4IV8TnVFKUdHEybGYFsy8Bxtx-FC5rGkKjfoBpHFhpJsrILzBXwwJ1VGhuA7fu0CUU_X19i9H2u08MX-UQ7FhM6cL2Fxj85pfL3ZPdvwaPl2M6q1GqQG-apTy8FOjRxvuSOSODhjia5hJqEZFLjMhx0XhaVtjQHLCCp5IgCDi63zxKIpUyHlL40FuP-gkXPJzUoaN-6uHrBT17Ly_-VplfQvWCG80v2bwVtIcEt9bICkS0v0dGAXqtUdYWq91BcUOhZxJkc_D2qN990z4ODUPJS2PTyo-JYmq0wK3RkP_DacV6P1DhW1xQX7Dl-UWDLUiNCfBRKuGXf6H31i5Ccd4H-YblkdiQakPqDooziDbRIj6jra1vH7ZZwx7Yh6JFxImmz72SIjhLDHvwabAgvlU", "width": 720}], "place_id": "ChIJsyJ9TABtQg0RTvaGs8tmvoY", "plus_code": {"compound_code": "4J55+XQ Colmenar de Oreja, Spain", "global_code": "8CGR4J55+XQ"}, "reference": "ChIJsyJ9TABtQg0RTvaGs8tmvoY", "scope": "GOOGLE", "types": ["park", "point_of_interest", "establishment"], "vicinity": "Colmenar de Oreja"}, {"business_status": "OPERATIONAL", "geometry": {"location": {"lat": 40.1090698, "lng": -3.3886097}, "viewport": {"northeast": {"lat": 40.1103912302915, "lng": -3.387357169708499}, "southwest": {"lat": 40.10769326970851, "lng": -3.390055130291502}}}, "icon": "https://maps.gstatic.com/mapfiles/place_api/icons/v1/png_71/park-71.png", "icon_background_color": "#4DB546", "icon_mask_base_uri": "https://maps.gstatic.com/mapfiles/place_api/icons/v2/tree_pinlet", "name": "Don Constantino Hurtado Garden", "photos": [{"height": 3120, "html_attributions": ["<a href=\"https://maps.google.com/maps/contrib/103920148903994911142\">ANTONIO JESÚS MARTIN</a>"], "photo_reference": "AWn5SU4fzPQ9ZbR-Fp7rk69huiRiCJF-MfqhUJaSmhQV8bheOo7j29idQf_eio_yrDPYJdL42Cq6jyF5l_x74AwSMP5J-0h2rcwz78EMF2zkoqblJ2DhTJdvxeTc0zdxwg1-qo1_76epvms4Fww3u-VqZ7fNWASo1syeHLIDDJZWNSjeXsdImOyo82m6lv8-DH9evqtZpKJXP28YWHT7dKM_7SxodytSmU9uicpHB5M6jogE-m20v_yysn4kUHzCsTdjzIiuBwII21-KmPbqTIrLp_UrcIedgGrTpPgYNX2udfW0lllryxFtCGJhthJS-X8s8LHowCjII9fAgm8NJtI9SNLcr_0a9PYa0k5MVkrz9jIzqRbcbAVp_y2YijL5NWCWcMXoct3bUO63v5DDcdMIQsTuuaTvmjjHEh8V89zbgVgkX5fzthdHvDnIutM7SjtF9LEiNh6dYPokaT9BLyIDekY9QT3niGZY_S9TjxjGdxQvcypFPEivU5pQxpjWq4snPzgMR8zDY4zF2ihdoiFttoS3WanrTq4-bIzEgBtPFVGCPFZE0NVijyTToUxaiahUi73sqx_2vI_zFUaKf02D6Ly-PAOgiAjmSXLi_TAupepe0VONb8bmxbcEo-18Sbtmx_6fgA", "width": 4160}], "place_id": "ChIJU4xmJZltQg0RWZlnSxPZ0nw", "plus_code": {"compound_code": "4J56+JH Colmenar de Oreja, Spain", "global_code": "8CGR4J56+JH"}, "rating": 5, "reference": "ChIJU4xmJZltQg0RWZlnSxPZ0nw", "scope": "GOOGLE", "types": ["park", "point_of_interest", "establishment"], "user_ratings_total": 1, "vicinity": "Colmenar de Oreja"}]