[{"business_status": "OPERATIONAL", "geometry": {"location": {"lat": 40.5431762, "lng": -3.4580838}, "viewport": {"northeast": {"lat": 40.5445244302915, "lng": -3.456799919708498}, "southwest": {"lat": 40.5418264697085, "lng": -3.459497880291502}}}, "icon": "https://maps.gstatic.com/mapfiles/place_api/icons/v1/png_71/civic_building-71.png", "icon_background_color": "#7B9EB0", "icon_mask_base_uri": "https://maps.gstatic.com/mapfiles/place_api/icons/v2/civic-bldg_pinlet", "international_phone_number": "+34 607 70 64 59", "name": "POLICÍA LOCAL DAGANZO DE ARRIBA.", "opening_hours": {"open_now": true}, "place_id": "ChIJXcnTuKc1Qg0Ri98nFmLWAGs", "plus_code": {"compound_code": "GGVR+7Q Daganzo de Arriba, Spain", "global_code": "8CGRGGVR+7Q"}, "reference": "ChIJXcnTuKc1Qg0Ri98nFmLWAGs", "scope": "GOOGLE", "types": ["police", "point_of_interest", "establishment"], "vicinity": "Glorieta de Alcalá s/n"}, {"business_status": "OPERATIONAL", "geometry": {"location": {"lat": 40.53585029999999, "lng": -3.4802546}, "viewport": {"northeast": {"lat": 40.5371996302915, "lng": -3.478889469708498}, "southwest": {"lat": 40.5345016697085, "lng": -3.481587430291502}}}, "icon": "https://maps.gstatic.com/mapfiles/place_api/icons/v1/png_71/civic_building-71.png", "icon_background_color": "#7B9EB0", "icon_mask_base_uri": "https://maps.gstatic.com/mapfiles/place_api/icons/v2/civic-bldg_pinlet", "international_phone_number": "+34 609 15 83 60", "name": "POLICÍA LOCAL AJALVIR.", "opening_hours": {"open_now": false}, "place_id": "ChIJn6tz9F00Qg0RLjQkbfAzlcc", "plus_code": {"compound_code": "GGP9+8V Ajalvir, Spain", "global_code": "8CGRGGP9+8V"}, "reference": "ChIJn6tz9F00Qg0RLjQkbfAzlcc", "scope": "GOOGLE", "types": ["police", "point_of_interest", "establishment"], "vicinity": "Calle Escalerillas, 5, Ajalvir"}, {"business_status": "OPERATIONAL", "geometry": {"location": {"lat": 40.54150509999999, "lng": -3.4644893}, "viewport": {"northeast": {"lat": 40.5427623302915, "lng": -3.463078219708498}, "southwest": {"lat": 40.5400643697085, "lng": -3.465776180291502}}}, "icon": "https://maps.gstatic.com/mapfiles/place_api/icons/v1/png_71/civic_building-71.png", "icon_background_color": "#7B9EB0", "icon_mask_base_uri": "https://maps.gstatic.com/mapfiles/place_api/icons/v2/civic-bldg_pinlet", "international_phone_number": "+34 918 78 24 20", "name": "Guardia Civil de Daganzo de Arriba", "opening_hours": {"open_now": false}, "photos": [{"height": 3264, "html_attributions": ["<a href=\"https://maps.google.com/maps/contrib/101132523567719377828\">Pedro Vega</a>"], "photo_reference": "AWn5SU7hD1PJqtizq5o-43YrhblCKGyKWd0gsBxzjQi-IRuWsu8LGCIOf3_WKLfkqlJrNYRoiO8xMXdCMqi5Xj9QXQqTmc_HLYvsUrV-PjdTRSDeD6ATp2XlNsLsiXcE2WgHth3Lc2mOxaq_fkQ8PddO5qqPri3vNWb7HVGeNoBoxRjGhbRHWJmgTKmPTd4iRlidbPPrjQKJjyetrXqoRqX52GcR-Iz8PxnBnJJRXjlP22ZU39xowV_hlUgEgwqiXwZzUz2KvZ5MVDAqvFaXS1XplDurpWdjHO42MHW_q45YgeAi2A0dVROyOpJ9YnRPinSyy16d-w4Pj61hzTKawPdmR3qaFTG5Q8_xC8UtSildmGy4sA2F44V-HcCO4SHoxQvW8SnYLJwNsU7_vDMwnerKNHJ0gApH88eNbb4mgMUc8DHHu0CqEOa58iYjGfCb1W6OJ7qMaS4uqugxNpJJ6OCyQ27x2JodmN1dw1qy-SRZRZN8Xtr4qwDY4i7RRFlJOUZ-Bf4q5vUZM6ah7nvHe7J6hMDuLzGQu4EkeFG5gXDSAyi7Qw46IajRC4MovT8JxszRY7PHuKfeshitNnxKFbj5pxG-LQiNvfUDEnuj4mCYGK8TWX_fA8sdrU3U_-9Ac6_BSiW6ug", "width": 2448}], "place_id": "ChIJDyIXQwA1Qg0RggU_DHp8yWg", "plus_code": {"compound_code": "GGRP+J6 Daganzo de Arriba, Spain", "global_code": "8CGRGGRP+J6"}, "rating": 3.7, "reference": "ChIJDyIXQwA1Qg0RggU_DHp8yWg", "scope": "GOOGLE", "types": ["police", "point_of_interest", "establishment"], "user_ratings_total": 6, "vicinity": "Carretera de Fresno del Torote a Ajalvir, Km. 1,300, Daganzo de Arriba, Madrid"}]