[{"business_status": "OPERATIONAL", "geometry": {"location": {"lat": 40.2204723, "lng": -3.1568502}, "viewport": {"northeast": {"lat": 40.22181958029149, "lng": -3.155496869708498}, "southwest": {"lat": 40.2191216197085, "lng": -3.158194830291502}}}, "icon": "https://maps.gstatic.com/mapfiles/place_api/icons/v1/png_71/park-71.png", "icon_background_color": "#4DB546", "icon_mask_base_uri": "https://maps.gstatic.com/mapfiles/place_api/icons/v2/tree_pinlet", "name": "Camino Natural de la Cañada Real Soriana Oriental", "opening_hours": {"open_now": true}, "photos": [{"height": 1800, "html_attributions": ["<a href=\"https://maps.google.com/maps/contrib/101321764474141234821\">ricardo fernández del Blanco</a>"], "photo_reference": "AWn5SU6WkkSS97Omqco_WNcRaWcEO7X7Ft3CT2KIM4nE9SrBaj1RCDfNZsxmZapvi3ltZpDcFWFdNLtPwJ3duAd6zqMdJiieGR_eH3jZFlHzcErk_QfX0j2kVSkjRscjQBSxo_RQMSOmQdBvsvS8k543DOaNtW0pU3APMTFrAhKiu9Z9op97T_Cs37XEY5xQu_K05aVkFQBRTx7NhQFruLTA8f5NeepEgs_tIpVqFflv1nJqit5vC82Lvk-HpvLQl6NlmbEtYIvbjAET7aEDiYe4eztfDcVpUbaqD0azzLsXISMilmv-4IXqJYU2MY60YwaE1AUMvbhSUbYiX_quMwP7g3Kse-cUGQ6vWhFAiiB6n9AikoFzgHzfUsdWohutGNw5oyzWvV1Tzdz7WbZsHQN508cO-SWV5RYe19DF50MAUxSqpedKCig1OSvfsEU_vd3S86UikcGyhgi9O54tBaHXeQT3jRGr6uhQdHbioD1jesa-evtl83Lz48R_90Usr2C380-qUjhcSiJmWE5xR8gbA0ArnXwCTWOCjQAOMzn6tzNikNjlYX2haDTEZKej047rvrftUo_F94xt7kT0_4wD7l76aBOx69uk3rmEzZoAEXTNMx5JeGv7WqL-P3WbHaTV", "width": 4000}], "place_id": "ChIJV6OLn3FhQg0RKo7WNg3e_Ak", "plus_code": {"compound_code": "6RCV+57 Valdaracete, Spain", "global_code": "8CGR6RCV+57"}, "rating": 3.8, "reference": "ChIJV6OLn3FhQg0RKo7WNg3e_Ak", "scope": "GOOGLE", "types": ["park", "point_of_interest", "establishment"], "user_ratings_total": 6, "vicinity": "Valdaracete"}, {"business_status": "OPERATIONAL", "geometry": {"location": {"lat": 40.2102554, "lng": -3.1383434}, "viewport": {"northeast": {"lat": 40.21140188029149, "lng": -3.136902619708497}, "southwest": {"lat": 40.2087039197085, "lng": -3.139600580291501}}}, "icon": "https://maps.gstatic.com/mapfiles/place_api/icons/v1/png_71/park-71.png", "icon_background_color": "#4DB546", "icon_mask_base_uri": "https://maps.gstatic.com/mapfiles/place_api/icons/v2/tree_pinlet", "name": "Mirador La casita de madera", "opening_hours": {"open_now": true}, "place_id": "ChIJoWI_VwBhQg0R7lti245yXpc", "reference": "ChIJoWI_VwBhQg0R7lti245yXpc", "scope": "GOOGLE", "types": ["park", "point_of_interest", "establishment"], "vicinity": "6V66+4M, Estremera"}, {"business_status": "OPERATIONAL", "geometry": {"location": {"lat": 40.2298353, "lng": -3.1429425}, "viewport": {"northeast": {"lat": 40.2308922302915, "lng": -3.141565119708498}, "southwest": {"lat": 40.2281942697085, "lng": -3.144263080291501}}}, "icon": "https://maps.gstatic.com/mapfiles/place_api/icons/v1/png_71/park-71.png", "icon_background_color": "#4DB546", "icon_mask_base_uri": "https://maps.gstatic.com/mapfiles/place_api/icons/v2/tree_pinlet", "name": "Pozo Cristobal", "opening_hours": {"open_now": true}, "place_id": "ChIJaWsbZQBhQg0RmIWzYpoeVLE", "plus_code": {"compound_code": "6VH4+WR Brea de Tajo, Spain", "global_code": "8CGR6VH4+WR"}, "rating": 5, "reference": "ChIJaWsbZQBhQg0RmIWzYpoeVLE", "scope": "GOOGLE", "types": ["park", "point_of_interest", "establishment"], "user_ratings_total": 1, "vicinity": "Brea de Tajo"}, {"business_status": "OPERATIONAL", "geometry": {"location": {"lat": 40.2371657, "lng": -3.1482462}, "viewport": {"northeast": {"lat": 40.2384923302915, "lng": -3.146916669708498}, "southwest": {"lat": 40.2357943697085, "lng": -3.149614630291502}}}, "icon": "https://maps.gstatic.com/mapfiles/place_api/icons/v1/png_71/park-71.png", "icon_background_color": "#4DB546", "icon_mask_base_uri": "https://maps.gstatic.com/mapfiles/place_api/icons/v2/tree_pinlet", "name": "Pozo nuevo", "opening_hours": {"open_now": true}, "place_id": "ChIJGULrSgBhQg0RYgtw84urX3I", "plus_code": {"compound_code": "6VP2+VP Brea de Tajo, Spain", "global_code": "8CGR6VP2+VP"}, "reference": "ChIJGULrSgBhQg0RYgtw84urX3I", "scope": "GOOGLE", "types": ["park", "point_of_interest", "establishment"], "vicinity": "Camino de Carabaña a Brea de Tajo, Brea de Tajo"}, {"business_status": "OPERATIONAL", "geometry": {"location": {"lat": 40.2472234, "lng": -3.2273962}, "viewport": {"northeast": {"lat": 40.24914808029149, "lng": -3.226412869708498}, "southwest": {"lat": 40.24645011970849, "lng": -3.229110830291502}}}, "icon": "https://maps.gstatic.com/mapfiles/place_api/icons/v1/png_71/park-71.png", "icon_background_color": "#4DB546", "icon_mask_base_uri": "https://maps.gstatic.com/mapfiles/place_api/icons/v2/tree_pinlet", "name": "Via Verde del Tren de los 40 Dias", "opening_hours": {"open_now": true}, "photos": [{"height": 4000, "html_attributions": ["<a href=\"https://maps.google.com/maps/contrib/105288184954162100143\">Antonio Montesinos</a>"], "photo_reference": "AWn5SU5I7v3traiI-gXBDykSe3vIP99hWQ-dMG-Qq4RV6Bfelr5IIqAySNBlTWoUVfGN2Pc0A6dKA0Y8Gp6yO9tuVcGYx6XlOTFOgk9WS5BAB_lN9TPmlmfvFUOwuHOdI7dUFrJKcFp_KNiRFDnyzRpUoHC0DTC_sM0oH74NMg8ekiMKCa9VsIsDp-MWMWMm3t_CQpE1M2dGnsvCGFc3NXXYm2D2cmOwiBhx3PE8u4Axc1b5wpyVNpV11T29HYWZY0q0nj_Fc-ZMGK4aFazEVtZEb68yieoSzOX_T0zQxilIofJ4sk6tvdKOV7aDtc1ZlEAEK6itpelbREE2lhNtwdd8c2XDJ8J6iwxkppiq0RpjQLnBA3kS0kWUxbRO5-e2Z1SEttltfv0D9S0PH9dA3ydjeguTM5amn5N9JubwJTuzKxa81aCpIw2szaBpECWF5XPY-shVHL_XHt1eRamXfT9av6_jUKAQEhKa0ZI30O7IZkkEkMRRLhgQP_QXQ6P1-gr_9WjLS6JxgCpI9Ws9-abvYJmaSJ_XLUSNH8nyAaiqLulMVuNXC8FxIcrN1k4w-jA6__2MJru1qR365dFUxuylxNYEr7wkH8Q-0Dqpy_iq1BBdRSGk3tAWOoq51C1C-FLEiLbvLw", "width": 3000}], "place_id": "ChIJZTpXgBtnQg0R5zhd9ftAszU", "plus_code": {"compound_code": "6QWF+V2 Carabaña, Spain", "global_code": "8CGR6QWF+V2"}, "rating": 4.5, "reference": "ChIJZTpXgBtnQg0R5zhd9ftAszU", "scope": "GOOGLE", "types": ["park", "point_of_interest", "establishment"], "user_ratings_total": 19, "vicinity": "Carabaña"}, {"business_status": "OPERATIONAL", "geometry": {"location": {"lat": 40.24608289999999, "lng": -3.238888}, "viewport": {"northeast": {"lat": 40.24735203029149, "lng": -3.237593819708498}, "southwest": {"lat": 40.2446540697085, "lng": -3.240291780291502}}}, "icon": "https://maps.gstatic.com/mapfiles/place_api/icons/v1/png_71/park-71.png", "icon_background_color": "#4DB546", "icon_mask_base_uri": "https://maps.gstatic.com/mapfiles/place_api/icons/v2/tree_pinlet", "name": "Vía Verde , carril bici", "opening_hours": {"open_now": true}, "photos": [{"height": 3472, "html_attributions": ["<a href=\"https://maps.google.com/maps/contrib/103322360241594595399\">Vicente Camarasa</a>"], "photo_reference": "AWn5SU7JDrXerc5StpUFUBtbhn8Sz9HU78AL2nzPu06FH3pqrPrTDfOTbHvwkrIfZ1IFhtNYzkE379J5Ri0xbiFlO86TWzfmrvs3iFNXK483C87j3ZKln-iuywm6OTnh1Daz_suG8ToSQL7mpJun6sVM2MmtlR5LHc2EaAs1fp9LERxnP1B9talQzqEGPTU8Ryp67skj1wwEwgaRlfTYeSy0Dpr5ItuxuRYSUYmGM32VeXdQ_eetZl_xx9WSvtWh5yiwYw-8CcbLLNIWuZJqWhAOcldGjRD5xobe-8o6Hr5gtJ_akPAoDUFAQHFdU3KNBgQpLe0yg8Xg06TUQ3-V6f1FHLsCozBcxELlpHRrHxGG8zQd3LldockTh-gC__XE0-VPnXlaiz5RUTQlqKcApeZkmli_nSsAyQjO4WP_xeBm61aPNRaetBtIJHTHB4k72KOofcCo16Er5M_YQ8muyrVu1i4FYPqsusqkaf5Lrv4bOseD_ICL96fwmm3Fwfx_MsX6XMab1t4JF6QCjm2mPu2S2-wzHoFhu3nXG5cW2_vYas52EjY2Tlxl0kb41fLacLG2HfoN8BtGluXTl9Fk1lkurxKBL3vrlbRTeT3VjfNE37TW1fboGa00kh3KIIt_7TOWaEagaw", "width": 4624}], "place_id": "ChIJpdzdx_lnQg0RMFYTLFZEkiA", "plus_code": {"compound_code": "6QW6+CC Carabaña, Spain", "global_code": "8CGR6QW6+CC"}, "rating": 4.5, "reference": "ChIJpdzdx_lnQg0RMFYTLFZEkiA", "scope": "GOOGLE", "types": ["park", "point_of_interest", "establishment"], "user_ratings_total": 13, "vicinity": "Vias Verdes del Tajuna, Carabaña"}, {"business_status": "OPERATIONAL", "geometry": {"location": {"lat": 40.2335501, "lng": -3.1365363}, "viewport": {"northeast": {"lat": 40.23488628029151, "lng": -3.135218819708498}, "southwest": {"lat": 40.23218831970851, "lng": -3.137916780291502}}}, "icon": "https://maps.gstatic.com/mapfiles/place_api/icons/v1/png_71/park-71.png", "icon_background_color": "#4DB546", "icon_mask_base_uri": "https://maps.gstatic.com/mapfiles/place_api/icons/v2/tree_pinlet", "name": "Pozo hundimiento", "place_id": "ChIJndGxXQBhQg0RRtJVH2byctI", "reference": "ChIJndGxXQBhQg0RRtJVH2byctI", "scope": "GOOGLE", "types": ["park", "point_of_interest", "establishment"], "vicinity": "6VM7+C9, Estremera"}, {"business_status": "OPERATIONAL", "geometry": {"location": {"lat": 40.2547672, "lng": -3.2296195}, "viewport": {"northeast": {"lat": 40.2561040802915, "lng": -3.228255869708498}, "southwest": {"lat": 40.2534061197085, "lng": -3.230953830291502}}}, "icon": "https://maps.gstatic.com/mapfiles/place_api/icons/v1/png_71/park-71.png", "icon_background_color": "#4DB546", "icon_mask_base_uri": "https://maps.gstatic.com/mapfiles/place_api/icons/v2/tree_pinlet", "name": "Camino de frutas", "place_id": "ChIJ6VXryPZnQg0RzDbK8kgUiuo", "plus_code": {"compound_code": "7Q3C+W5 Carabaña, Spain", "global_code": "8CGR7Q3C+W5"}, "reference": "ChIJ6VXryPZnQg0RzDbK8kgUiuo", "scope": "GOOGLE", "types": ["park", "point_of_interest", "establishment"], "vicinity": "Calle de Ávila, Carabaña"}, {"business_status": "OPERATIONAL", "geometry": {"location": {"lat": 40.23878879999999, "lng": -3.1375522}, "viewport": {"northeast": {"lat": 40.2398015302915, "lng": -3.136050419708498}, "southwest": {"lat": 40.2371035697085, "lng": -3.138748380291502}}}, "icon": "https://maps.gstatic.com/mapfiles/place_api/icons/v1/png_71/park-71.png", "icon_background_color": "#4DB546", "icon_mask_base_uri": "https://maps.gstatic.com/mapfiles/place_api/icons/v2/tree_pinlet", "name": "Fuente ventanilla", "place_id": "ChIJXWRtTwBhQg0RFxIQqtM17ao", "reference": "ChIJXWRtTwBhQg0RFxIQqtM17ao", "scope": "GOOGLE", "types": ["park", "point_of_interest", "establishment"], "vicinity": "6VQ6+GX, Estremera"}, {"business_status": "OPERATIONAL", "geometry": {"location": {"lat": 40.23815130000001, "lng": -3.1365243}, "viewport": {"northeast": {"lat": 40.2393411302915, "lng": -3.135284919708498}, "southwest": {"lat": 40.2366431697085, "lng": -3.137982880291502}}}, "icon": "https://maps.gstatic.com/mapfiles/place_api/icons/v1/png_71/park-71.png", "icon_background_color": "#4DB546", "icon_mask_base_uri": "https://maps.gstatic.com/mapfiles/place_api/icons/v2/tree_pinlet", "name": "LAS CANTERAS", "place_id": "ChIJ96rcFABhQg0RT1Ep0mzSZe8", "plus_code": {"compound_code": "6VQ7+79 Brea de Tajo, Spain", "global_code": "8CGR6VQ7+79"}, "reference": "ChIJ96rcFABhQg0RT1Ep0mzSZe8", "scope": "GOOGLE", "types": ["park", "point_of_interest", "establishment"], "vicinity": "M-229, Brea de Tajo"}, {"business_status": "OPERATIONAL", "geometry": {"location": {"lat": 40.2528022, "lng": -3.2355035}, "viewport": {"northeast": {"lat": 40.25415263029149, "lng": -3.234105219708498}, "southwest": {"lat": 40.2514546697085, "lng": -3.236803180291502}}}, "icon": "https://maps.gstatic.com/mapfiles/place_api/icons/v1/png_71/park-71.png", "icon_background_color": "#4DB546", "icon_mask_base_uri": "https://maps.gstatic.com/mapfiles/place_api/icons/v2/tree_pinlet", "name": "Parque de las Morera", "opening_hours": {"open_now": true}, "photos": [{"height": 3120, "html_attributions": ["<a href=\"https://maps.google.com/maps/contrib/107200833698828892228\">Pedro M</a>"], "photo_reference": "AWn5SU7-6Q1WRGpzZbxDWp_qPHxcCLfQaTbGZsYGiAWZVoajEdMfScBHOdFXv4ywh7oDAJrmstf_ICBG6gwVdX0ipMBzoGDUWk1zHsaIu4Z9Kii7QYLVrVEw0vCgtuZ4X4fSRCJCe68QA_k6xnYadZz5POZxDRKOEbvmTNIdYGNhLrdoz7Ey6jkp9VYLcUN1zQ_aUpDZwg7DQ_RhyDMSk0-0T82foL29jQqpGQxe1cBWwh47wZ0yC_RXsmAvZVwP3VkvCY09C8XrHPcHkOTM88Cqqs8Awk2jRlY4ht95SJSPua4hQlkzNeUp_7nhBkDTVZ-E-q4W_pPEhmdxBPM_poHIneG8HOt5KH0Io9Z9_bGZiIIkea6hhcGVuysp03n6MPdd63pw3YCDwOftXOTMbsdlS7eTDs_GPKtgtJ-AgOTUW231UWAjpikHfUUAqarDk8bMlS251wfoPbQ2rjezAhXymCcP7G0xaZ5rOAvpUkauklKKJ8qscxaqZbEyWYNVmmLfSMg4UcUAfgVlPDxEVWCSvskNQ19z4GRe2zrf86r5fE9rzvZzuomRJGoXwLTD4J_d8d8kvOo8cE4RF8naf0_fv1-FlgNYQtDC_PqEnGzjYZ22UfWGeVX3ZYSsjFX4MsT87Jf8Dg", "width": 4160}], "place_id": "ChIJ6SkNY5JnQg0RyrYR3IDkwnE", "plus_code": {"compound_code": "7Q37+4Q Carabaña, Spain", "global_code": "8CGR7Q37+4Q"}, "rating": 4, "reference": "ChIJ6SkNY5JnQg0RyrYR3IDkwnE", "scope": "GOOGLE", "types": ["park", "point_of_interest", "establishment"], "user_ratings_total": 22, "vicinity": "Avenida de Tielmes, 12, Carabaña"}, {"business_status": "OPERATIONAL", "geometry": {"location": {"lat": 40.1606101, "lng": -3.229954}, "viewport": {"northeast": {"lat": 40.16187115, "lng": -3.228200819708499}, "southwest": {"lat": 40.15682695000001, "lng": -3.230898780291502}}}, "icon": "https://maps.gstatic.com/mapfiles/place_api/icons/v1/png_71/park-71.png", "icon_background_color": "#4DB546", "icon_mask_base_uri": "https://maps.gstatic.com/mapfiles/place_api/icons/v2/tree_pinlet", "name": "La Cuadrilla", "place_id": "ChIJcSlOaLhlQg0RH3ovQO-Q3TQ", "plus_code": {"compound_code": "5Q6C+62 Villarejo de Salvanés, Spain", "global_code": "8CGR5Q6C+62"}, "rating": 2.5, "reference": "ChIJcSlOaLhlQg0RH3ovQO-Q3TQ", "scope": "GOOGLE", "types": ["park", "point_of_interest", "establishment"], "user_ratings_total": 2, "vicinity": "Villarejo de Salvanés"}, {"business_status": "OPERATIONAL", "geometry": {"location": {"lat": 40.25953209999999, "lng": -3.237721}, "viewport": {"northeast": {"lat": 40.26094483029149, "lng": -3.236217269708498}, "southwest": {"lat": 40.25824686970849, "lng": -3.238915230291502}}}, "icon": "https://maps.gstatic.com/mapfiles/place_api/icons/v1/png_71/park-71.png", "icon_background_color": "#4DB546", "icon_mask_base_uri": "https://maps.gstatic.com/mapfiles/place_api/icons/v2/tree_pinlet", "name": "La dehesilla", "opening_hours": {"open_now": true}, "place_id": "ChIJDbSGaBlnQg0ROydLIxq4la0", "plus_code": {"compound_code": "7Q56+RW Carabaña, Spain", "global_code": "8CGR7Q56+RW"}, "rating": 3, "reference": "ChIJDbSGaBlnQg0ROydLIxq4la0", "scope": "GOOGLE", "types": ["park", "point_of_interest", "establishment"], "user_ratings_total": 1, "vicinity": "Calle del Almendro, 14, Carabaña"}, {"business_status": "OPERATIONAL", "geometry": {"location": {"lat": 40.23093060000001, "lng": -3.2667676}, "viewport": {"northeast": {"lat": 40.2321984302915, "lng": -3.265412619708498}, "southwest": {"lat": 40.2295004697085, "lng": -3.268110580291502}}}, "icon": "https://maps.gstatic.com/mapfiles/place_api/icons/v1/png_71/park-71.png", "icon_background_color": "#4DB546", "icon_mask_base_uri": "https://maps.gstatic.com/mapfiles/place_api/icons/v2/tree_pinlet", "name": "Cerro de cabeza gorda", "opening_hours": {"open_now": true}, "place_id": "ChIJKfbuJABpQg0RmSpwLCDDeus", "rating": 5, "reference": "ChIJKfbuJABpQg0RmSpwLCDDeus", "scope": "GOOGLE", "types": ["park", "point_of_interest", "establishment"], "user_ratings_total": 1, "vicinity": "6PJM+97, Tielmes"}, {"business_status": "OPERATIONAL", "geometry": {"location": {"lat": 40.2604411, "lng": -3.1524381}, "viewport": {"northeast": {"lat": 40.2620733302915, "lng": -3.151284619708498}, "southwest": {"lat": 40.2593753697085, "lng": -3.153982580291502}}}, "icon": "https://maps.gstatic.com/mapfiles/place_api/icons/v1/png_71/park-71.png", "icon_background_color": "#4DB546", "icon_mask_base_uri": "https://maps.gstatic.com/mapfiles/place_api/icons/v2/tree_pinlet", "name": "Pozillo torres", "place_id": "ChIJqZu8dgBhQg0RZBxy6pAYrZk", "plus_code": {"compound_code": "7R6X+52 Brea de Tajo, Spain", "global_code": "8CGR7R6X+52"}, "reference": "ChIJqZu8dgBhQg0RZBxy6pAYrZk", "scope": "GOOGLE", "types": ["park", "point_of_interest", "establishment"], "vicinity": "Brea de Tajo"}, {"business_status": "OPERATIONAL", "geometry": {"location": {"lat": 40.2310302, "lng": -3.1203583}, "viewport": {"northeast": {"lat": 40.2323863802915, "lng": -3.119000519708498}, "southwest": {"lat": 40.2296884197085, "lng": -3.121698480291502}}}, "icon": "https://maps.gstatic.com/mapfiles/place_api/icons/v1/png_71/park-71.png", "icon_background_color": "#4DB546", "icon_mask_base_uri": "https://maps.gstatic.com/mapfiles/place_api/icons/v2/tree_pinlet", "name": "Pendientes del diablo", "opening_hours": {"open_now": true}, "place_id": "ChIJBSJ4AABhQg0RZgM5jwOdIH0", "reference": "ChIJBSJ4AABhQg0RZgM5jwOdIH0", "scope": "GOOGLE", "types": ["park", "point_of_interest", "establishment"], "vicinity": "6VJH+CV, Brea de Tajo"}, {"business_status": "OPERATIONAL", "geometry": {"location": {"lat": 40.2607858, "lng": -3.238964499999999}, "viewport": {"northeast": {"lat": 40.26218533029149, "lng": -3.237629719708498}, "southwest": {"lat": 40.2594873697085, "lng": -3.240327680291502}}}, "icon": "https://maps.gstatic.com/mapfiles/place_api/icons/v1/png_71/park-71.png", "icon_background_color": "#4DB546", "icon_mask_base_uri": "https://maps.gstatic.com/mapfiles/place_api/icons/v2/tree_pinlet", "name": "Ruinas", "opening_hours": {"open_now": true}, "place_id": "ChIJ_25axYZnQg0RdQmQ7l9blNU", "plus_code": {"compound_code": "7Q66+8C Carabaña, Spain", "global_code": "8CGR7Q66+8C"}, "rating": 5, "reference": "ChIJ_25axYZnQg0RdQmQ7l9blNU", "scope": "GOOGLE", "types": ["park", "point_of_interest", "establishment"], "user_ratings_total": 1, "vicinity": "M-221, 18T, Carabaña"}, {"business_status": "OPERATIONAL", "geometry": {"location": {"lat": 40.24647059999999, "lng": -3.2585611}, "viewport": {"northeast": {"lat": 40.2478253802915, "lng": -3.257179319708498}, "southwest": {"lat": 40.2451274197085, "lng": -3.259877280291501}}}, "icon": "https://maps.gstatic.com/mapfiles/place_api/icons/v1/png_71/park-71.png", "icon_background_color": "#4DB546", "icon_mask_base_uri": "https://maps.gstatic.com/mapfiles/place_api/icons/v2/tree_pinlet", "name": "Camino de la Merce", "place_id": "ChIJKSiO-GdpQg0RiJrOPcdWVr8", "plus_code": {"compound_code": "6PWR+HH Carabaña, Spain", "global_code": "8CGR6PWR+HH"}, "rating": 3.4, "reference": "ChIJKSiO-GdpQg0RiJrOPcdWVr8", "scope": "GOOGLE", "types": ["park", "point_of_interest", "establishment"], "user_ratings_total": 5, "vicinity": "Diseminado Perales Alba Cr, 30, Carabaña"}, {"business_status": "OPERATIONAL", "geometry": {"location": {"lat": 40.2710923, "lng": -3.205014499999999}, "viewport": {"northeast": {"lat": 40.2726748802915, "lng": -3.202129049999999}, "southwest": {"lat": 40.2699769197085, "lng": -3.21367085}}}, "icon": "https://maps.gstatic.com/mapfiles/place_api/icons/v1/png_71/park-71.png", "icon_background_color": "#4DB546", "icon_mask_base_uri": "https://maps.gstatic.com/mapfiles/place_api/icons/v2/tree_pinlet", "name": "El Cristo de Orusco", "opening_hours": {"open_now": true}, "place_id": "ChIJ05dPQQBdQg0RhbL5jX1Oeek", "rating": 5, "reference": "ChIJ05dPQQBdQg0RhbL5jX1Oeek", "scope": "GOOGLE", "types": ["park", "point_of_interest", "establishment"], "user_ratings_total": 1, "vicinity": "7QCV+CX, Orusco de Tajuña"}, {"business_status": "OPERATIONAL", "geometry": {"location": {"lat": 40.26430209999999, "lng": -3.235012}, "viewport": {"northeast": {"lat": 40.2655579802915, "lng": -3.233626969708498}, "southwest": {"lat": 40.2628600197085, "lng": -3.236324930291501}}}, "icon": "https://maps.gstatic.com/mapfiles/place_api/icons/v1/png_71/park-71.png", "icon_background_color": "#4DB546", "icon_mask_base_uri": "https://maps.gstatic.com/mapfiles/place_api/icons/v2/tree_pinlet", "name": "Parque Forestal El Pinar", "opening_hours": {"open_now": true}, "photos": [{"height": 2448, "html_attributions": ["<a href=\"https://maps.google.com/maps/contrib/101803453846124571699\">Pablo Alonso</a>"], "photo_reference": "AWn5SU5GUQ1R6KZDc6mzaqPlgYmnCALLt_kSF2eN136XngBhy4DteSt_bVCEYWTaJeOFjvK9UdcbO6J3xB9g24_dOLsM2ywZvam69GxT_1vS3DtnWPNWkendwGdufzkU9pdfKjiAn4x_L8IIgrP1geF0PZ3L0-3RAs9nVj4tGn0GAcQ1boOUc83rYzf6hY30xf_JwFSVihHNU7ISf47bqPxdAmApCro9lA22n5Q13hGyVxewEyUvEwZB-lsICF3UMCmIZX7HymElSQYRLeqLhQclfjU0hNKM2Ssjml-BG5I9a8wJ_LorBpphHgl-DSY9UutSSPaLMrp0WXUHsUwH2iVHj0kitlkqw4-FR3srvATsuvSSn77T8FPX8_GM6-GfnkBjQC_oalFuK3IsCHc-BBJ_vflaLAuV6teWE1UzFSzltdYTi5o1m6zcE6Mw92xqPEz4uRWsUyKv1oudahK0gfPx76e47C8HIxUTJyMOL551lFza7UyUkX8xxwmbOCnlf8dOK6yanFhNtxZpn6bj50BINUoi8y1vXu94az9pj4j0I--fYe48vvJvcY6vFOI-ixVF5-95MKSvKgxCXV-YwgsaqOdvCZAbOmLzL31_eF4QQyj2GjpofzMa1KqQKEkPQZll", "width": 3264}], "place_id": "ChIJHyny2mFdQg0RrGaRyJf3vyA", "plus_code": {"compound_code": "7Q77+PX Carabaña, Spain", "global_code": "8CGR7Q77+PX"}, "rating": 4.5, "reference": "ChIJHyny2mFdQg0RrGaRyJf3vyA", "scope": "GOOGLE", "types": ["park", "point_of_interest", "establishment"], "user_ratings_total": 76, "vicinity": "Camino de los Pinos, Carabaña"}]