[{"business_status": "OPERATIONAL", "geometry": {"location": {"lat": 40.282505, "lng": -3.207688999999999}, "viewport": {"northeast": {"lat": 40.2838147802915, "lng": -3.206306469708498}, "southwest": {"lat": 40.28111681970851, "lng": -3.209004430291502}}}, "icon": "https://maps.gstatic.com/mapfiles/place_api/icons/v1/png_71/generic_business-71.png", "icon_background_color": "#7B9EB0", "icon_mask_base_uri": "https://maps.gstatic.com/mapfiles/place_api/icons/v2/generic_pinlet", "name": "Gran Vía-Estación de Servicio", "place_id": "ChIJN2ppgpddQg0RrvDXN5sCzvo", "plus_code": {"compound_code": "7QMR+2W Orusco de Tajuña, Spain", "global_code": "8CGR7QMR+2W"}, "rating": 4, "reference": "ChIJN2ppgpddQg0RrvDXN5sCzvo", "scope": "GOOGLE", "types": ["transit_station", "point_of_interest", "establishment"], "user_ratings_total": 2, "vicinity": "Spain"}, {"business_status": "OPERATIONAL", "geometry": {"location": {"lat": 40.28266139999999, "lng": -3.2069955}, "viewport": {"northeast": {"lat": 40.28403908029149, "lng": -3.205672419708498}, "southwest": {"lat": 40.28134111970849, "lng": -3.208370380291502}}}, "icon": "https://maps.gstatic.com/mapfiles/place_api/icons/v1/png_71/generic_business-71.png", "icon_background_color": "#7B9EB0", "icon_mask_base_uri": "https://maps.gstatic.com/mapfiles/place_api/icons/v2/generic_pinlet", "name": "Gran Vía-Estación de Servicio", "place_id": "ChIJIdQcn5ddQg0R5BYriS32KnM", "plus_code": {"compound_code": "7QMV+36 Orusco de Tajuña, Spain", "global_code": "8CGR7QMV+36"}, "reference": "ChIJIdQcn5ddQg0R5BYriS32KnM", "scope": "GOOGLE", "types": ["transit_station", "point_of_interest", "establishment"], "vicinity": "Spain"}, {"business_status": "OPERATIONAL", "geometry": {"location": {"lat": 40.29502, "lng": -3.199389999999999}, "viewport": {"northeast": {"lat": 40.2963317302915, "lng": -3.197997719708498}, "southwest": {"lat": 40.2936337697085, "lng": -3.200695680291502}}}, "icon": "https://maps.gstatic.com/mapfiles/place_api/icons/v1/png_71/generic_business-71.png", "icon_background_color": "#7B9EB0", "icon_mask_base_uri": "https://maps.gstatic.com/mapfiles/place_api/icons/v2/generic_pinlet", "name": "Ctra.M204-CºBellaescusa", "place_id": "ChIJu8wWIrhdQg0R2ce6cHg1htI", "plus_code": {"compound_code": "7RW2+26 Orusco de Tajuña, Spain", "global_code": "8CGR7RW2+26"}, "reference": "ChIJu8wWIrhdQg0R2ce6cHg1htI", "scope": "GOOGLE", "types": ["transit_station", "point_of_interest", "establishment"], "vicinity": "Spain"}, {"business_status": "OPERATIONAL", "geometry": {"location": {"lat": 40.2949905, "lng": -3.1991262}, "viewport": {"northeast": {"lat": 40.29635783029151, "lng": -3.197798519708498}, "southwest": {"lat": 40.29365986970851, "lng": -3.200496480291502}}}, "icon": "https://maps.gstatic.com/mapfiles/place_api/icons/v1/png_71/generic_business-71.png", "icon_background_color": "#7B9EB0", "icon_mask_base_uri": "https://maps.gstatic.com/mapfiles/place_api/icons/v2/generic_pinlet", "name": "Ctra.M204-CºBellaescusa", "place_id": "ChIJ9yQFGbhdQg0RUMwZXoOvHzU", "plus_code": {"compound_code": "7RV2+X8 Orusco de Tajuña, Spain", "global_code": "8CGR7RV2+X8"}, "reference": "ChIJ9yQFGbhdQg0RUMwZXoOvHzU", "scope": "GOOGLE", "types": ["transit_station", "point_of_interest", "establishment"], "vicinity": "Spain"}, {"business_status": "OPERATIONAL", "geometry": {"location": {"lat": 40.2708969, "lng": -3.2235317}, "viewport": {"northeast": {"lat": 40.27224008029149, "lng": -3.222121069708498}, "southwest": {"lat": 40.26954211970849, "lng": -3.224819030291502}}}, "icon": "https://maps.gstatic.com/mapfiles/place_api/icons/v1/png_71/generic_business-71.png", "icon_background_color": "#7B9EB0", "icon_mask_base_uri": "https://maps.gstatic.com/mapfiles/place_api/icons/v2/generic_pinlet", "name": "Ctra.M204-Casas Las Laderas", "place_id": "ChIJharo23tdQg0R8C6MZv9cPEE", "plus_code": {"compound_code": "7QCG+9H Orusco de Tajuña, Spain", "global_code": "8CGR7QCG+9H"}, "reference": "ChIJharo23tdQg0R8C6MZv9cPEE", "scope": "GOOGLE", "types": ["transit_station", "point_of_interest", "establishment"], "vicinity": "Spain"}, {"business_status": "OPERATIONAL", "geometry": {"location": {"lat": 40.2696724, "lng": -3.2236571}, "viewport": {"northeast": {"lat": 40.2710373802915, "lng": -3.222344769708498}, "southwest": {"lat": 40.2683394197085, "lng": -3.225042730291502}}}, "icon": "https://maps.gstatic.com/mapfiles/place_api/icons/v1/png_71/generic_business-71.png", "icon_background_color": "#7B9EB0", "icon_mask_base_uri": "https://maps.gstatic.com/mapfiles/place_api/icons/v2/generic_pinlet", "name": "Ctra.M204-Casas Las Laderas", "place_id": "ChIJDQ1N-ntdQg0Ro_T4G20LYm8", "plus_code": {"compound_code": "7Q9G+VG Orusco de Tajuña, Spain", "global_code": "8CGR7Q9G+VG"}, "reference": "ChIJDQ1N-ntdQg0Ro_T4G20LYm8", "scope": "GOOGLE", "types": ["transit_station", "point_of_interest", "establishment"], "vicinity": "Spain"}, {"business_status": "OPERATIONAL", "geometry": {"location": {"lat": 40.26090619999999, "lng": -3.2294259}, "viewport": {"northeast": {"lat": 40.26226163029149, "lng": -3.228131669708498}, "southwest": {"lat": 40.25956366970849, "lng": -3.230829630291502}}}, "icon": "https://maps.gstatic.com/mapfiles/place_api/icons/v1/png_71/generic_business-71.png", "icon_background_color": "#7B9EB0", "icon_mask_base_uri": "https://maps.gstatic.com/mapfiles/place_api/icons/v2/generic_pinlet", "name": "Av.Tielmes-CºValhondo", "place_id": "ChIJ2yEwjYhnQg0RcusXKEgivXA", "plus_code": {"compound_code": "7Q6C+96 Carabaña, Spain", "global_code": "8CGR7Q6C+96"}, "reference": "ChIJ2yEwjYhnQg0RcusXKEgivXA", "scope": "GOOGLE", "types": ["transit_station", "point_of_interest", "establishment"], "vicinity": "Spain"}, {"business_status": "OPERATIONAL", "geometry": {"location": {"lat": 40.260788, "lng": -3.2296371}, "viewport": {"northeast": {"lat": 40.2621331802915, "lng": -3.228255419708498}, "southwest": {"lat": 40.2594352197085, "lng": -3.230953380291501}}}, "icon": "https://maps.gstatic.com/mapfiles/place_api/icons/v1/png_71/generic_business-71.png", "icon_background_color": "#7B9EB0", "icon_mask_base_uri": "https://maps.gstatic.com/mapfiles/place_api/icons/v2/generic_pinlet", "name": "Av.Tielmes-CºValhondo", "place_id": "ChIJE8148ohnQg0Ralbbb0s4i4k", "plus_code": {"compound_code": "7Q6C+84 Carabaña, Spain", "global_code": "8CGR7Q6C+84"}, "reference": "ChIJE8148ohnQg0Ralbbb0s4i4k", "scope": "GOOGLE", "types": ["transit_station", "point_of_interest", "establishment"], "vicinity": "Spain"}, {"business_status": "OPERATIONAL", "geometry": {"location": {"lat": 40.2582932, "lng": -3.2327332}, "viewport": {"northeast": {"lat": 40.2596564802915, "lng": -3.231402819708498}, "southwest": {"lat": 40.2569585197085, "lng": -3.234100780291501}}}, "icon": "https://maps.gstatic.com/mapfiles/place_api/icons/v1/png_71/generic_business-71.png", "icon_background_color": "#7B9EB0", "icon_mask_base_uri": "https://maps.gstatic.com/mapfiles/place_api/icons/v2/generic_pinlet", "name": "Av.Tielmes-Piscinas", "place_id": "ChIJ55hQro5nQg0RkNv3DKVgRJw", "plus_code": {"compound_code": "7Q58+8W Carabaña, Spain", "global_code": "8CGR7Q58+8W"}, "reference": "ChIJ55hQro5nQg0RkNv3DKVgRJw", "scope": "GOOGLE", "types": ["transit_station", "point_of_interest", "establishment"], "vicinity": "Spain"}, {"business_status": "OPERATIONAL", "geometry": {"location": {"lat": 40.2579966, "lng": -3.2332684}, "viewport": {"northeast": {"lat": 40.2593393802915, "lng": -3.231910019708498}, "southwest": {"lat": 40.25664141970851, "lng": -3.234607980291502}}}, "icon": "https://maps.gstatic.com/mapfiles/place_api/icons/v1/png_71/generic_business-71.png", "icon_background_color": "#7B9EB0", "icon_mask_base_uri": "https://maps.gstatic.com/mapfiles/place_api/icons/v2/generic_pinlet", "name": "Av.Tielmes-Piscinas", "place_id": "ChIJI7Php45nQg0R9ib2mJCz4nU", "plus_code": {"compound_code": "7Q58+5M Carabaña, Spain", "global_code": "8CGR7Q58+5M"}, "rating": 4, "reference": "ChIJI7Php45nQg0R9ib2mJCz4nU", "scope": "GOOGLE", "types": ["transit_station", "point_of_interest", "establishment"], "user_ratings_total": 1, "vicinity": "Spain"}, {"business_status": "OPERATIONAL", "geometry": {"location": {"lat": 40.25619129999999, "lng": -3.2348075}, "viewport": {"northeast": {"lat": 40.25755853029149, "lng": -3.233515069708498}, "southwest": {"lat": 40.2548605697085, "lng": -3.236213030291502}}}, "icon": "https://maps.gstatic.com/mapfiles/place_api/icons/v1/png_71/generic_business-71.png", "icon_background_color": "#7B9EB0", "icon_mask_base_uri": "https://maps.gstatic.com/mapfiles/place_api/icons/v2/generic_pinlet", "name": "Av.Tielmes-Quiosco", "place_id": "ChIJv_BmS4xnQg0R4OF_k5b4tBk", "plus_code": {"compound_code": "7Q48+F3 Carabaña, Spain", "global_code": "8CGR7Q48+F3"}, "rating": 5, "reference": "ChIJv_BmS4xnQg0R4OF_k5b4tBk", "scope": "GOOGLE", "types": ["transit_station", "point_of_interest", "establishment"], "user_ratings_total": 1, "vicinity": "Spain"}, {"business_status": "OPERATIONAL", "geometry": {"location": {"lat": 40.2561736, "lng": -3.2349678}, "viewport": {"northeast": {"lat": 40.2575309302915, "lng": -3.233643269708498}, "southwest": {"lat": 40.2548329697085, "lng": -3.236341230291502}}}, "icon": "https://maps.gstatic.com/mapfiles/place_api/icons/v1/png_71/generic_business-71.png", "icon_background_color": "#7B9EB0", "icon_mask_base_uri": "https://maps.gstatic.com/mapfiles/place_api/icons/v2/generic_pinlet", "name": "Av.Tielmes-Estación de Servicio", "place_id": "ChIJQVmrTYxnQg0RQyX4LfrLwiY", "plus_code": {"compound_code": "7Q48+F2 Carabaña, Spain", "global_code": "8CGR7Q48+F2"}, "rating": 4.3, "reference": "ChIJQVmrTYxnQg0RQyX4LfrLwiY", "scope": "GOOGLE", "types": ["transit_station", "point_of_interest", "establishment"], "user_ratings_total": 3, "vicinity": "Spain"}, {"business_status": "OPERATIONAL", "geometry": {"location": {"lat": 40.2535782, "lng": -3.2353511}, "viewport": {"northeast": {"lat": 40.2549235302915, "lng": -3.234056319708498}, "southwest": {"lat": 40.2522255697085, "lng": -3.236754280291501}}}, "icon": "https://maps.gstatic.com/mapfiles/place_api/icons/v1/png_71/generic_business-71.png", "icon_background_color": "#7B9EB0", "icon_mask_base_uri": "https://maps.gstatic.com/mapfiles/place_api/icons/v2/generic_pinlet", "name": "Av.Tielmes-Santa Lucía", "photos": [{"height": 3000, "html_attributions": ["<a href=\"https://maps.google.com/maps/contrib/114774698051879566955\">Marcela Corea</a>"], "photo_reference": "AWn5SU5wySgm_mnCAQD8IGLHPsxSCqGqWG5AdPN9X9OLmY-lRPTB30uiXkMHRyQaGRZczN4a2h6bsLvopGELnmWhVXtnQeFtv29Rd_Ufy4GpA7HizMt14nbxC0qlk_yIYALDzqL0AWgxr8r_VNYiqZwc4NUp2A_nQckNBcPrbQbaCOmpc1CCrkQEFTz7_Sq7VnE74QyKS4V5OwAiOV1XK7AB9xSFvlp6cCsfOixh-wk7K1DXKSTAtsaOlPA2o3Cd7xaZnY98r2gbBVB79wozi6Z8gjMFObS0uP2XlMrNPbzLreh5LFqsXjAWADarkCIZaXmEQ_Ms7kD37u1mGXnRWrJQ6hf_KsYCfEJ7imK56f-1pGjP65lt5dYFhllpmYJDYhwYiP4HqvxiDnVtylyF293b8qKi62-IXJQeSnatxCR9g491NCQ-oRluSecoN-humOqUgqkC75iXN_8qnuvVXLqmu1Vh6HnaXRX2-l9MAHZdud0DZ3qGDsMdldkWo7_fZD3SMTjlv1SKzW805JsOWkwU6zinYUKpyl-7SNlwz-aQpnFByVRSmupDTKrVCpjC2SzeWBlrnpLAp-ruZoWdM0h1q5WCGinIlFYjJDIAaZvKcB1FmTs_G6VQ7K8HvMp5LwYhh3hBJdHoQAJMfUioKwHheZoG8wU", "width": 4000}], "place_id": "ChIJt3SieJJnQg0RxlmuL6LaLOo", "plus_code": {"compound_code": "7Q37+CV Carabaña, Spain", "global_code": "8CGR7Q37+CV"}, "rating": 5, "reference": "ChIJt3SieJJnQg0RxlmuL6LaLOo", "scope": "GOOGLE", "types": ["transit_station", "point_of_interest", "establishment"], "user_ratings_total": 1, "vicinity": "Spain"}, {"business_status": "OPERATIONAL", "geometry": {"location": {"lat": 40.2532425, "lng": -3.2355733}, "viewport": {"northeast": {"lat": 40.25462453029149, "lng": -3.234228819708498}, "southwest": {"lat": 40.25192656970849, "lng": -3.236926780291502}}}, "icon": "https://maps.gstatic.com/mapfiles/place_api/icons/v1/png_71/generic_business-71.png", "icon_background_color": "#7B9EB0", "icon_mask_base_uri": "https://maps.gstatic.com/mapfiles/place_api/icons/v2/generic_pinlet", "name": "Av.Tielmes-Santa Lucía", "place_id": "ChIJV7stfJJnQg0RplgBsYzHJrQ", "plus_code": {"compound_code": "7Q37+7Q Carabaña, Spain", "global_code": "8CGR7Q37+7Q"}, "rating": 5, "reference": "ChIJV7stfJJnQg0RplgBsYzHJrQ", "scope": "GOOGLE", "types": ["transit_station", "point_of_interest", "establishment"], "user_ratings_total": 1, "vicinity": "Spain"}, {"business_status": "OPERATIONAL", "geometry": {"location": {"lat": 40.3208084, "lng": -3.1895151}, "viewport": {"northeast": {"lat": 40.3221803302915, "lng": -3.188195319708498}, "southwest": {"lat": 40.3194823697085, "lng": -3.190893280291502}}}, "icon": "https://maps.gstatic.com/mapfiles/place_api/icons/v1/png_71/generic_business-71.png", "icon_background_color": "#7B9EB0", "icon_mask_base_uri": "https://maps.gstatic.com/mapfiles/place_api/icons/v2/generic_pinlet", "name": "Ctra.M215-Comunidad Terapéutica", "place_id": "ChIJiQC_ZjtcQg0RKT_APcqTJNs", "plus_code": {"compound_code": "8RC6+85 Ambite, Spain", "global_code": "8CGR8RC6+85"}, "rating": 5, "reference": "ChIJiQC_ZjtcQg0RKT_APcqTJNs", "scope": "GOOGLE", "types": ["transit_station", "point_of_interest", "establishment"], "user_ratings_total": 2, "vicinity": "Spain"}, {"business_status": "OPERATIONAL", "geometry": {"location": {"lat": 40.3209877, "lng": -3.1895156}, "viewport": {"northeast": {"lat": 40.3223134302915, "lng": -3.188136969708498}, "southwest": {"lat": 40.3196154697085, "lng": -3.190834930291502}}}, "icon": "https://maps.gstatic.com/mapfiles/place_api/icons/v1/png_71/generic_business-71.png", "icon_background_color": "#7B9EB0", "icon_mask_base_uri": "https://maps.gstatic.com/mapfiles/place_api/icons/v2/generic_pinlet", "name": "CTRA.M215- Campus Moragete Ambite", "photos": [{"height": 768, "html_attributions": ["<a href=\"https://maps.google.com/maps/contrib/117012818055994401638\">J.luis Folgado</a>"], "photo_reference": "AWn5SU51vUPuNde6UwTxzHJ1jcCjDIkanjYOxvHwIBVKZ-99a_4RpUEElRiIu5vuru2dtFLR060KvAqoHIfxo-9NL0jP6zRyI5T39fkIqYZtyGLwNDGREOqNb4aH9lXZGGDxidqeVl46Io5PA0WHaqBIRZCJIr0VeFQIUzL-KFuAzbQeBE35K7o2Ma3xk1dFoaP-jN4MlKLBIYOF6KknXhmKeaVUh0IsA6gxUyaI5Of3P5KTYommVbxekoTGpC1rpi3YtfCL7mnj22LqPgrpKuAalqNIuuP1q-W9_yqg0WiBMZkPFkNZwVuHAetOntBI3HHr9m1u-Qh4YTy0gzLUkDAtP5F-9s297IQfOWO7EJXMWt-CI8LTKU4LFeAHD5grukXD1q5fTsTBeOSveYalRjojz3GFgLw49WHYaudUw6q3DID1Sp0TnFuUOcTQwjTiOzzSzq902154DmM16Pf6KEB_VO52FXo3toTKLJcTXmSs68NjEVT8EU7MaBIRkcC4iKX8EUzx-_BfA1tAqUFNaM_-m4fP-nmvKiJ7X7-KTXeQDl9BhnRWcVQ6y_LGNqMGuNE9t4b9ImdqKmrK4RtaO40gSFlWry8ERJN4UMB4BKYov96gx11W0Lbl0a9-vjvx7qXFd6Ps3Y87", "width": 1024}], "place_id": "ChIJsQBtYTtcQg0R82fxsO-1tcs", "plus_code": {"compound_code": "8RC6+95 Ambite, Spain", "global_code": "8CGR8RC6+95"}, "rating": 5, "reference": "ChIJsQBtYTtcQg0R82fxsO-1tcs", "scope": "GOOGLE", "types": ["transit_station", "point_of_interest", "establishment"], "user_ratings_total": 1, "vicinity": "Spain"}, {"business_status": "OPERATIONAL", "geometry": {"location": {"lat": 40.24776, "lng": -3.24128}, "viewport": {"northeast": {"lat": 40.2491118302915, "lng": -3.239933269708498}, "southwest": {"lat": 40.2464138697085, "lng": -3.242631230291502}}}, "icon": "https://maps.gstatic.com/mapfiles/place_api/icons/v1/png_71/generic_business-71.png", "icon_background_color": "#7B9EB0", "icon_mask_base_uri": "https://maps.gstatic.com/mapfiles/place_api/icons/v2/generic_pinlet", "name": "Ctra.M204-Casa de la Luz", "place_id": "ChIJ7_rCketnQg0R_l2VFhvvghY", "plus_code": {"compound_code": "6QX5+4F Carabaña, Spain", "global_code": "8CGR6QX5+4F"}, "rating": 5, "reference": "ChIJ7_rCketnQg0R_l2VFhvvghY", "scope": "GOOGLE", "types": ["transit_station", "point_of_interest", "establishment"], "user_ratings_total": 1, "vicinity": "Spain"}, {"business_status": "OPERATIONAL", "geometry": {"location": {"lat": 40.24767, "lng": -3.24173}, "viewport": {"northeast": {"lat": 40.24901893029149, "lng": -3.240382169708499}, "southwest": {"lat": 40.2463209697085, "lng": -3.243080130291502}}}, "icon": "https://maps.gstatic.com/mapfiles/place_api/icons/v1/png_71/generic_business-71.png", "icon_background_color": "#7B9EB0", "icon_mask_base_uri": "https://maps.gstatic.com/mapfiles/place_api/icons/v2/generic_pinlet", "name": "Ctra.M204-Casilla de la Luz", "place_id": "ChIJ94Jij-tnQg0R3ZjtS1sGlI4", "plus_code": {"compound_code": "6QX5+38 Carabaña, Spain", "global_code": "8CGR6QX5+38"}, "reference": "ChIJ94Jij-tnQg0R3ZjtS1sGlI4", "scope": "GOOGLE", "types": ["transit_station", "point_of_interest", "establishment"], "vicinity": "Spain"}, {"business_status": "OPERATIONAL", "geometry": {"location": {"lat": 40.32658389999999, "lng": -3.1837163}, "viewport": {"northeast": {"lat": 40.3279108302915, "lng": -3.182392469708498}, "southwest": {"lat": 40.3252128697085, "lng": -3.185090430291502}}}, "icon": "https://maps.gstatic.com/mapfiles/place_api/icons/v1/png_71/generic_business-71.png", "icon_background_color": "#7B9EB0", "icon_mask_base_uri": "https://maps.gstatic.com/mapfiles/place_api/icons/v2/generic_pinlet", "name": "Av.Madrid-Virgen del Rosario", "place_id": "ChIJIye3pxhcQg0RBSWAs70-q90", "plus_code": {"compound_code": "8RG8+JG Ambite, Spain", "global_code": "8CGR8RG8+JG"}, "reference": "ChIJIye3pxhcQg0RBSWAs70-q90", "scope": "GOOGLE", "types": ["transit_station", "point_of_interest", "establishment"], "vicinity": "Spain"}, {"business_status": "OPERATIONAL", "geometry": {"location": {"lat": 40.3266296, "lng": -3.1834927}, "viewport": {"northeast": {"lat": 40.32797278029149, "lng": -3.182134869708498}, "southwest": {"lat": 40.3252748197085, "lng": -3.184832830291501}}}, "icon": "https://maps.gstatic.com/mapfiles/place_api/icons/v1/png_71/generic_business-71.png", "icon_background_color": "#7B9EB0", "icon_mask_base_uri": "https://maps.gstatic.com/mapfiles/place_api/icons/v2/generic_pinlet", "name": "Av.Madrid-San Isidro", "place_id": "ChIJc5b9qBhcQg0RjcKnMXdd8WM", "plus_code": {"compound_code": "8RG8+MJ Ambite, Spain", "global_code": "8CGR8RG8+MJ"}, "rating": 5, "reference": "ChIJc5b9qBhcQg0RjcKnMXdd8WM", "scope": "GOOGLE", "types": ["transit_station", "point_of_interest", "establishment"], "user_ratings_total": 1, "vicinity": "Spain"}]