[{"business_status": "OPERATIONAL", "geometry": {"location": {"lat": 41.08636630000001, "lng": -3.6237151}, "viewport": {"northeast": {"lat": 41.08770373029149, "lng": -3.622370969708498}, "southwest": {"lat": 41.08500576970849, "lng": -3.625068930291502}}}, "icon": "https://maps.gstatic.com/mapfiles/place_api/icons/v1/png_71/generic_business-71.png", "icon_background_color": "#7B9EB0", "icon_mask_base_uri": "https://maps.gstatic.com/mapfiles/place_api/icons/v2/generic_pinlet", "name": "Acebeda - Calle del Puerto 10", "photos": [{"height": 4000, "html_attributions": ["<a href=\"https://maps.google.com/maps/contrib/101846558503365605759\">DIEGO RAMOS</a>"], "photo_reference": "AWn5SU7ptrpYvMd9ksR1N82WV13WynYascCHOmg6RDjz9q3GcpE4OzAIHXcmf9B12lCnqI5gsp_X2DQaHfBwrxwmbtf9UUs7DXmNN5WWcpb_ygWbJHOy4Tgc8VZVAQNQGh8sQqksPdv6ClgpHVGyYuDNv95UdUWMNeYYVZWXw-HK5eay_ugGFMXUf7Doe3VNYd3IAZVyGdjD46U2lXrQmfFtK35djeMcoC7z_1Ip5bnKCUOmEh4UyIMZLv94V7-Gog8qhdLN1_orEKf7vmxLo2wv5VxIjUXx9L6EgMcwKw8t4EhaE2msb3VvpUxBb2Dau1S67_V6RGGy5wadGiH2E9C_5YnvkXSMzGqZtvJDo77zZREqgjCn5M4rTw4pQmkYF7dJzNVfh8-04fhkP-jLZ8idR1a_2qUlD82l6L722nKRJSuGkdUi3ywsmh6aZZIiaq2Fd3ZfFj9cqj65XKJ7U6fnFFFSQl9RYzu11hSyepuhOqtWxMCV0pkyU2Nc1JfY_GVMAItsZk1MK5VEVLOnMUP1FJ-vkY8YAhoLHd-FwXKXJo-EqgOD2dOpCabzg2FM1AKPbAagsQcPkaU0k6lugYx7Y1PIPPQCqqGNkyAYG6eZSWbpHEgqC2Jk_ag7fQV3VpS9SV44BQ", "width": 3000}], "place_id": "ChIJ08IkUB77Qw0RmXsQX90xbvc", "plus_code": {"compound_code": "39PG+GG La Acebeda, Spain", "global_code": "8CHR39PG+GG"}, "reference": "ChIJ08IkUB77Qw0RmXsQX90xbvc", "scope": "GOOGLE", "types": ["transit_station", "point_of_interest", "establishment"], "vicinity": "Spain"}, {"business_status": "OPERATIONAL", "geometry": {"location": {"lat": 41.0843971, "lng": -3.615675399999999}, "viewport": {"northeast": {"lat": 41.08573648029149, "lng": -3.614330269708498}, "southwest": {"lat": 41.0830385197085, "lng": -3.617028230291502}}}, "icon": "https://maps.gstatic.com/mapfiles/place_api/icons/v1/png_71/generic_business-71.png", "icon_background_color": "#7B9EB0", "icon_mask_base_uri": "https://maps.gstatic.com/mapfiles/place_api/icons/v2/generic_pinlet", "name": "Acebeda (La)", "place_id": "ChIJ9wKjQ-f6Qw0RsXjBxMvRh4k", "plus_code": {"compound_code": "39MM+QP La Acebeda, Spain", "global_code": "8CHR39MM+QP"}, "reference": "ChIJ9wKjQ-f6Qw0RsXjBxMvRh4k", "scope": "GOOGLE", "types": ["transit_station", "point_of_interest", "establishment"], "vicinity": "Spain"}, {"business_status": "OPERATIONAL", "geometry": {"location": {"lat": 41.0843472, "lng": -3.6155763}, "viewport": {"northeast": {"lat": 41.08571128029151, "lng": -3.614221169708498}, "southwest": {"lat": 41.08301331970851, "lng": -3.616919130291502}}}, "icon": "https://maps.gstatic.com/mapfiles/place_api/icons/v1/png_71/generic_business-71.png", "icon_background_color": "#7B9EB0", "icon_mask_base_uri": "https://maps.gstatic.com/mapfiles/place_api/icons/v2/generic_pinlet", "name": "La Acebeda - Paraje de Royuelo", "place_id": "ChIJBy36Quf6Qw0Ru9Nu89G1jIU", "plus_code": {"compound_code": "39MM+PQ La Acebeda, Spain", "global_code": "8CHR39MM+PQ"}, "reference": "ChIJBy36Quf6Qw0Ru9Nu89G1jIU", "scope": "GOOGLE", "types": ["transit_station", "point_of_interest", "establishment"], "vicinity": "Spain"}, {"business_status": "OPERATIONAL", "geometry": {"location": {"lat": 41.084365, "lng": -3.615540699999999}, "viewport": {"northeast": {"lat": 41.0857052802915, "lng": -3.614195269708497}, "southwest": {"lat": 41.0830073197085, "lng": -3.616893230291502}}}, "icon": "https://maps.gstatic.com/mapfiles/place_api/icons/v1/png_71/generic_business-71.png", "icon_background_color": "#7B9EB0", "icon_mask_base_uri": "https://maps.gstatic.com/mapfiles/place_api/icons/v2/generic_pinlet", "name": "Acebeda - M639 Paraje Royuelo", "place_id": "ChIJ9b31Quf6Qw0R-O0GRenCzdA", "plus_code": {"compound_code": "39MM+PQ La Acebeda, Spain", "global_code": "8CHR39MM+PQ"}, "reference": "ChIJ9b31Quf6Qw0R-O0GRenCzdA", "scope": "GOOGLE", "types": ["transit_station", "point_of_interest", "establishment"], "vicinity": "Spain"}]