[{"geometry": {"location": {"lat": 40.8114262, "lng": -3.7657848}, "viewport": {"northeast": {"lat": 40.82289265764427, "lng": -3.745939558715577}, "southwest": {"lat": 40.79829479791759, "lng": -3.788732450878309}}}, "icon": "https://maps.gstatic.com/mapfiles/place_api/icons/v1/png_71/geocode-71.png", "icon_background_color": "#7B9EB0", "icon_mask_base_uri": "https://maps.gstatic.com/mapfiles/place_api/icons/v2/generic_pinlet", "name": "Miraflores de la Sierra", "photos": [{"height": 3464, "html_attributions": ["<a href=\"https://maps.google.com/maps/contrib/112960422255849689386\">Agustin Fernandez Lucas</a>"], "photo_reference": "AWn5SU6xEFdiAQXfkel8zabCT7H5MR3Ipt6Hs1X3l806_zOesGYjmFd0qrfx-yoOXya1P5fNW9X7OaGzvZ952dsCkz8TgQNgcq5efXXrofxopcwCJBepQLbNcqci_TELioLAp4hkMmdaFtTIqtzEJ5TQ1zFOHw0YrFJSbP71ynYINkDE63zRQLCU_wQjEhRqMJ41GWNwhTa22XBWDs7X_wHewC0h7RBfNHdNk93SdEqNG2sObmWNBedB_-KuZscexz3GVM4MMO5EoE0Ku7oP4RtkHlTcvwRkJYnV3LgIHcr-jowoFEStcYqC3P_AdqhfgmH9hEos5UPoNts_Eh7CGlTdnJExM5BImpeqeIAoQNcI_ttIiKn9IAmsJLT69xFsOQeoeBDsOD7U8A5SnS1kEl2v0WU47UnkW3XjtTsoHvVe8oB3ndnedVRGGrEtJ0pHSH9cT5He_FX9auCJJFzCAuxqEIY6UnpHFZ9c4rqrW_q3p2BPr2LhQTL6kwQvUcYOYgsakh58vZSzPS0WUwvry0sym12tXFK9oJGwq-uD5AtsthffZlQ4DNxRSnoUIpi4uCAYsyBBFgNf9YMVzjb-GM0Z3ivIlz57Ig2VhLEWNxQdG1iNTmccgUlqlz08aEP6F6HruhtwIbor", "width": 4618}], "place_id": "ChIJ4QVKwSNiQQ0RM8ehdABAYfg", "reference": "ChIJ4QVKwSNiQQ0RM8ehdABAYfg", "scope": "GOOGLE", "types": ["locality", "political"], "vicinity": "Miraflores de la Sierra"}, {"business_status": "OPERATIONAL", "geometry": {"location": {"lat": 40.8576477, "lng": -3.7106866}, "viewport": {"northeast": {"lat": 40.8590130802915, "lng": -3.709317469708497}, "southwest": {"lat": 40.8563151197085, "lng": -3.712015430291502}}}, "icon": "https://maps.gstatic.com/mapfiles/place_api/icons/v1/png_71/generic_business-71.png", "icon_background_color": "#7B9EB0", "icon_mask_base_uri": "https://maps.gstatic.com/mapfiles/place_api/icons/v2/generic_pinlet", "international_phone_number": "+34 918 48 20 19", "name": "Alfer Gestión", "opening_hours": {"open_now": false}, "photos": [{"height": 1080, "html_attributions": ["<a href=\"https://maps.google.com/maps/contrib/108923877901860821581\">Alfer Gestión</a>"], "photo_reference": "AWn5SU5TZTkG8bZo5FmAnN8gVY164vlXaIMZrZqkmtpikr7q4QIKaa_klQ0oUjbubHz2YgY40d9MkI4OBPy0ITjEDzMYz9mVrNwAJWVLk6ohhQAVdtd7EOoiwLtl5AQ5dZFnfWhBdVxymte4rvbh9l3Woy2k5oTP1Bl7kmz9ZHI8F2o3AeNyKm-hwh1wcxXS4zApxcCtUKwSyA7d_0ypRfoBkrP13K7yK4jwPMdIMv4ctUEFLebOEYU2tq8czCavhcYIJQVzRhtF3Gcp3NIMf-yEJQVg1MkskI52XrtWFKjkGOs34fgaYOLoBBvEsz7bcufvKicocxemNmk", "width": 1920}], "place_id": "ChIJLQ2vbgffQw0Rl8tWxfQDtIg", "plus_code": {"compound_code": "V75Q+3P Bustarviejo, Spain", "global_code": "8CGRV75Q+3P"}, "rating": 4.4, "reference": "ChIJLQ2vbgffQw0Rl8tWxfQDtIg", "scope": "GOOGLE", "types": ["finance", "point_of_interest", "establishment"], "user_ratings_total": 16, "vicinity": "Calle del Cerrillo, 8, Bustarviejo"}, {"business_status": "OPERATIONAL", "geometry": {"location": {"lat": 40.8584501, "lng": -3.7046349}, "viewport": {"northeast": {"lat": 40.8598164302915, "lng": -3.703357719708497}, "southwest": {"lat": 40.85711846970851, "lng": -3.706055680291501}}}, "icon": "https://maps.gstatic.com/mapfiles/place_api/icons/v1/png_71/generic_business-71.png", "icon_background_color": "#7B9EB0", "icon_mask_base_uri": "https://maps.gstatic.com/mapfiles/place_api/icons/v2/generic_pinlet", "international_phone_number": "+34 660 84 06 62", "name": "apitecnic.com", "photos": [{"height": 449, "html_attributions": ["<a href=\"https://maps.google.com/maps/contrib/108979025022864916262\">Alberto Castro Sotos.</a>"], "photo_reference": "AWn5SU6_hENANWVWqsqyNNlNNnvVpjSqnKgOfb0Rq6o4ky5fRQ3YEEmplJBUaSgaVeiqXj0TrBZiCrptZE0cjnfF6OOR4pQCq_s9RIf6dII7Cc53JpnTkf5appLZE-YmXHurwWK8Izk3jzNaPeTTMTImqMaBGSaIyhXTnV_YOKanK4k-98ZgC8t4f7I6Q-Cf0TZOqugIumnSRrK3VUX_TLVxV3F8tpfBQfSITq1sfiJaw7jYRgno6p4cx232MdHq9LPP9sCP31FyhvsPogVfYfRCpGwMRFa0KBDOly6RiH-Z0zJ3XBWBND75qu8mALHBD7xGT6GOuDjCFd1eajyWaAa3ipZK1eb4YB789Btw-SfiEbmIgiZZAP7pH3VQxCHXsSwIp1-wtgaY2gxSjcjHoxFbfKhODDbyDs4n2Md2m6IreRnQXCub007jy0THO8WumUToT0qOSsJpMnQ-MWWIvP3DqA09nl8Ez1zi9Vz_UrlO_tts7qAWL9MYKR1IWu2QPtp8sV7YJtVPKhSaGpjZ0wZZxsS_Q7Dy87Ve54F4HvO7BT8Wzszmeh6ytOGxGi95w38YF5mnz8vpd3tYVMt3bTAyqnQ8ls1Ttcz1Iaq5poZ6aYNHGQINAq23Tc5c0rh3vrbt1Lk2kuXV-wXCQ9erOQv-BA", "width": 688}], "place_id": "ChIJ4SqYH2PeQw0RWHRiGptaLJk", "plus_code": {"compound_code": "V75W+94 Bustarviejo, Spain", "global_code": "8CGRV75W+94"}, "reference": "ChIJ4SqYH2PeQw0RWHRiGptaLJk", "scope": "GOOGLE", "types": ["point_of_interest", "establishment"], "vicinity": "Calle de Maruste, 18, Bustarviejo"}, {"business_status": "OPERATIONAL", "geometry": {"location": {"lat": 40.85921079999999, "lng": -3.7064236}, "viewport": {"northeast": {"lat": 40.8605465302915, "lng": -3.705070069708498}, "southwest": {"lat": 40.8578485697085, "lng": -3.707768030291502}}}, "icon": "https://maps.gstatic.com/mapfiles/place_api/icons/v1/png_71/civic_building-71.png", "icon_background_color": "#7B9EB0", "icon_mask_base_uri": "https://maps.gstatic.com/mapfiles/place_api/icons/v2/civic-bldg_pinlet", "international_phone_number": "+34 918 48 29 45", "name": "Oficina de Correos", "opening_hours": {"open_now": false}, "photos": [{"height": 900, "html_attributions": ["<a href=\"https://maps.google.com/maps/contrib/115227705259717840606\">Oficina de Correos</a>"], "photo_reference": "AWn5SU6wiu7Qd9cXg-UY_LhZDVdMh8r_dnX-sEKicn7UF7tEAmJUKuPZjjYGaxOWNRAJJTivtDxuAVnH9R1ZjoviPQ8T1GvWw7uTYrtO3xZub90bRrFE3MDSo8qAmAn1WNOmR8kPS2DQE2T8sEMxIaf-hy15ItICzdIFUHnEB5Ha5I1XTJeFP2PqFyTJaJddLq5sA-ZRzV5P11zFVrjXG0lJ1_-Cm7ptbXGxgybu7j8JvVaSTWnkIAkniyN1Vwst4Dgs2C7FNj3CiPxtq3Jk6hivYyHBf5s8HgP1SzRucXiK2IYFGFjkQFdnEAJajY8fBw-AxGs8lf4LA0w", "width": 1600}], "place_id": "ChIJ3-MmC6rfQw0Ru6qqPzKPGJE", "plus_code": {"compound_code": "V75V+MC Bustarviejo, Spain", "global_code": "8CGRV75V+MC"}, "rating": 2.6, "reference": "ChIJ3-MmC6rfQw0Ru6qqPzKPGJE", "scope": "GOOGLE", "types": ["post_office", "finance", "point_of_interest", "establishment"], "user_ratings_total": 28, "vicinity": "Calle Real, 85, Bustarviejo"}, {"business_status": "OPERATIONAL", "geometry": {"location": {"lat": 40.8589884, "lng": -3.7075789}, "viewport": {"northeast": {"lat": 40.8602965802915, "lng": -3.706205269708498}, "southwest": {"lat": 40.8575986197085, "lng": -3.708903230291503}}}, "icon": "https://maps.gstatic.com/mapfiles/place_api/icons/v1/png_71/generic_business-71.png", "icon_background_color": "#13B5C7", "icon_mask_base_uri": "https://maps.gstatic.com/mapfiles/place_api/icons/v2/generic_pinlet", "international_phone_number": "+34 652 88 46 18", "name": "Teatro Percutor", "place_id": "ChIJqy0PqgDfQw0RSECxdPpQZzY", "plus_code": {"compound_code": "V75R+HX Bustarviejo, Spain", "global_code": "8CGRV75R+HX"}, "rating": 3.3, "reference": "ChIJqy0PqgDfQw0RSECxdPpQZzY", "scope": "GOOGLE", "types": ["point_of_interest", "establishment"], "user_ratings_total": 3, "vicinity": "Calle Real, 67, Bustarviejo"}, {"business_status": "OPERATIONAL", "geometry": {"location": {"lat": 40.8713858, "lng": -3.6624873}, "viewport": {"northeast": {"lat": 40.8727337802915, "lng": -3.661136119708498}, "southwest": {"lat": 40.8700358197085, "lng": -3.663834080291502}}}, "icon": "https://maps.gstatic.com/mapfiles/place_api/icons/v1/png_71/bar-71.png", "icon_background_color": "#FF9E67", "icon_mask_base_uri": "https://maps.gstatic.com/mapfiles/place_api/icons/v2/bar_pinlet", "international_phone_number": "+34 918 48 11 27", "name": "Café - Bar La Alegría", "opening_hours": {"open_now": true}, "photos": [{"height": 3024, "html_attributions": ["<a href=\"https://maps.google.com/maps/contrib/105306395039539449543\">Café - Bar La Alegría</a>"], "photo_reference": "AWn5SU4WdA4U1vnoMUp3ZKtuVJQTIxTmccMSBOBrqsuou4VN9d24vVgIr4EJFGBPROB-IXbcxuZYdsXeVASGeow1M9rdMLcLF349iETuencH9w6U0acl0JGSFa4klE67vDBhuaYazUC7HJeIhCcHaSb8N07a8s-6PkoGQum23rn-40PwHSILExJU7euOQCZ5p1LeCIOxFMVPNoZZV3WX3k5fUjpTttghIcgWcw0Vg-9DqiAX_rcjiXD0c0QFEfKEytAmZHUnSOIh2NjAgdVSTUP-vbvVscWerWxQ-q96zmGVCmROY0t1KIOA7jfa4besmhb89P7NxSZ2uqA", "width": 4032}], "place_id": "ChIJ8ZpT4nfeQw0RD-JzkpoPTmM", "plus_code": {"compound_code": "V8CQ+H2 Valdemanco, Spain", "global_code": "8CGRV8CQ+H2"}, "price_level": 1, "rating": 4.2, "reference": "ChIJ8ZpT4nfeQw0RD-JzkpoPTmM", "scope": "GOOGLE", "types": ["bar", "cafe", "store", "food", "point_of_interest", "establishment"], "user_ratings_total": 271, "vicinity": "Calle Arroyito, 1, Valdemanco"}, {"business_status": "OPERATIONAL", "geometry": {"location": {"lat": 40.858747, "lng": -3.7068368}, "viewport": {"northeast": {"lat": 40.8601107302915, "lng": -3.705503169708498}, "southwest": {"lat": 40.8574127697085, "lng": -3.708201130291503}}}, "icon": "https://maps.gstatic.com/mapfiles/place_api/icons/v1/png_71/generic_business-71.png", "icon_background_color": "#7B9EB0", "icon_mask_base_uri": "https://maps.gstatic.com/mapfiles/place_api/icons/v2/generic_pinlet", "international_phone_number": "+34 663 32 77 86", "name": "Limpiezas Bustar S L", "opening_hours": {"open_now": false}, "photos": [{"height": 540, "html_attributions": ["<a href=\"https://maps.google.com/maps/contrib/113208247255369710683\">Limpiezas Bustar S L</a>"], "photo_reference": "AWn5SU6cVGh7wJ1shFgNQzJtkg_uQqZOkuYnfcp2YPWHLO-CwZPMtaSywbs_bzpTwQWiIlYXjT36232H5ijic6yeOuvqlzexKrarQ2tZ9BwssU4YzZFwuR6J_9zz9eD3xXBbeO6Bb4NNKopk_e6rRAsSlZpD-J8nHu9mhfKPBV8C3sKibQVfLj06oZVg0EwAfuPltA7UGRVyxWHqJrWpfAxgCjG2aGGC_zGNry3t5uGcrG2163N7qF-5YhSOvkxF_G1gPBwMP7DiVpkKd-5rhQTY7vF1GUX4J5_5To5CIi721H3Yq4WIrDn9z7xD5k4rIKG5dzGl24ODlQI", "width": 720}], "place_id": "ChIJwa37TAffQw0RdQrpZd8qZfc", "plus_code": {"compound_code": "V75V+F7 Bustarviejo, Spain", "global_code": "8CGRV75V+F7"}, "rating": 4.6, "reference": "ChIJwa37TAffQw0RdQrpZd8qZfc", "scope": "GOOGLE", "types": ["point_of_interest", "establishment"], "user_ratings_total": 20, "vicinity": "Calle Mayor, 112, Bustarviejo"}, {"business_status": "OPERATIONAL", "geometry": {"location": {"lat": 40.8582129, "lng": -3.712914599999999}, "viewport": {"northeast": {"lat": 40.8595645302915, "lng": -3.711568569708497}, "southwest": {"lat": 40.8568665697085, "lng": -3.714266530291502}}}, "icon": "https://maps.gstatic.com/mapfiles/place_api/icons/v1/png_71/generic_business-71.png", "icon_background_color": "#7B9EB0", "icon_mask_base_uri": "https://maps.gstatic.com/mapfiles/place_api/icons/v2/generic_pinlet", "international_phone_number": "+34 649 41 17 48", "name": "INGARPE", "place_id": "ChIJ8zTQBwjfQw0RJ4YU1o1ROfY", "plus_code": {"compound_code": "V75P+7R Bustarviejo, Spain", "global_code": "8CGRV75P+7R"}, "rating": 5, "reference": "ChIJ8zTQBwjfQw0RJ4YU1o1ROfY", "scope": "GOOGLE", "types": ["point_of_interest", "establishment"], "user_ratings_total": 1, "vicinity": "Calle de Peña Culebras, 6, Bustarviejo"}, {"business_status": "OPERATIONAL", "geometry": {"location": {"lat": 40.857211, "lng": -3.707575}, "viewport": {"northeast": {"lat": 40.85857473029151, "lng": -3.706215869708498}, "southwest": {"lat": 40.85587676970851, "lng": -3.708913830291503}}}, "icon": "https://maps.gstatic.com/mapfiles/place_api/icons/v1/png_71/generic_business-71.png", "icon_background_color": "#7B9EB0", "icon_mask_base_uri": "https://maps.gstatic.com/mapfiles/place_api/icons/v2/generic_pinlet", "international_phone_number": "+34 918 48 20 04", "name": "Parque infantil", "opening_hours": {"open_now": true}, "place_id": "ChIJfUbrzgDfQw0RPzx9GOTA4NY", "plus_code": {"compound_code": "V74R+VX Bustarviejo, Spain", "global_code": "8CGRV74R+VX"}, "rating": 3, "reference": "ChIJfUbrzgDfQw0RPzx9GOTA4NY", "scope": "GOOGLE", "types": ["point_of_interest", "establishment"], "user_ratings_total": 4, "vicinity": "Calle Madrid, s/n"}, {"business_status": "OPERATIONAL", "geometry": {"location": {"lat": 40.8572707, "lng": -3.7164586}, "viewport": {"northeast": {"lat": 40.8585722302915, "lng": -3.715125869708499}, "southwest": {"lat": 40.8558742697085, "lng": -3.717823830291503}}}, "icon": "https://maps.gstatic.com/mapfiles/place_api/icons/v1/png_71/generic_business-71.png", "icon_background_color": "#7B9EB0", "icon_mask_base_uri": "https://maps.gstatic.com/mapfiles/place_api/icons/v2/generic_pinlet", "international_phone_number": "+34 617 41 89 58", "name": "Diego Rey Rodríguez", "place_id": "ChIJ_Y5FvwnfQw0RARXNofUvR70", "plus_code": {"compound_code": "V74M+WC Bustarviejo, Spain", "global_code": "8CGRV74M+WC"}, "rating": 4.2, "reference": "ChIJ_Y5FvwnfQw0RARXNofUvR70", "scope": "GOOGLE", "types": ["electrician", "point_of_interest", "establishment"], "user_ratings_total": 5, "vicinity": "Lugar Arroyo Flores, 10, Bustarviejo"}, {"business_status": "OPERATIONAL", "geometry": {"location": {"lat": 40.85753889999999, "lng": -3.7092308}, "viewport": {"northeast": {"lat": 40.8588758802915, "lng": -3.707877919708497}, "southwest": {"lat": 40.85617791970851, "lng": -3.710575880291502}}}, "icon": "https://maps.gstatic.com/mapfiles/place_api/icons/v1/png_71/generic_business-71.png", "icon_background_color": "#7B9EB0", "icon_mask_base_uri": "https://maps.gstatic.com/mapfiles/place_api/icons/v2/generic_pinlet", "international_phone_number": "+34 696 59 71 56", "name": "Apiterapia", "place_id": "ChIJAQAAQAffQw0RxX7XOnajalg", "plus_code": {"compound_code": "V75R+28 Bustarviejo, Spain", "global_code": "8CGRV75R+28"}, "reference": "ChIJAQAAQAffQw0RxX7XOnajalg", "scope": "GOOGLE", "types": ["health", "point_of_interest", "establishment"], "vicinity": "Calle Requebradero, 6, Bustarviejo"}, {"business_status": "OPERATIONAL", "geometry": {"location": {"lat": 40.8575524, "lng": -3.709154300000001}, "viewport": {"northeast": {"lat": 40.8588898802915, "lng": -3.707801619708498}, "southwest": {"lat": 40.8561919197085, "lng": -3.710499580291502}}}, "icon": "https://maps.gstatic.com/mapfiles/place_api/icons/v1/png_71/civic_building-71.png", "icon_background_color": "#7B9EB0", "icon_mask_base_uri": "https://maps.gstatic.com/mapfiles/place_api/icons/v2/civic-bldg_pinlet", "international_phone_number": "+34 687 51 08 22", "name": "Cosas de abejas", "opening_hours": {"open_now": false}, "photos": [{"height": 608, "html_attributions": ["<a href=\"https://maps.google.com/maps/contrib/114318805457702201645\">www.cosasdeabejas.es</a>"], "photo_reference": "AWn5SU62rOSPEbIAfXYDHE-rlcia1ImWgjDAYFmovCznbJOUKX9GK5_tL1HTDLfaBjYOVhGdcE30ObIXVUmknrnq_GWzKvJy3LNPn3DMdIz_6k9Ka3xaDekotoYbq3zK8eRzYoWbpIWnxzGiyFnsi4NBhdE3HWTipekHrSrg9fCX9-HIDsSTnBY8J_LA2TmHsJNKs39Y7sYgiQI5-sDdmfME-xoq5Ls7m89T2JOjfm88TYPf-gZxOmVilONdaOxRSwEOo9YYaKesQI3j6ie5XdS0G8ho9ZH6A9QOHr2Siux4aS4gFxE_XkdDp6Zi6egysydlpI_1BSJ4qyg", "width": 1080}], "place_id": "ChIJA0f-H5jbQw0R-JOeMY3pfHA", "plus_code": {"compound_code": "V75R+28 Bustarviejo, Spain", "global_code": "8CGRV75R+28"}, "rating": 5, "reference": "ChIJA0f-H5jbQw0R-JOeMY3pfHA", "scope": "GOOGLE", "types": ["food", "point_of_interest", "establishment"], "user_ratings_total": 56, "vicinity": "Calle Mayor, 30, Bustarviejo"}, {"business_status": "OPERATIONAL", "geometry": {"location": {"lat": 40.85836279999999, "lng": -3.710380199999999}, "viewport": {"northeast": {"lat": 40.8597124802915, "lng": -3.709047869708497}, "southwest": {"lat": 40.8570145197085, "lng": -3.711745830291501}}}, "icon": "https://maps.gstatic.com/mapfiles/place_api/icons/v1/png_71/shopping-71.png", "icon_background_color": "#4B96F3", "icon_mask_base_uri": "https://maps.gstatic.com/mapfiles/place_api/icons/v2/shopping_pinlet", "international_phone_number": "+34 676 60 76 21", "name": "Pescadería Canoa", "opening_hours": {"open_now": false}, "photos": [{"height": 2268, "html_attributions": ["<a href=\"https://maps.google.com/maps/contrib/116685882879737492622\">Pescadería Canoa</a>"], "photo_reference": "AWn5SU6xRNKyumvyIJLSGE2KQdBvNVZO2wJICKRSQkEZx5aF7vvtyOQjtFbGArm1k8ID8RTRiGOwP0B7ZI1rTAujaJYFis8cCMeAQ_yNu639Tt5KIVc_IuqqvbkWrQZlreMaO6oQMIuhby3ho6_VISMEOmm4qhV6GXHr1tKSxpBYXJoKbvbZFlTfaMPmZRShYEaXwySbCHck6wQHPYFSfkMfLLSaNHW3HqauEsHk-Rj4ZXEnBhptDkpJEoYVQv44S3M-DcI3sabzD84TTDO4HSd8b2aK2r_zvsGqWpdYGLhqF4gmZfA3wBGt0gpA1f06M3phy0XLqNH46Xg", "width": 4032}], "place_id": "ChIJMbD7eAffQw0Rm3VjmtgIK-U", "plus_code": {"compound_code": "V75Q+8R Bustarviejo, Spain", "global_code": "8CGRV75Q+8R"}, "rating": 4.5, "reference": "ChIJMbD7eAffQw0Rm3VjmtgIK-U", "scope": "GOOGLE", "types": ["store", "food", "point_of_interest", "establishment"], "user_ratings_total": 50, "vicinity": "Calle de la Lechuga, 12, Bustarviejo"}, {"business_status": "OPERATIONAL", "geometry": {"location": {"lat": 40.85807759999999, "lng": -3.7105076}, "viewport": {"northeast": {"lat": 40.8594309302915, "lng": -3.709160519708498}, "southwest": {"lat": 40.8567329697085, "lng": -3.711858480291502}}}, "icon": "https://maps.gstatic.com/mapfiles/place_api/icons/v1/png_71/shopping-71.png", "icon_background_color": "#4B96F3", "icon_mask_base_uri": "https://maps.gstatic.com/mapfiles/place_api/icons/v2/shoppingcart_pinlet", "international_phone_number": "+34 918 48 23 54", "name": "Supermercado Alcampo Bustarviejo", "opening_hours": {"open_now": false}, "photos": [{"height": 2988, "html_attributions": ["<a href=\"https://maps.google.com/maps/contrib/116612165120512023962\">felix jr 46</a>"], "photo_reference": "AWn5SU5Vg5h4iGCZQUrU4bCd0_37Ic6kBTBrVk4nxsvSQfmg8F0i29u0SshHLwFTXCMYeX0wMbqYwz2rqwg52AmGIbfJz79O9L_0a46znKEOc9QwumqHzdbz6JePdM1_63GVYN-KIwUI-9cyLdHYMAJ-FrijRN1DGP4xvJBSnLu2Sc_ErSSDdnqD99TskpujOcy9NbI7iDDszSY-PaTR0H2W_78nlU0yOG8xccqyr7dZBZVX4qtSQAOowm3duu3Y10-GM2ZSI_xOSsqjAxgk550kf7U1AJm0gqqF12S54ADt21oetabbXTLU9Pb4Je7XGpQlgI7JCL9wtabU2HJuyx64YKyAO_bwaQ0lj1jknY1GT0c84tk49ZiqutRxwcdLCHcM6JMZ98urId-cRlfwRt7yp5Mgx7K-i9SNQOT0Dk5WDpfLW80wZOoEnzs264NZAFJMcR7Q90wduRKc8Psc6bumFWA8v2rbWFuy1C0iBs0bKN3gCilj5Lx__tq1wQoUSELyi4zRmLpXEunW_n8-V3Pbb5r7Uq1T9v1YIcQLVHVIzh-5vilDokaSqVpSM4f5tMop_OkdkCgy6EzHWBshfunliwE3-fUVbBcrx47DnRDx7R_6OFg4r5mDgIk8cJYQNn0L0SfRyA", "width": 5312}], "place_id": "ChIJI9-cdwffQw0RCsCp-voaA_c", "plus_code": {"compound_code": "V75Q+6Q Bustarviejo, Spain", "global_code": "8CGRV75Q+6Q"}, "rating": 4.4, "reference": "ChIJI9-cdwffQw0RCsCp-voaA_c", "scope": "GOOGLE", "types": ["supermarket", "meal_delivery", "grocery_or_supermarket", "store", "food", "point_of_interest", "establishment"], "user_ratings_total": 116, "vicinity": "Calle Real, 13, Bustarviejo"}, {"business_status": "OPERATIONAL", "geometry": {"location": {"lat": 40.8572468, "lng": -3.7095585}, "viewport": {"northeast": {"lat": 40.8586302302915, "lng": -3.708230969708497}, "southwest": {"lat": 40.8559322697085, "lng": -3.710928930291502}}}, "icon": "https://maps.gstatic.com/mapfiles/place_api/icons/v1/png_71/generic_business-71.png", "icon_background_color": "#7B9EB0", "icon_mask_base_uri": "https://maps.gstatic.com/mapfiles/place_api/icons/v2/generic_pinlet", "international_phone_number": "+34 918 48 28 18", "name": "Clinica dental Dra. Karina Pérez", "opening_hours": {"open_now": false}, "photos": [{"height": 2592, "html_attributions": ["<a href=\"https://maps.google.com/maps/contrib/108467963535631945689\">Clinica dental Dra. Karina Pérez</a>"], "photo_reference": "AWn5SU4269L-gvRcaA2BWeO2KA1jrWn0DEGmD7ehqs5fakdgq9Y9iigPEVpCWi48wO7HP8nhaGsS3svtUBvNDQvxKHp0Sa0Q2sQ5v7lNooDOYOMOg2uPUvRjKxn0baHdmoK0QavPzCXu6EYwskm0d5m7OBM8oGF8wcYfPfA8q1gFfSRI8BXkSA1a-G8V2A2Q2hytZRwErc8S_CBEpYicLyVp6-N3BChveUc2b87uEBxLOWo8djksaab9WCLK2fAdAh3PNpDexJyV4j1AbJRuw24WOmu3eyRHl9W46TF4CpDfVu-H3tA1SeiYacspqsbFCBvQncbc1YxjMcE", "width": 3872}], "place_id": "ChIJJV3TEQffQw0RBuUB4N5MIns", "plus_code": {"compound_code": "V74R+V5 Bustarviejo, Spain", "global_code": "8CGRV74R+V5"}, "rating": 4.7, "reference": "ChIJJV3TEQffQw0RBuUB4N5MIns", "scope": "GOOGLE", "types": ["dentist", "health", "point_of_interest", "establishment"], "user_ratings_total": 68, "vicinity": "Calle Mayor, 24, Bustarviejo"}, {"business_status": "OPERATIONAL", "geometry": {"location": {"lat": 40.85780769999999, "lng": -3.7111145}, "viewport": {"northeast": {"lat": 40.8591465302915, "lng": -3.709760719708497}, "southwest": {"lat": 40.8564485697085, "lng": -3.712458680291502}}}, "icon": "https://maps.gstatic.com/mapfiles/place_api/icons/v1/png_71/bank-71.png", "icon_background_color": "#909CE1", "icon_mask_base_uri": "https://maps.gstatic.com/mapfiles/place_api/icons/v2/bank-intl_pinlet", "international_phone_number": "+34 918 48 22 10", "name": "Banco Santander Agentes", "opening_hours": {"open_now": false}, "photos": [{"height": 288, "html_attributions": ["<a href=\"https://maps.google.com/maps/contrib/112068140682962215588\">Banco Santander Agentes</a>"], "photo_reference": "AWn5SU4ECOQmH_4zV3Lo_tJHNC7-KJB9I-c9NxeW25ZisQ-ps0Wt278HrqkeNIUa6AfJpvfXrdELvjKB73a8IME8chLg5kTNll0xvmw5q2K9QEGE5ciozCmIod_uphxePtLvuSZmLCL2dVaV3Q1JIWiyUYkRahXg_b6WzStgOkLX5g9CSNzoenvOTJhneXH-hhmevGf_VzfffDBatjghiOeRw_7szUbEcrKOm4_tJKg-4QVLdpwiTTme7psUDdzAHdWon6wwACO8tNhltF8h-f_kJnjEvzNPREymq70e0fHMHkDiGsJRHJeqHG54KPPY-ZTZjPMuyR-cWLo", "width": 512}], "place_id": "ChIJycNYngffQw0RbEc1vW0p0RU", "plus_code": {"compound_code": "V75Q+4H Bustarviejo, Spain", "global_code": "8CGRV75Q+4H"}, "rating": 4.5, "reference": "ChIJycNYngffQw0RbEc1vW0p0RU", "scope": "GOOGLE", "types": ["bank", "atm", "finance", "point_of_interest", "establishment"], "user_ratings_total": 11, "vicinity": "Calle del Cerrillo, 3, Bustarviejo"}, {"business_status": "OPERATIONAL", "geometry": {"location": {"lat": 40.8571861, "lng": -3.710157999999999}, "viewport": {"northeast": {"lat": 40.85852593029149, "lng": -3.708801269708498}, "southwest": {"lat": 40.85582796970849, "lng": -3.711499230291502}}}, "icon": "https://maps.gstatic.com/mapfiles/place_api/icons/v1/png_71/generic_business-71.png", "icon_background_color": "#7B9EB0", "icon_mask_base_uri": "https://maps.gstatic.com/mapfiles/place_api/icons/v2/generic_pinlet", "international_phone_number": "+34 646 87 75 14", "name": "APARTAMENTOS NAVAMAR", "photos": [{"height": 1836, "html_attributions": ["<a href=\"https://maps.google.com/maps/contrib/116096121529882003101\">Corsario Blanco</a>"], "photo_reference": "AWn5SU4RfArFfFYCaOZGye9UEExUJdRIKq3FqxhkzYu7oLhOqTbWRDcgbnvUpTcGqx9jcIBgyYL1EW4l0QjQiB_fTYoQ-Gf9vqElwuUwtI2nm7MQX2W_zX9DMPC6ScFbuXLPKkcc8hM_AbZC-BeG5swKQCMW65731WJMWArHB7bx_q4wFTnsUej-qSKB9ficXie1sIzI2rkSzLf7qQNCbEuGUPzR3RpENV__Ltn2ga0yLxYqKbWtI_mfItO8qAesYPGhOlcBlSQyZQq-K2MIKFLUubk7g2v1ClAp8ZpetcBRlqZFDsgdPC5h-jAO_NvzrbopdWy1MLDGlquY3F7N9ZK6wEw_f6buZEmNy2h4xN26SCsXz6EcWBMTi-509-bOf7GeryaCjibBK1zBKwNN2d0KJLTxgvwuJKwwx5seP2Vg5UyC4kG-GwYJ5l-xjpC48yvwZti8iMDctYj9L0KZSV2OffVwpk1q0PuPDuqce8ACRiuSeVn9g6Ijk_eOs1n5Pf-7dGmncGbyEwuI6flGf-U6BtyJkgovUHlbwQDHITvMRwupZ2qfQwOGFxAG0ZeuQPV-SO2w_KRUSRhGbP0oPN-q8nfQ88nqGmYnRBCTYumlenLaEyHConoDBbYOhTLkUbfDjC_Jgw", "width": 3264}], "place_id": "ChIJhe-vDgffQw0RIHu_v9YuyPw", "plus_code": {"compound_code": "V74Q+VW Bustarviejo, Spain", "global_code": "8CGRV74Q+VW"}, "rating": 4.9, "reference": "ChIJhe-vDgffQw0RIHu_v9YuyPw", "scope": "GOOGLE", "types": ["real_estate_agency", "point_of_interest", "establishment"], "user_ratings_total": 8, "vicinity": "Calle Mayor, 9, Bustarviejo"}, {"business_status": "OPERATIONAL", "geometry": {"location": {"lat": 40.85926300000001, "lng": -3.710215}, "viewport": {"northeast": {"lat": 40.86062323029151, "lng": -3.708829419708499}, "southwest": {"lat": 40.85792526970851, "lng": -3.711527380291503}}}, "icon": "https://maps.gstatic.com/mapfiles/place_api/icons/v1/png_71/shopping-71.png", "icon_background_color": "#4B96F3", "icon_mask_base_uri": "https://maps.gstatic.com/mapfiles/place_api/icons/v2/shopping_pinlet", "international_phone_number": "+34 918 48 39 22", "name": "Allforpets, Todo para tu mascota", "opening_hours": {"open_now": false}, "photos": [{"height": 2448, "html_attributions": ["<a href=\"https://maps.google.com/maps/contrib/113926855436320850966\">Allforpets, Todo para tu mascota</a>"], "photo_reference": "AWn5SU6JoqNy8GLAILLcbDcaugBh-txQ0vIlRzqxcKBCjQKf09BmBMs31zJShzqIUSIBM3wFD9pBmx5us88G3Dfnhh3cj7WWIQWLWyfmJz10rZGowCuzhzw26XgjTkDBbW-d_9947JHrdMpavvG1RB5IbhE4SF6L9Au3wVtN1NXAjJKg-be_Agk1XdkY_T6no_WXT3jae7A1f1HTTKxeRGeFmBANMTKGH4DKRze4YjBp_quaQymRZ6aiCa0164fOtvY_YwaM3v35KVVYnkLvMaJm3I9sV4OFMrh_LiO1n2ZJ2IneVv59_nq5MKFG0o5nrDunSAGbP7UMZ98", "width": 3264}], "place_id": "ChIJp7050qnfQw0RIxHEWdSy9M8", "plus_code": {"compound_code": "V75Q+PW Bustarviejo, Spain", "global_code": "8CGRV75Q+PW"}, "rating": 4.9, "reference": "ChIJp7050qnfQw0RIxHEWdSy9M8", "scope": "GOOGLE", "types": ["store", "food", "point_of_interest", "establishment"], "user_ratings_total": 29, "vicinity": "Calle feria nº3, Bustarviejo"}, {"business_status": "OPERATIONAL", "geometry": {"location": {"lat": 40.85785, "lng": -3.71159}, "viewport": {"northeast": {"lat": 40.8593460302915, "lng": -3.710022169708498}, "southwest": {"lat": 40.8566480697085, "lng": -3.712720130291502}}}, "icon": "https://maps.gstatic.com/mapfiles/place_api/icons/v1/png_71/shopping-71.png", "icon_background_color": "#4B96F3", "icon_mask_base_uri": "https://maps.gstatic.com/mapfiles/place_api/icons/v2/shoppingcart_pinlet", "international_phone_number": "+34 912 17 04 53", "name": "Supermercados Dia", "opening_hours": {"open_now": false}, "photos": [{"height": 657, "html_attributions": ["<a href=\"https://maps.google.com/maps/contrib/117199034473912252682\">Supermercados Dia</a>"], "photo_reference": "AWn5SU4fbFPT0SRvlNTK1txlZEjyn5n_bFeQsCa5uiu1vjJArVDGuAXFBkzkExzroloRnyOSSAO9fEo9rtLCx2pMcJiGYkm4aMOkv71faiW75SEcB1B3mFylLM-dCInYGjXosjzszsyo1hWfQ7X-brmVDPTzaJMesYnrNj5PBwAkbAtZHYPdRxD8DAaqo-fjBozWwIvLxgPZ5gsp-jzf_pcOdVJhJjaDj6TDov-ldXPjbn9Oxuc9SZPVSlZij8cGgcQzsX6blEQwHssZKBUiASEYrFa0vCY8oHYzVRRD8Kaki3J2BaiYRaqetuutv4U0HJlzHrUqPIqBKkk", "width": 509}], "place_id": "ChIJkTeqkQffQw0RbyEyx_c7gdE", "plus_code": {"compound_code": "V75Q+49 Bustarviejo, Spain", "global_code": "8CGRV75Q+49"}, "rating": 4, "reference": "ChIJkTeqkQffQw0RbyEyx_c7gdE", "scope": "GOOGLE", "types": ["supermarket", "convenience_store", "bakery", "grocery_or_supermarket", "store", "food", "point_of_interest", "establishment"], "user_ratings_total": 149, "vicinity": "Calle de la Cañada, 5, Bustarviejo"}, {"geometry": {"location": {"lat": 40.857568, "lng": -3.7092432}, "viewport": {"northeast": {"lat": 40.86214993542972, "lng": -3.702644440964288}, "southwest": {"lat": 40.85426266400143, "lng": -3.721959776411381}}}, "icon": "https://maps.gstatic.com/mapfiles/place_api/icons/v1/png_71/geocode-71.png", "icon_background_color": "#7B9EB0", "icon_mask_base_uri": "https://maps.gstatic.com/mapfiles/place_api/icons/v2/generic_pinlet", "name": "Bustarviejo", "photos": [{"height": 2250, "html_attributions": ["<a href=\"https://maps.google.com/maps/contrib/115403962586954963475\">DaniEle</a>"], "photo_reference": "AWn5SU6cdmhJberpS6aHkJY9qs5x0JVm7Prl3jGYhpRk0aSRI_XcOJTlF4a0mC_bBiHZtoJMwEbrPCd3uM2QBJmOQAVsaf-n3lih-oKpm2FnEWHTJVWQ-V4PtS4jq8S-FTsIfUjuvzZBDPYKL75e6I8aedVlX3E_51pXiQhHpdbytEzajoSw5KmOJ9ipy8BaRWqbWBCzw3xjGFYtG-nhIO8GwNwKEBCkrBba042RNItLo_2otRuYhmfUVXKv8Bh5rPMlVv8AHulHh28ocOIJzx4ksb2pPUHAtJN3WTb0OBIu2pWTrjRqhWsjOdl1cDJduz__iMp07ISgbZh-vX1DeBOGsfHpmN-2jql30zymyo6Y83ISTLsyl2c8Yfk6T3J71AQHahyhPHy7N8Dx2r3hYjdjv7pjDETqyShGKO-hyS54OAf6JWCQn0UI7wbfGnt71SwP4jCv7dhGBlsdOK1vb9cK0KCuNpT0Xidg9SuQAA3AWvr_nlVGAAjzDIR3iAKbqbZfjfaCJWNthvvFYRJjUflR67MfVxzetI-U1Wyb12WVX1WGlS1bBpo-vuziAjQ4m8pBWuZjGdaxxU3durzrDg9OSa8z4aEuekgvteEAwFw1gl90LrOqLNXalvmpV4DuPmo-ekHvWA", "width": 4000}], "place_id": "ChIJc7xF8AffQw0RAPcmtC4ZyE0", "reference": "ChIJc7xF8AffQw0RAPcmtC4ZyE0", "scope": "GOOGLE", "types": ["locality", "political"], "vicinity": "Bustarviejo"}]