[{"business_status": "OPERATIONAL", "geometry": {"location": {"lat": 40.4484514, "lng": -4.000376699999999}, "viewport": {"northeast": {"lat": 40.4496147802915, "lng": -3.998872969708497}, "southwest": {"lat": 40.44691681970851, "lng": -4.001570930291502}}}, "icon": "https://maps.gstatic.com/mapfiles/place_api/icons/v1/png_71/school-71.png", "icon_background_color": "#7B9EB0", "icon_mask_base_uri": "https://maps.gstatic.com/mapfiles/place_api/icons/v2/school_pinlet", "international_phone_number": "+34 918 15 50 00", "name": "Lycée Français Molière", "opening_hours": {"open_now": false}, "photos": [{"height": 568, "html_attributions": ["<a href=\"https://maps.google.com/maps/contrib/104435587710993144400\">Lycée Français International Molière</a>"], "photo_reference": "AWn5SU4kgvef56fnbl1WwcrXyCBdWrcDBo5E4i3MnkjjJvxouLBsLxtvyBT9It5Gq7TbTrm-cnlqYIxuvI--x1D8UjmzENJqOD4KtOxsnWFpZNR97Y62hjBf4NCtHHkZb5hPaNBXJaKIdkVgiyGf6yTTUNqlONp3R-FKObSzeOXBzfqUBjgRkZMjBLQjo7ltOjt7EGv1IG0atWezvnmgxzh9804xXD8rMrhCj-pwqeeuYqAsw7Nl1-9Y1B_OuFKwwmNRGNySQw7RalLgoG7mWhwk-bWkg8e5yYkP4u6QC6S_y-1UTR-qgVNwNKqPfJmNLp1JXgIC9DvCTMs", "width": 1200}], "place_id": "ChIJ8eSQMHeZQQ0RVveHC3jOEDA", "plus_code": {"compound_code": "CXXX+9R Villanueva de la Cañada, Spain", "global_code": "8CGQCXXX+9R"}, "reference": "ChIJ8eSQMHeZQQ0RVveHC3jOEDA", "scope": "GOOGLE", "types": ["point_of_interest", "secondary_school", "school", "establishment"], "vicinity": "Calle Cristo, 27, Villanueva de la Cañada"}, {"business_status": "OPERATIONAL", "geometry": {"location": {"lat": 40.447644, "lng": -4.0022996}, "viewport": {"northeast": {"lat": 40.4490026302915, "lng": -4.001114069708497}, "southwest": {"lat": 40.4463046697085, "lng": -4.003812030291502}}}, "icon": "https://maps.gstatic.com/mapfiles/place_api/icons/v1/png_71/school-71.png", "icon_background_color": "#7B9EB0", "icon_mask_base_uri": "https://maps.gstatic.com/mapfiles/place_api/icons/v2/school_pinlet", "international_phone_number": "+34 605 07 20 24", "name": "ACADEMIA DE DANZA CENTRO DE BAILE SÍGUEME", "opening_hours": {"open_now": false}, "photos": [{"height": 780, "html_attributions": ["<a href=\"https://maps.google.com/maps/contrib/100570867228880571922\">ACADEMIA DE DANZA CENTRO DE BAILE SÍGUEME</a>"], "photo_reference": "AWn5SU4B52ed_HyQj4BB8UNXccyepy6Wyoec6KpQ0LpqeBOVTP8ykHZ-LuBTqkkzmvtjeJ9MQPoVACWvVzmaF5Ah7QfNkiX66LfCmYKMMyZQvBE6WXqC5oOSm67JHW4dBhg6_-ngmyKj8K6bIPjh82duMWhX-ICWASEmGoDCVJeJJpLke5ZqWOT9cspQbQaAcP8qhdc3FfwQcRS6nBVnPLZWM30zxx_5F0tUYBFdzyh-RZbDa5YErFvj2p8r6GscTU4KegLiEEHkaom7w52yrORP0EuuaecoeKoJUQhrigBUTSjJL8jvkqKvSLgbsoQ90Ei8xYWaz00-", "width": 2050}], "place_id": "ChIJUVaZX5qZQQ0RuLiYLZbFtQQ", "plus_code": {"compound_code": "CXXX+33 Villanueva de la Cañada, Spain", "global_code": "8CGQCXXX+33"}, "rating": 4.8, "reference": "ChIJUVaZX5qZQQ0RuLiYLZbFtQQ", "scope": "GOOGLE", "types": ["point_of_interest", "school", "establishment"], "user_ratings_total": 34, "vicinity": "Calle Cristo, 18, Villanueva de la Cañada"}, {"business_status": "OPERATIONAL", "geometry": {"location": {"lat": 40.4439075, "lng": -4.001543299999999}, "viewport": {"northeast": {"lat": 40.4451885802915, "lng": -4.000281719708497}, "southwest": {"lat": 40.4424906197085, "lng": -4.002979680291501}}}, "icon": "https://maps.gstatic.com/mapfiles/place_api/icons/v1/png_71/school-71.png", "icon_background_color": "#7B9EB0", "icon_mask_base_uri": "https://maps.gstatic.com/mapfiles/place_api/icons/v2/school_pinlet", "international_phone_number": "+34 666 94 34 74", "name": "Escuela Infantil Los Cedros", "opening_hours": {"open_now": false}, "place_id": "ChIJCegtIXaZQQ0RiLMVpDOCmPA", "plus_code": {"compound_code": "CXVX+H9 Villanueva de la Cañada, Spain", "global_code": "8CGQCXVX+H9"}, "reference": "ChIJCegtIXaZQQ0RiLMVpDOCmPA", "scope": "GOOGLE", "types": ["point_of_interest", "school", "establishment"], "vicinity": "Camino Móstoles, 1, Villanueva de la Cañada"}, {"business_status": "OPERATIONAL", "geometry": {"location": {"lat": 40.44336589999999, "lng": -3.998948}, "viewport": {"northeast": {"lat": 40.44471518029149, "lng": -3.997612319708497}, "southwest": {"lat": 40.44201721970849, "lng": -4.000310280291502}}}, "icon": "https://maps.gstatic.com/mapfiles/place_api/icons/v1/png_71/generic_business-71.png", "icon_background_color": "#7B9EB0", "icon_mask_base_uri": "https://maps.gstatic.com/mapfiles/place_api/icons/v2/generic_pinlet", "international_phone_number": "+34 691 10 07 18", "name": "Zona CERO Sub.- Escuela de Buceo", "opening_hours": {"open_now": false}, "photos": [{"height": 609, "html_attributions": ["<a href=\"https://maps.google.com/maps/contrib/117930463747650010690\">Zona CERO Sub.- Escuela de Buceo</a>"], "photo_reference": "AWn5SU5O6P4pVJnJSlqBVhYk747VDEj9VFjgMkdczHJRfL6BNJF1SIyWiqovBW0VbqH-vmNrksVIm0V-BMW3UFAXvv44KRh3d3C0aBCr43Q3ixmspg2QuaTPSdSauFQ6WrppdkIr4Cgl8FzemrfPxAxVlYhDhEgS-JFu_L8qHyxh4KSge3tTKD6mbH3XBCdrQWWnLIEf9xo8h4s8mV_WD424Kbf4t194vC9hzilK_VPZ0BBTI8TqSIbE0WH6RdsUdGxXp0PYBOxjoDq5OusAk3xH77FOkXA9WlEp5OPb35q9k-2Lb4bowES9ZM9pOMEXkxbrgzLyiWxozqs", "width": 1081}], "place_id": "ChIJI3PsW52ZQQ0RjZpXLkG96x4", "plus_code": {"compound_code": "C2V2+8C Villanueva de la Cañada, Spain", "global_code": "8CGRC2V2+8C"}, "rating": 5, "reference": "ChIJI3PsW52ZQQ0RjZpXLkG96x4", "scope": "GOOGLE", "types": ["point_of_interest", "school", "establishment"], "user_ratings_total": 25, "vicinity": "Urbanización los Arces, 17, Villanueva de la Cañada"}, {"business_status": "OPERATIONAL", "geometry": {"location": {"lat": 40.4415, "lng": -4.0013632}, "viewport": {"northeast": {"lat": 40.4429017302915, "lng": -4.000060519708498}, "southwest": {"lat": 40.4402037697085, "lng": -4.002758480291503}}}, "icon": "https://maps.gstatic.com/mapfiles/place_api/icons/v1/png_71/generic_business-71.png", "icon_background_color": "#7B9EB0", "icon_mask_base_uri": "https://maps.gstatic.com/mapfiles/place_api/icons/v2/generic_pinlet", "international_phone_number": "+34 618 59 51 48", "name": "Silvia Fuentes Moreno", "opening_hours": {"open_now": false}, "photos": [{"height": 2667, "html_attributions": ["<a href=\"https://maps.google.com/maps/contrib/110598602866645239291\">Silvia Fuentes Moreno</a>"], "photo_reference": "AWn5SU4ZcrUK5FXuwQCi3leBss3e00rsGXOScLEO9VJkqfJzWqFFqNsw9l8fDNPw80vp_DeDJW8V-cwErSX-O3jdVmbYoauEMv-i24wS1u_EWS2mZ5g5JrkwIBSyZzZJvoOXPTfGdAOls78EI6CeY6HYZce0jt-KqD4WKITG6zkrP3V52mMp-4WxPyNtRxyUxXHi7X3CAIW5NizJ6LAwFc0MDPrWspY0BhOC2mdl3h8xpx7nmIXxmDm6E-tjnXRe8VBrnsM7Q980kAZyZAf4ccJWH4j1iylSEr1xtWz0xdjdyU6XWhfYNS7g1X4SBlnYfY-AULhQcjUgFRQ", "width": 4000}], "place_id": "ChIJ59X9sJ2ZQQ0RXTk6msR5lyM", "plus_code": {"compound_code": "CXRX+HF Villanueva de la Cañada, Spain", "global_code": "8CGQCXRX+HF"}, "rating": 4.9, "reference": "ChIJ59X9sJ2ZQQ0RXTk6msR5lyM", "scope": "GOOGLE", "types": ["point_of_interest", "school", "health", "establishment"], "user_ratings_total": 56, "vicinity": "Calle Maestro Albéniz, 10, Villanueva de la Cañada"}, {"business_status": "OPERATIONAL", "geometry": {"location": {"lat": 40.46410400000001, "lng": -3.990365}, "viewport": {"northeast": {"lat": 40.4657962302915, "lng": -3.988528869708498}, "southwest": {"lat": 40.4630982697085, "lng": -3.991226830291502}}}, "icon": "https://maps.gstatic.com/mapfiles/place_api/icons/v1/png_71/school-71.png", "icon_background_color": "#7B9EB0", "icon_mask_base_uri": "https://maps.gstatic.com/mapfiles/place_api/icons/v2/school_pinlet", "international_phone_number": "+34 646 69 45 67", "name": "Center Equestre Green Bay", "opening_hours": {"open_now": false}, "photos": [{"height": 3888, "html_attributions": ["<a href=\"https://maps.google.com/maps/contrib/107266428439185092025\">Teresa Abedul</a>"], "photo_reference": "AWn5SU5kmT9I4L38BlYIS95S_NOkGZ4GjYwnI_OpM5kx8LcjUSGT1XG_QzHYJ6b7HV9yOGdW_zzJkaVxzL3iBfQMZdTGE3USlSjk-cFURxP4uhfok8-bHIaTaUmLGHOYqZ1gr0G0pR3AEVMbNfSWLOK6rskjiN7DC7c3OHrfvy4T3nxl2ZQHTpWu0w8DU0RPNnVtblmqMSoNpuaRZcRkJrOOr-Ztiwsviqp0p2_Mwa8XV4tvGB1u9dJah3KDKj3wL-1qGpjjqaGFiV1Vj3qOpwOCCzunCUO2szJUzwBxAEHp3WKLjiRwgaKVAMSYl1Ub-XRSagX4wrqz38EibavtDtJ_xO_Adcg_NaSVGmIqGcS8S9q-tou4Sy1zXCmlsg2YgDp4Ru1AONZPVDMC4uzZt7X9WENEpa6N-2Nka2m7ykrtu3HeevO8pGpj7OQKcNi0inzb3zn_lSE1DINThBK47uTPlmTxJipX0JHkZFfbkjaHYnLMgToEruNr-m-Ln8DJgHB4jXOoFxDK5UE9kCGLwXQXspxNCp6IPAI9JVKjDfywywkiia6mvYZYAIIuRWbUvQ2KXir8hjKIdZpBR9MTPQCB60FcTbJW89p9dS_LO1PktH2vwno5A6FrWbvbXQr6FAL9x6oOcg", "width": 5184}], "place_id": "ChIJhaA8zF-ZQQ0RUZsN9TjBACU", "plus_code": {"compound_code": "F275+JV Villanueva de la Cañada, Spain", "global_code": "8CGRF275+JV"}, "rating": 4.8, "reference": "ChIJhaA8zF-ZQQ0RUZsN9TjBACU", "scope": "GOOGLE", "types": ["point_of_interest", "school", "establishment"], "user_ratings_total": 53, "vicinity": "Camino del Cerro Guijar, s/n. Parcela 112, Villanueva de la Cañada"}, {"business_status": "OPERATIONAL", "geometry": {"location": {"lat": 40.4476643, "lng": -4.004069299999998}, "viewport": {"northeast": {"lat": 40.4489985802915, "lng": -4.002621419708497}, "southwest": {"lat": 40.4463006197085, "lng": -4.005319380291501}}}, "icon": "https://maps.gstatic.com/mapfiles/place_api/icons/v1/png_71/school-71.png", "icon_background_color": "#7B9EB0", "icon_mask_base_uri": "https://maps.gstatic.com/mapfiles/place_api/icons/v2/school_pinlet", "international_phone_number": "+34 915 43 43 00", "name": "Academia Escuela Villanueva", "opening_hours": {"open_now": false}, "place_id": "ChIJ400fF3SZQQ0RQlf8YhSlM2U", "plus_code": {"compound_code": "CXXW+39 Villanueva de la Cañada, Spain", "global_code": "8CGQCXXW+39"}, "reference": "ChIJ400fF3SZQQ0RQlf8YhSlM2U", "scope": "GOOGLE", "types": ["point_of_interest", "school", "establishment"], "vicinity": "Calle Luna, 6, Villanueva de la Cañada"}, {"business_status": "OPERATIONAL", "geometry": {"location": {"lat": 40.4470527, "lng": -3.9977275}, "viewport": {"northeast": {"lat": 40.4484829802915, "lng": -3.996401419708498}, "southwest": {"lat": 40.4457850197085, "lng": -3.999099380291503}}}, "icon": "https://maps.gstatic.com/mapfiles/place_api/icons/v1/png_71/school-71.png", "icon_background_color": "#7B9EB0", "icon_mask_base_uri": "https://maps.gstatic.com/mapfiles/place_api/icons/v2/school_pinlet", "international_phone_number": "+34 918 15 56 27", "name": "Villanueva Renacuajos", "opening_hours": {"open_now": false}, "photos": [{"height": 4032, "html_attributions": ["<a href=\"https://maps.google.com/maps/contrib/113715927757222566174\">Villanueva Renacuajos</a>"], "photo_reference": "AWn5SU6RVLY0PVXPXISJyddBaQnQb1P6CQSfiUgbckpt8YbtulRcAeDKmf7ZLd70_oO9pJ-8Oltt2PxhwDtpQ6buQ9p6Dx0nqKCPJXYnKseJBl4LoQVtEjpjBsx-_FFjFZ68j8X1C9Yt30XBZda27s9eFrD-KNQ-kKTpkJhA31ZiUiZ98dQ0yBIl0OoMqmQETv8GJmd0VOzqy2o36TX80zBZhhEhYDgSUADA33y4wOZilI0gOanOEs3WXMqjaPDBPf0lC9jxxi4cbcWDyGU7chU0GDef0aBFs6EfhjL7Ebclz5V6DViNl2ot_NoDgo-pNEPtXyAB3Z1mnq8", "width": 3024}], "place_id": "ChIJLxAh2nmZQQ0R4uYDVCccxds", "plus_code": {"compound_code": "C2W2+RW Villanueva de la Cañada, Spain", "global_code": "8CGRC2W2+RW"}, "rating": 4.9, "reference": "ChIJLxAh2nmZQQ0R4uYDVCccxds", "scope": "GOOGLE", "types": ["point_of_interest", "school", "establishment"], "user_ratings_total": 85, "vicinity": "Calle Dulcinea, 18, Villanueva de la Cañada"}, {"business_status": "OPERATIONAL", "geometry": {"location": {"lat": 40.4379636, "lng": -3.998404099999999}, "viewport": {"northeast": {"lat": 40.43918593029149, "lng": -3.996975919708497}, "southwest": {"lat": 40.43648796970849, "lng": -3.999673880291502}}}, "icon": "https://maps.gstatic.com/mapfiles/place_api/icons/v1/png_71/school-71.png", "icon_background_color": "#7B9EB0", "icon_mask_base_uri": "https://maps.gstatic.com/mapfiles/place_api/icons/v2/school_pinlet", "international_phone_number": "+34 918 15 55 05", "name": "María Moliner Public School", "opening_hours": {"open_now": false}, "photos": [{"height": 1080, "html_attributions": ["<a href=\"https://maps.google.com/maps/contrib/114931075098500987454\">JUAN MARTIN</a>"], "photo_reference": "AWn5SU79p21NJyj9eiuOEs-2NE2OUA264107FaVaHuFvjJzF0U0CkGNtdSVXYO_JqJzEJEwRKN4tGtSUkhWpfUfLCbOiawaVJL57LcMpoC9MD2fhMAPAzn4mvI7iJn1vpF5BDqETb0ouKqfo6MjD9SycnqGwhCaEIUX8j0yS0k6d-mzxma7K06KAE7BjzNXmMFw01x2dD5eVKtZ0TwCVw1A6VTHdbugtRRr9Xi3Z49WOBVGcZho19WBVyD0YRXFKCD4W-jR95ykBuDnEQanXOAFIpGqSM6Ji0SD7KTlygteQpr3OO6A2RR44AKtuCtQE_H2mfjvyhDyL45DQFYl3bl590LfAXYCv6vS9qfRVIhbkndpTn5Cgme06qBEK0AxTuAM6SsM3KVWzg6FoufGg221f5_qOzsoZbWXrroQ2N58FiV0shJ-hdUdlpM6DgUg_AdszvnFVK5Gzd6OJYmNvFC7lNFfLABAsdM4VXh2wKX045j3FJTU7YKbhjFHKvh-6mY5gKTuv8TPJVWphZF8Y6ASbdj8xE6eoe5VGkekvToEYOfjRHCdRfJtS7WFxuA8Fmbhybgem-U7pgdLLbX_NMS4FWofU6r9DBNnlsmg_JcVlEbk4Gkj8v6DRP3aL6D2cvFDQxs-qpm4N", "width": 1920}], "place_id": "ChIJO9KhW5uZQQ0R2un-wNiy-Co", "plus_code": {"compound_code": "C2Q2+5J Villanueva de la Cañada, Spain", "global_code": "8CGRC2Q2+5J"}, "reference": "ChIJO9KhW5uZQQ0R2un-wNiy-Co", "scope": "GOOGLE", "types": ["point_of_interest", "school", "establishment"], "vicinity": "Avenida de La Rioja, 14, Villanueva de la Cañada"}, {"business_status": "OPERATIONAL", "geometry": {"location": {"lat": 40.4479936, "lng": -4.003928999999999}, "viewport": {"northeast": {"lat": 40.44931418029149, "lng": -4.002499569708498}, "southwest": {"lat": 40.4466162197085, "lng": -4.005197530291501}}}, "icon": "https://maps.gstatic.com/mapfiles/place_api/icons/v1/png_71/shopping-71.png", "icon_background_color": "#4B96F3", "icon_mask_base_uri": "https://maps.gstatic.com/mapfiles/place_api/icons/v2/shopping_pinlet", "international_phone_number": "+34 633 33 13 81", "name": "La Molona Kids Village - Juguetería educativa, talleres educativos, Cumpleaños y campamentos.", "photos": [{"height": 2048, "html_attributions": ["<a href=\"https://maps.google.com/maps/contrib/116448111490253130369\">La Molona Kids Village - Juguetería educativa, talleres educativos, Cumpleaños y campamentos.</a>"], "photo_reference": "AWn5SU6ia66n-c0jyg1LqwrryUYQx2nEU5f8CXvOyEYgWxJuYNxaz0-ojhX-qeARMU3TnWpctgq3ccG7q45oFJ2FM0MteVuN0oS8wXYaZrc08DdZu-5lNpibD39NBXeG0Mz7ZizZX0CMFV0-eFXJg1MS8c3HbPcfVgotC6Ac43RgMdEfdReqgEmpQjqgsstRlTdcaolFIb7BA4wH4WHtr_6XZppk9DPvT05WwdJXg2gmX95TsiHtQ_ZLRfRuErb4Wzse63j8CgxpA2PxPKaBO5WpREH7FCeYR5XtZw-L0baEAszQdMbnP03OAofzgPIXUTun7rDcy3rp2JE", "width": 1536}], "place_id": "ChIJn7riWSKZQQ0RCpXiqwZk1gI", "plus_code": {"compound_code": "CXXW+5C Villanueva de la Cañada, Spain", "global_code": "8CGQCXXW+5C"}, "rating": 4.6, "reference": "ChIJn7riWSKZQQ0RCpXiqwZk1gI", "scope": "GOOGLE", "types": ["book_store", "point_of_interest", "school", "store", "establishment"], "user_ratings_total": 23, "vicinity": "Calle Luna, 2, Villanueva de la Cañada"}, {"business_status": "OPERATIONAL", "geometry": {"location": {"lat": 40.4488311, "lng": -4.005943399999999}, "viewport": {"northeast": {"lat": 40.4502349802915, "lng": -4.004705719708498}, "southwest": {"lat": 40.4475370197085, "lng": -4.007403680291502}}}, "icon": "https://maps.gstatic.com/mapfiles/place_api/icons/v1/png_71/school-71.png", "icon_background_color": "#7B9EB0", "icon_mask_base_uri": "https://maps.gstatic.com/mapfiles/place_api/icons/v2/school_pinlet", "international_phone_number": "+34 918 12 55 30", "name": "Gabinete Forempresa", "place_id": "ChIJSRJsgHOZQQ0R_kmenwQnty8", "plus_code": {"compound_code": "CXXV+GJ Villanueva de la Cañada, Spain", "global_code": "8CGQCXXV+GJ"}, "reference": "ChIJSRJsgHOZQQ0R_kmenwQnty8", "scope": "GOOGLE", "types": ["point_of_interest", "school", "establishment"], "vicinity": "Calle Real, 12, Villanueva de la Cañada"}, {"business_status": "OPERATIONAL", "geometry": {"location": {"lat": 40.439272, "lng": -4.0061879}, "viewport": {"northeast": {"lat": 40.4405767302915, "lng": -4.004823919708499}, "southwest": {"lat": 40.4378787697085, "lng": -4.007521880291503}}}, "icon": "https://maps.gstatic.com/mapfiles/place_api/icons/v1/png_71/school-71.png", "icon_background_color": "#7B9EB0", "icon_mask_base_uri": "https://maps.gstatic.com/mapfiles/place_api/icons/v2/school_pinlet", "international_phone_number": "+34 639 70 16 43", "name": "Pámbola - Escuela Infantil / Atención Temprana -", "opening_hours": {"open_now": false}, "place_id": "ChIJuUKAa9uZQQ0RxQJzdhQrl-Q", "plus_code": {"compound_code": "CXQV+PG Villanueva de la Cañada, Spain", "global_code": "8CGQCXQV+PG"}, "rating": 5, "reference": "ChIJuUKAa9uZQQ0RxQJzdhQrl-Q", "scope": "GOOGLE", "types": ["point_of_interest", "school", "establishment"], "user_ratings_total": 11, "vicinity": "Avenida de la Sierra de Gredos, 14, Villanueva de la Cañada"}, {"business_status": "OPERATIONAL", "geometry": {"location": {"lat": 40.439267, "lng": -4.006189000000001}, "viewport": {"northeast": {"lat": 40.4405739802915, "lng": -4.004825819708499}, "southwest": {"lat": 40.4378760197085, "lng": -4.007523780291503}}}, "icon": "https://maps.gstatic.com/mapfiles/place_api/icons/v1/png_71/school-71.png", "icon_background_color": "#7B9EB0", "icon_mask_base_uri": "https://maps.gstatic.com/mapfiles/place_api/icons/v2/school_pinlet", "international_phone_number": "+34 918 11 88 68", "name": "Centro Privado De Educación Infantil Crios", "place_id": "ChIJWV8_JJ-ZQQ0R44v_reWyPWI", "plus_code": {"compound_code": "CXQV+PG Villanueva de la Cañada, Spain", "global_code": "8CGQCXQV+PG"}, "reference": "ChIJWV8_JJ-ZQQ0R44v_reWyPWI", "scope": "GOOGLE", "types": ["point_of_interest", "school", "establishment"], "vicinity": "Avenida de la Sierra de Gredos, 14, Villanueva de la Cañada"}, {"business_status": "OPERATIONAL", "geometry": {"location": {"lat": 40.45264, "lng": -3.9983176}, "viewport": {"northeast": {"lat": 40.4539782302915, "lng": -3.997077219708498}, "southwest": {"lat": 40.4512802697085, "lng": -3.999775180291502}}}, "icon": "https://maps.gstatic.com/mapfiles/place_api/icons/v1/png_71/school-71.png", "icon_background_color": "#7B9EB0", "icon_mask_base_uri": "https://maps.gstatic.com/mapfiles/place_api/icons/v2/school_pinlet", "international_phone_number": "+34 918 15 68 16", "name": "Clases particulares de guitarra", "photos": [{"height": 768, "html_attributions": ["<a href=\"https://maps.google.com/maps/contrib/111362879727546760664\">Clases particulares de guitarra</a>"], "photo_reference": "AWn5SU5rzQ-hV9RH1arJbOwm7ruEFeNEPQeZOLD0MzPCYC4SJlOLMrVzkD7PvObQV4xGEapdUECWX3CdGl-NeJ66rBu24xXEovzEoFVioK34qcsGYvpUYfq3s_xnvJZ0A1aQFVRe2Fu3EtaiK1MyvRWiAP67rAlqF48A0TN6wt-Ao3Fp_JSZ7NOcnL7IySXG3cgjKHBU9Fl_DT_sSWK7os6ca8tFw4FPWcKO436aZQ8LQpfsy6v7-EVbgt93O1Z3I_fesdLOlHZYxNcTWlXyyPhC2PNO1ZWp4WotmtLDd4e84xwFKIfHA8jJ4DMBzwqY1Kii-oisJwLHSJw", "width": 1024}], "place_id": "ChIJwR8Zc3CZQQ0RxiUC3WWjQsw", "plus_code": {"compound_code": "F232+3M Villanueva de la Cañada, Spain", "global_code": "8CGRF232+3M"}, "rating": 5, "reference": "ChIJwR8Zc3CZQQ0RxiUC3WWjQsw", "scope": "GOOGLE", "types": ["point_of_interest", "school", "establishment"], "user_ratings_total": 2, "vicinity": "Calle Monasterio de Irache, 124, Villanueva de la Cañada"}, {"business_status": "OPERATIONAL", "geometry": {"location": {"lat": 40.4526401, "lng": -3.9983175}, "viewport": {"northeast": {"lat": 40.45397783029149, "lng": -3.997077119708497}, "southwest": {"lat": 40.45127986970849, "lng": -3.999775080291502}}}, "icon": "https://maps.gstatic.com/mapfiles/place_api/icons/v1/png_71/school-71.png", "icon_background_color": "#7B9EB0", "icon_mask_base_uri": "https://maps.gstatic.com/mapfiles/place_api/icons/v2/school_pinlet", "international_phone_number": "+34 661 90 15 19", "name": "Vicente Zambudio", "place_id": "ChIJrYY6c3CZQQ0RT517Q9v_fg0", "plus_code": {"compound_code": "F232+3M Villanueva de la Cañada, Spain", "global_code": "8CGRF232+3M"}, "rating": 5, "reference": "ChIJrYY6c3CZQQ0RT517Q9v_fg0", "scope": "GOOGLE", "types": ["point_of_interest", "school", "establishment"], "user_ratings_total": 6, "vicinity": "Calle Monasterio de Irache, 124, Villanueva de la Cañada"}, {"business_status": "OPERATIONAL", "geometry": {"location": {"lat": 40.44849200000001, "lng": -3.993992700000001}, "viewport": {"northeast": {"lat": 40.4501655802915, "lng": -3.992741419708498}, "southwest": {"lat": 40.4474676197085, "lng": -3.995439380291502}}}, "icon": "https://maps.gstatic.com/mapfiles/place_api/icons/v1/png_71/school-71.png", "icon_background_color": "#7B9EB0", "icon_mask_base_uri": "https://maps.gstatic.com/mapfiles/place_api/icons/v2/school_pinlet", "international_phone_number": "+34 918 11 76 81", "name": "Colegio Internacional Kolbe", "opening_hours": {"open_now": false}, "photos": [{"height": 5304, "html_attributions": ["<a href=\"https://maps.google.com/maps/contrib/115302340774896269829\">Colegio Internacional Kolbe</a>"], "photo_reference": "AWn5SU4tea8YCubQWqTx9tHmNPFPsoUxlU6SsRMsiN5BLygaWAFaYIifsg67nMGXSPjVXlEHTBfuNHh4fMYBhyBblMTNBkNqnnUAD1G4qJUChsz3OWmfgET_6i4kvHll1xY9BPkPLWo-K3oowl_gHYU5c9nCVm4d3yOT67n9nTvvUBaVZsfUu-GocUpizkc9MIhzF7xKseBoioZKUfivhdQj-SlzzL0Tx6sKzghOvlisB8b-azj2mjW8ybgdmUqWVU0gzxZ4fD2sSIbXUDyNMcNFGO4cQKrM0K-wlNT9klpZuLJx4GPnxDeH2kiPEqofg1TSNK4OIVaBlms", "width": 7952}], "place_id": "ChIJaWprNeqZQQ0RlBUlSXkoFt4", "plus_code": {"compound_code": "C2X4+9C Villanueva de la Cañada, Spain", "global_code": "8CGRC2X4+9C"}, "reference": "ChIJaWprNeqZQQ0RlBUlSXkoFt4", "scope": "GOOGLE", "types": ["point_of_interest", "school", "establishment"], "vicinity": "Avenida Universidad, 4, Villanueva de la Cañada"}, {"business_status": "OPERATIONAL", "geometry": {"location": {"lat": 40.4381065, "lng": -4.0092735}, "viewport": {"northeast": {"lat": 40.4394899302915, "lng": -4.007841919708497}, "southwest": {"lat": 40.4367919697085, "lng": -4.010539880291502}}}, "icon": "https://maps.gstatic.com/mapfiles/place_api/icons/v1/png_71/school-71.png", "icon_background_color": "#7B9EB0", "icon_mask_base_uri": "https://maps.gstatic.com/mapfiles/place_api/icons/v2/school_pinlet", "international_phone_number": "+34 918 35 49 80", "name": "CEIP Padre Garralda", "photos": [{"height": 528, "html_attributions": ["<a href=\"https://maps.google.com/maps/contrib/113543939121463889527\">Cooperativa 4A Padre Garralda</a>"], "photo_reference": "AWn5SU5CAovka9H4yWjsoJWMqEZhKhql0uVSsdSVxnbgJ8JGFRUU0mwfc58Kf2YsvqL2iB1nb_BXl5iSTLswRxBs3qFmaQ0KVYa0b91CDpQNQG4BWHs9zxHVSmh20EN07JniUj5cAD3StbxNUTd_-uKW7WNyjXbhxQ6MiyV5Dbwm9P6FjHJAQeb22dY6h_rv5u2XSxidLvKW9rncvTpW6xW6spRVWrN9hjIyV8jYviyTZIrwMIGkSPmKJcpfCXhVQsza1jzbptOf8eL_-49fGsZLZqT-VHLiL2KUECJ5H7MozbLQ4r8UETYqVxXFtTxVycry4QTpY_cvKwV9LMqP1KLXvkPoX1OmMs9Q171iJC2VRcvwxts1swjdv35_eJZc4gF4WQ4EzmLImMd2mcS24x1uLNBmp6x1LEzVhbEmdQJhwl2gKt2uf--8K2yrjyWcVzCF1Vgc2XqrYXRb1h3XmjjjO9h6Qo9F4PsA3aai5GGMEG53rqiOBH8FLcVP_-IZhYjk6gMqRTgPoyiUJtM3_lSz5Ax6jhWo6-TV2CvK6ng3BHEceHJF90aB-i_zlX1yOr1rYbw_8QCzi5Vgci1mgc_GzBYjY9YUxnfSifG0Jxrxz8T3sq5Ds2QKnaEwLWIZrNcnah3A_Q", "width": 940}], "place_id": "ChIJS5I18GaZQQ0RevHjjtexkwM", "plus_code": {"compound_code": "CXQR+67 Villanueva de la Cañada, Spain", "global_code": "8CGQCXQR+67"}, "reference": "ChIJS5I18GaZQQ0RevHjjtexkwM", "scope": "GOOGLE", "types": ["point_of_interest", "school", "establishment"], "vicinity": "Avenida de la Sierra de Gredos, Villanueva de la Cañada"}, {"business_status": "OPERATIONAL", "geometry": {"location": {"lat": 40.4546265, "lng": -3.9928534}, "viewport": {"northeast": {"lat": 40.4561212802915, "lng": -3.991591819708498}, "southwest": {"lat": 40.4534233197085, "lng": -3.994289780291502}}}, "icon": "https://maps.gstatic.com/mapfiles/place_api/icons/v1/png_71/school-71.png", "icon_background_color": "#7B9EB0", "icon_mask_base_uri": "https://maps.gstatic.com/mapfiles/place_api/icons/v2/school_pinlet", "international_phone_number": "+34 918 15 53 75", "name": "Santiago Apostle School", "opening_hours": {"open_now": false}, "photos": [{"height": 1200, "html_attributions": ["<a href=\"https://maps.google.com/maps/contrib/111546682717942979713\">Glubable</a>"], "photo_reference": "AWn5SU6if3Llg108gM_nFNm3qpwQvIiIKb1t5ezzffZZzQwOmFvDxXWKW1-Srh7o2GZPXCVRJSUtz-CT3FEfKg8YkKK8GsPhBVKJBuBEmW07oEQKl4FjacTozIcmJewDmStxgZSiIyGCKDLnjqcf30rdlO9BnYo3Bj0bnCoskzrKQB9EVwfy0hB3rdduj2u2iNqV2RicniIGjumUe3T5ldEMgLMP51azcDTgWvNwyTQbsBoRkx3yeMR8XWhg4kzos2RNxYd-8vHeZrcgGZV0kJ0yfVhU3P2nmI2fEEkGTPHRPeodWiPXH0C14O7t4Cqz03OHyjcxOA-5sXTBLYQxhXFWCauwhp1ySS8g4PJuIVOHpNAusH3nsS7zAeVyMHseM4rFrUfcX2tepLqUSAHpBGuQUpfX7-l-e_RR_bBZ14Z5koE6v6L9CDiE1dsOKVGbpYshlSEHa83um4WHH2nHrVwDgfgxlKtfjHKsVek35PkaN8y3JpPiffT_KKFM1qIePyWe2MnKTQkqMpiLT3R8du1t3zjnJEcvATew8Ldb_pfcwmYIrlRHpU0L199njWsMGzoMY43UqVeMvoaNPEx7kEhB5qSS5Gqhs1G-RS42xotO2jlexQrXKqTXsEMX1qsA41bp", "width": 1600}], "place_id": "ChIJpY3Fq2SZQQ0RXIyoy5NIPtU", "plus_code": {"compound_code": "F234+VV Villanueva de la Cañada, Spain", "global_code": "8CGRF234+VV"}, "reference": "ChIJpY3Fq2SZQQ0RXIyoy5NIPtU", "scope": "GOOGLE", "types": ["point_of_interest", "school", "establishment"], "vicinity": "Calle Polideportivo, Villanueva de la Cañada"}, {"business_status": "OPERATIONAL", "geometry": {"location": {"lat": 40.45571169999999, "lng": -3.993208600000001}, "viewport": {"northeast": {"lat": 40.4571344302915, "lng": -3.991860969708498}, "southwest": {"lat": 40.4544364697085, "lng": -3.994558930291503}}}, "icon": "https://maps.gstatic.com/mapfiles/place_api/icons/v1/png_71/school-71.png", "icon_background_color": "#7B9EB0", "icon_mask_base_uri": "https://maps.gstatic.com/mapfiles/place_api/icons/v2/school_pinlet", "international_phone_number": "+34 918 15 74 73", "name": "Secondary School las Encinas", "opening_hours": {"open_now": false}, "photos": [{"height": 3120, "html_attributions": ["<a href=\"https://maps.google.com/maps/contrib/103148476263432993595\">Esther C.</a>"], "photo_reference": "AWn5SU4vZbfs_8bxctTBez1HOZPidvVrSiaNMTkPuYoY5OEyub6qNlgDHxyy-iqfSv4po-PVdbS6B3EIUn6laBr-eokfJpJ8_To6UC8Nk09HBYMbuWByzmR5Cw8i0PrfaB4OFxmauqhN6PocC1eZigscd_450znM2pckR9SlLZZTpu_ECbgZQ2C5FtWGvgpEcZeX3WuKnKU3BPUNr3-m1EJZshVd54boFrz9CJV9KoRvtmXNTJIqYvSCcGywA_4NBhpGG3RJ6D75Dc5qD8gfG3SZs1_Zhk3l3Ay3WhSfG_KaUy5oR3BOPTEvYs0qTbbOrKl9iK4DZbqSU0WbMLymWSEqSodqTUuDjBeP30jKx3QmFcGG-HGWY2XEcvmSeZ57nkCGgmsSCUEOtqOeyCp4BNHxe_L_bh-imjxfoPKqvCvDqGrA8ZY7ZYykS_8z25nbJUi45X9zIlnb1bPnvwXTxceIrt0hr-q_vvM7lAca645HLLdzVbAvgNokB5LhelfSzRLnJLVll9HKP6Cev7ED_bfmNeJno82dO_0nFbdhUj1CJJzlIG_SzEUL1xaD75phnETL5heWRN8UC1dJJqyfrRYgn6oiRb2JaUKqqZSumtVzsL8zV1WeXoa6qrPw2FM7mLbADVAxXQ", "width": 4160}], "place_id": "ChIJ59rsnWSZQQ0Rmm7M9PU44wM", "plus_code": {"compound_code": "F244+7P Villanueva de la Cañada, Spain", "global_code": "8CGRF244+7P"}, "reference": "ChIJ59rsnWSZQQ0Rmm7M9PU44wM", "scope": "GOOGLE", "types": ["secondary_school", "point_of_interest", "school", "establishment"], "vicinity": "Avenida Mirasierra, 8, Villanueva de la Cañada"}]