[{"business_status": "OPERATIONAL", "geometry": {"location": {"lat": 40.51146, "lng": -4.2954}, "viewport": {"northeast": {"lat": 40.51278043029151, "lng": -4.294054669708498}, "southwest": {"lat": 40.51008246970851, "lng": -4.296752630291502}}}, "icon": "https://maps.gstatic.com/mapfiles/place_api/icons/v1/png_71/generic_business-71.png", "icon_background_color": "#7B9EB0", "icon_mask_base_uri": "https://maps.gstatic.com/mapfiles/place_api/icons/v2/generic_pinlet", "name": "Pza.España-Ayuntamiento", "place_id": "ChIJ4WWf3nSpQQ0Rjzyw7QJOhtE", "plus_code": {"compound_code": "GP63+HR Valdemaqueda, Spain", "global_code": "8CGQGP63+HR"}, "reference": "ChIJ4WWf3nSpQQ0Rjzyw7QJOhtE", "scope": "GOOGLE", "types": ["transit_station", "point_of_interest", "establishment"], "vicinity": "Spain"}, {"business_status": "OPERATIONAL", "geometry": {"location": {"lat": 40.51138, "lng": -4.29535}, "viewport": {"northeast": {"lat": 40.51271343029149, "lng": -4.294002969708497}, "southwest": {"lat": 40.5100154697085, "lng": -4.296700930291502}}}, "icon": "https://maps.gstatic.com/mapfiles/place_api/icons/v1/png_71/generic_business-71.png", "icon_background_color": "#7B9EB0", "icon_mask_base_uri": "https://maps.gstatic.com/mapfiles/place_api/icons/v2/generic_pinlet", "name": "Pza.España-Ayuntamiento", "place_id": "ChIJBa-S3HSpQQ0RZ9KQjMT3z4M", "plus_code": {"compound_code": "GP63+HV Valdemaqueda, Spain", "global_code": "8CGQGP63+HV"}, "rating": 4, "reference": "ChIJBa-S3HSpQQ0RZ9KQjMT3z4M", "scope": "GOOGLE", "types": ["transit_station", "point_of_interest", "establishment"], "user_ratings_total": 1, "vicinity": "Spain"}, {"business_status": "OPERATIONAL", "geometry": {"location": {"lat": 40.51189, "lng": -4.3006}, "viewport": {"northeast": {"lat": 40.5132458802915, "lng": -4.299246369708498}, "southwest": {"lat": 40.5105479197085, "lng": -4.301944330291502}}}, "icon": "https://maps.gstatic.com/mapfiles/place_api/icons/v1/png_71/generic_business-71.png", "icon_background_color": "#7B9EB0", "icon_mask_base_uri": "https://maps.gstatic.com/mapfiles/place_api/icons/v2/generic_pinlet", "name": "Trva.Dos de Mayo-Ermita", "place_id": "ChIJI4k-fXapQQ0RwdkkmXO6UuY", "plus_code": {"compound_code": "GM6X+QQ Valdemaqueda, Spain", "global_code": "8CGQGM6X+QQ"}, "rating": 5, "reference": "ChIJI4k-fXapQQ0RwdkkmXO6UuY", "scope": "GOOGLE", "types": ["transit_station", "point_of_interest", "establishment"], "user_ratings_total": 1, "vicinity": "Spain"}, {"business_status": "OPERATIONAL", "geometry": {"location": {"lat": 40.51199999999999, "lng": -4.300789999999999}, "viewport": {"northeast": {"lat": 40.51331233029149, "lng": -4.299437919708497}, "southwest": {"lat": 40.51061436970849, "lng": -4.302135880291502}}}, "icon": "https://maps.gstatic.com/mapfiles/place_api/icons/v1/png_71/generic_business-71.png", "icon_background_color": "#7B9EB0", "icon_mask_base_uri": "https://maps.gstatic.com/mapfiles/place_api/icons/v2/generic_pinlet", "name": "Trva.Dos de Mayo-Ermita", "place_id": "ChIJ9we-fHapQQ0R0W7omKQSbg8", "plus_code": {"compound_code": "GM6X+RM Valdemaqueda, Spain", "global_code": "8CGQGM6X+RM"}, "reference": "ChIJ9we-fHapQQ0R0W7omKQSbg8", "scope": "GOOGLE", "types": ["transit_station", "point_of_interest", "establishment"], "vicinity": "Spain"}, {"business_status": "OPERATIONAL", "geometry": {"location": {"lat": 40.50982239999999, "lng": -4.289749899999999}, "viewport": {"northeast": {"lat": 40.5111982302915, "lng": -4.288389019708498}, "southwest": {"lat": 40.5085002697085, "lng": -4.291086980291503}}}, "icon": "https://maps.gstatic.com/mapfiles/place_api/icons/v1/png_71/generic_business-71.png", "icon_background_color": "#7B9EB0", "icon_mask_base_uri": "https://maps.gstatic.com/mapfiles/place_api/icons/v2/generic_pinlet", "name": "Trva.Dos de Mayo-Colonia Santa Ana", "place_id": "ChIJKVNIqw6pQQ0RrXuUT1x4_tQ", "plus_code": {"compound_code": "GP56+W4 Valdemaqueda, Spain", "global_code": "8CGQGP56+W4"}, "reference": "ChIJKVNIqw6pQQ0RrXuUT1x4_tQ", "scope": "GOOGLE", "types": ["transit_station", "point_of_interest", "establishment"], "vicinity": "Spain"}, {"business_status": "OPERATIONAL", "geometry": {"location": {"lat": 40.5097393, "lng": -4.2891225}, "viewport": {"northeast": {"lat": 40.5110816802915, "lng": -4.287777119708498}, "southwest": {"lat": 40.5083837197085, "lng": -4.290475080291502}}}, "icon": "https://maps.gstatic.com/mapfiles/place_api/icons/v1/png_71/generic_business-71.png", "icon_background_color": "#7B9EB0", "icon_mask_base_uri": "https://maps.gstatic.com/mapfiles/place_api/icons/v2/generic_pinlet", "name": "Trva.Dos de Mayo-Colonia Santa Ana", "photos": [{"height": 4000, "html_attributions": ["<a href=\"https://maps.google.com/maps/contrib/108717692692300947496\">Oskitar HAz</a>"], "photo_reference": "AWn5SU7ABZejrJOImvpCsei1bLb3Z5mMop5KGL1uSkfAjfMP5Fm_gnI9vRmKmDvVQNRhdd6QbJjn3IhD44jdw0KxEGfi99dypIWL0qJsi6Xd-AC6JHExeecC13JpKzGQ2LiPttT1rrvSLO7IUjdwtGX5mIMPExWdOd6QadzLYmWyIvgDJjZ4f6jy5Z7yXlkHD17O6-h2KMIoW2sbBwmcSBY2m7FjuxUcxcCNu6GsUxEZUQwRMkfaVgjuiUxbsQmaCYUSrs68DTdgt4kp3U7ZKjP1jZyteqlyQ8Ms1tq_JX30KPNdKLa6GHy1HvA5yRo9bF4UqjjU_LrPeBBik4UkS39egTYyiZsG1bmsFFv1MhPS-jHjSWeQtZ-m1hfcbuGDpk8kzKHDTuuPwajh4F3PBODLXeaXfaZx-47FgM64Q5pTczeDvbVlItTPo_8ibYdepMSb3sw1wIJQLkVw_xRl5F_RUW1I6MSuZ3KRukJ6nf-ly_xclGEgxdDIMGzV-sVmzj8sfssCmfVsfJOSk8C4dQiFhUtMRQOPImAfiafXgidolYs8E6jdNHwFW10zRSY9zXXVhbmacP3enSRvBZJFySTDsVlBoKH4mt2uWGE4eGUgG_jcrDEY0qiC52O0xZBqSq2Vu5xnpA", "width": 1848}], "place_id": "ChIJh01dSwmpQQ0ROaJQlpkcRJA", "plus_code": {"compound_code": "GP56+V9 Valdemaqueda, Spain", "global_code": "8CGQGP56+V9"}, "reference": "ChIJh01dSwmpQQ0ROaJQlpkcRJA", "scope": "GOOGLE", "types": ["transit_station", "point_of_interest", "establishment"], "vicinity": "Spain"}, {"business_status": "OPERATIONAL", "geometry": {"location": {"lat": 40.5121039, "lng": -4.303142199999999}, "viewport": {"northeast": {"lat": 40.5134852302915, "lng": -4.301786419708497}, "southwest": {"lat": 40.5107872697085, "lng": -4.304484380291502}}}, "icon": "https://maps.gstatic.com/mapfiles/place_api/icons/v1/png_71/generic_business-71.png", "icon_background_color": "#7B9EB0", "icon_mask_base_uri": "https://maps.gstatic.com/mapfiles/place_api/icons/v2/generic_pinlet", "name": "Trva.Dos De Mayo-Pilas", "photos": [{"height": 3264, "html_attributions": ["<a href=\"https://maps.google.com/maps/contrib/107692359862504738497\">Miguel Vidal</a>"], "photo_reference": "AWn5SU4xMQmNLZ2M-eMx21sA5P_X8KClBEjpTsSrICDCPaAHKgX_jPdiPeaFFHMeo5NkBaeED7Rv_7NnsALFcpCgFTu0Qhw8QKon5YF_ePpVkpXlMh53Stmtgxt1PM8RDNRJHNs1E4Nhm8OPyMi_wf5Dh1Aiz0AZlsmNa99r7JpQdA3j7LpIdKypW1ogiLaxdUd9IiHOe9iAmwnCh9e0LKsx5ExUCjO2KGXb79ZFd8L5sRIyzQVgLUmx6FEefNoE4npUKKWCvtNfQHSxqqjQPjrgx0OiuRoTimirzkyVrP1TAQYk4d9UdV_iF0yFO08Xqpx3ETnmY_SvJEbNE4vMqWy-p0MOihl1jiYbrpdx0DBmyEbWV7JOKRuOmT6OdI84SL30p6ocTz-8r2cMPluAUNzjOo7oCm1bO8B_MIiVP9WNKPOOydneWEtmS2-t-JfNdKAWfEwXA0tAW5LO971CMaaXN5q586i6Xe8_CdlNFY_mj_UZYTAJ7LYMNlQV36Xc-sZ7OthirU2agHf0pBtEv-JJrbtEOl_0eBlIyVJytmqF8qGGSYTz_PiBWfAtbcEfhovAlMrZP8MQ58UjfcRo086l0W0fs7CQyrR3yplnuoPemSQp_NXCQUl7kr5veQTwc3Q2xVnMIQ", "width": 2448}], "place_id": "ChIJG7Ohr3epQQ0RlGxjnVa9ey0", "plus_code": {"compound_code": "GM6W+RP Valdemaqueda, Spain", "global_code": "8CGQGM6W+RP"}, "rating": 5, "reference": "ChIJG7Ohr3epQQ0RlGxjnVa9ey0", "scope": "GOOGLE", "types": ["transit_station", "point_of_interest", "establishment"], "user_ratings_total": 1, "vicinity": "Spain"}, {"business_status": "OPERATIONAL", "geometry": {"location": {"lat": 40.51220319999999, "lng": -4.3031921}, "viewport": {"northeast": {"lat": 40.5135080302915, "lng": -4.301852419708498}, "southwest": {"lat": 40.5108100697085, "lng": -4.304550380291502}}}, "icon": "https://maps.gstatic.com/mapfiles/place_api/icons/v1/png_71/generic_business-71.png", "icon_background_color": "#7B9EB0", "icon_mask_base_uri": "https://maps.gstatic.com/mapfiles/place_api/icons/v2/generic_pinlet", "name": "Trva.Dos de Mayo-Pilas", "place_id": "ChIJ4ZDtr3epQQ0RdVK6SUKXYI8", "plus_code": {"compound_code": "GM6W+VP Valdemaqueda, Spain", "global_code": "8CGQGM6W+VP"}, "reference": "ChIJ4ZDtr3epQQ0RdVK6SUKXYI8", "scope": "GOOGLE", "types": ["transit_station", "point_of_interest", "establishment"], "vicinity": "Spain"}, {"business_status": "OPERATIONAL", "geometry": {"location": {"lat": 40.5121002, "lng": -4.3036151}, "viewport": {"northeast": {"lat": 40.5134778802915, "lng": -4.302260719708498}, "southwest": {"lat": 40.5107799197085, "lng": -4.304958680291502}}}, "icon": "https://maps.gstatic.com/mapfiles/place_api/icons/v1/png_71/generic_business-71.png", "icon_background_color": "#7B9EB0", "icon_mask_base_uri": "https://maps.gstatic.com/mapfiles/place_api/icons/v2/generic_pinlet", "name": "Trva.Dos de Mayo-Av.Del Pinar", "place_id": "ChIJ1-pzo3epQQ0Rw_dxj3k8UO4", "plus_code": {"compound_code": "GM6W+RH Valdemaqueda, Spain", "global_code": "8CGQGM6W+RH"}, "reference": "ChIJ1-pzo3epQQ0Rw_dxj3k8UO4", "scope": "GOOGLE", "types": ["transit_station", "point_of_interest", "establishment"], "vicinity": "Spain"}, {"business_status": "OPERATIONAL", "geometry": {"location": {"lat": 40.5080565, "lng": -4.277606599999999}, "viewport": {"northeast": {"lat": 40.5093773302915, "lng": -4.276249569708497}, "southwest": {"lat": 40.5066793697085, "lng": -4.278947530291502}}}, "icon": "https://maps.gstatic.com/mapfiles/place_api/icons/v1/png_71/generic_business-71.png", "icon_background_color": "#7B9EB0", "icon_mask_base_uri": "https://maps.gstatic.com/mapfiles/place_api/icons/v2/generic_pinlet", "name": "Ctra.M537-Colonia del Río", "place_id": "ChIJiS7rWwKpQQ0RMQm0XIPiNXE", "plus_code": {"compound_code": "GP5C+6X Valdemaqueda, Spain", "global_code": "8CGQGP5C+6X"}, "reference": "ChIJiS7rWwKpQQ0RMQm0XIPiNXE", "scope": "GOOGLE", "types": ["transit_station", "point_of_interest", "establishment"], "vicinity": "Spain"}, {"business_status": "OPERATIONAL", "geometry": {"location": {"lat": 40.50732, "lng": -4.27539}, "viewport": {"northeast": {"lat": 40.5086682802915, "lng": -4.274042269708498}, "southwest": {"lat": 40.5059703197085, "lng": -4.276740230291503}}}, "icon": "https://maps.gstatic.com/mapfiles/place_api/icons/v1/png_71/generic_business-71.png", "icon_background_color": "#7B9EB0", "icon_mask_base_uri": "https://maps.gstatic.com/mapfiles/place_api/icons/v2/generic_pinlet", "name": "Ctra.M537-Colonia del Río", "place_id": "ChIJvcqNiwKpQQ0RrFCf2tMMX2I", "plus_code": {"compound_code": "GP4F+WR La Estación, Spain", "global_code": "8CGQGP4F+WR"}, "reference": "ChIJvcqNiwKpQQ0RrFCf2tMMX2I", "scope": "GOOGLE", "types": ["transit_station", "point_of_interest", "establishment"], "vicinity": "Spain"}, {"business_status": "OPERATIONAL", "geometry": {"location": {"lat": 40.5158997, "lng": -4.2597697}, "viewport": {"northeast": {"lat": 40.5172822802915, "lng": -4.258409919708498}, "southwest": {"lat": 40.5145843197085, "lng": -4.261107880291503}}}, "icon": "https://maps.gstatic.com/mapfiles/place_api/icons/v1/png_71/generic_business-71.png", "icon_background_color": "#7B9EB0", "icon_mask_base_uri": "https://maps.gstatic.com/mapfiles/place_api/icons/v2/generic_pinlet", "name": "Amistad-Av.Central", "place_id": "ChIJfQQxp1ioQQ0R8WBW6l-2P7g", "plus_code": {"compound_code": "GP8R+93 La Estación, Spain", "global_code": "8CGQGP8R+93"}, "reference": "ChIJfQQxp1ioQQ0R8WBW6l-2P7g", "scope": "GOOGLE", "types": ["transit_station", "point_of_interest", "establishment"], "vicinity": "Spain"}, {"business_status": "OPERATIONAL", "geometry": {"location": {"lat": 40.51862, "lng": -4.25963}, "viewport": {"northeast": {"lat": 40.5199707802915, "lng": -4.258293819708498}, "southwest": {"lat": 40.5172728197085, "lng": -4.260991780291502}}}, "icon": "https://maps.gstatic.com/mapfiles/place_api/icons/v1/png_71/generic_business-71.png", "icon_background_color": "#7B9EB0", "icon_mask_base_uri": "https://maps.gstatic.com/mapfiles/place_api/icons/v2/generic_pinlet", "name": "Navas-Pinos", "place_id": "ChIJ6T-0JVmoQQ0R_CqMjV-2nFU", "plus_code": {"compound_code": "GP9R+C4 La Estación, Spain", "global_code": "8CGQGP9R+C4"}, "reference": "ChIJ6T-0JVmoQQ0R_CqMjV-2nFU", "scope": "GOOGLE", "types": ["transit_station", "point_of_interest", "establishment"], "vicinity": "Spain"}, {"business_status": "OPERATIONAL", "geometry": {"location": {"lat": 40.5207521, "lng": -4.255632599999999}, "viewport": {"northeast": {"lat": 40.5221039802915, "lng": -4.254262769708498}, "southwest": {"lat": 40.5194060197085, "lng": -4.256960730291502}}}, "icon": "https://maps.gstatic.com/mapfiles/place_api/icons/v1/png_71/generic_business-71.png", "icon_background_color": "#7B9EB0", "icon_mask_base_uri": "https://maps.gstatic.com/mapfiles/place_api/icons/v2/generic_pinlet", "name": "Navas-arroyo", "place_id": "ChIJV4AyeF6oQQ0RDW6mgkpcld4", "plus_code": {"compound_code": "GPCV+8P La Estación, Spain", "global_code": "8CGQGPCV+8P"}, "reference": "ChIJV4AyeF6oQQ0RDW6mgkpcld4", "scope": "GOOGLE", "types": ["transit_station", "point_of_interest", "establishment"], "vicinity": "Spain"}, {"business_status": "OPERATIONAL", "geometry": {"location": {"lat": 40.5208213, "lng": -4.2535102}, "viewport": {"northeast": {"lat": 40.5221404802915, "lng": -4.252165619708497}, "southwest": {"lat": 40.5194425197085, "lng": -4.254863580291501}}}, "icon": "https://maps.gstatic.com/mapfiles/place_api/icons/v1/png_71/generic_business-71.png", "icon_background_color": "#7B9EB0", "icon_mask_base_uri": "https://maps.gstatic.com/mapfiles/place_api/icons/v2/generic_pinlet", "name": "Miguel Cervantes-Luis Góngora", "place_id": "ChIJQXqfq2CoQQ0REJjG6EeDUEc", "plus_code": {"compound_code": "GPCW+8H La Estación, Spain", "global_code": "8CGQGPCW+8H"}, "reference": "ChIJQXqfq2CoQQ0REJjG6EeDUEc", "scope": "GOOGLE", "types": ["transit_station", "point_of_interest", "establishment"], "vicinity": "Spain"}, {"business_status": "OPERATIONAL", "geometry": {"location": {"lat": 40.51183, "lng": -4.251699999999999}, "viewport": {"northeast": {"lat": 40.51318278029149, "lng": -4.250340019708498}, "southwest": {"lat": 40.51048481970849, "lng": -4.253037980291502}}}, "icon": "https://maps.gstatic.com/mapfiles/place_api/icons/v1/png_71/generic_business-71.png", "icon_background_color": "#7B9EB0", "icon_mask_base_uri": "https://maps.gstatic.com/mapfiles/place_api/icons/v2/generic_pinlet", "name": "Av.Central-Fuente Águila", "place_id": "ChIJQa2ocYuoQQ0R4ofdtFCbMCA", "plus_code": {"compound_code": "GP6X+P8 La Estación, Spain", "global_code": "8CGQGP6X+P8"}, "reference": "ChIJQa2ocYuoQQ0R4ofdtFCbMCA", "scope": "GOOGLE", "types": ["transit_station", "point_of_interest", "establishment"], "vicinity": "Spain"}, {"business_status": "OPERATIONAL", "geometry": {"location": {"lat": 40.5126056, "lng": -4.239077399999999}, "viewport": {"northeast": {"lat": 40.51394493029149, "lng": -4.237736519708498}, "southwest": {"lat": 40.51124696970849, "lng": -4.240434480291502}}}, "icon": "https://maps.gstatic.com/mapfiles/place_api/icons/v1/png_71/generic_business-71.png", "icon_background_color": "#7B9EB0", "icon_mask_base_uri": "https://maps.gstatic.com/mapfiles/place_api/icons/v2/generic_pinlet", "name": "Ctra M-512 (El Escorial) N 13", "place_id": "ChIJLeqOt4aoQQ0RNTpPN3gjrLM", "plus_code": {"compound_code": "GQ76+29 La Estación, Spain", "global_code": "8CGQGQ76+29"}, "reference": "ChIJLeqOt4aoQQ0RNTpPN3gjrLM", "scope": "GOOGLE", "types": ["transit_station", "point_of_interest", "establishment"], "vicinity": "Spain"}, {"business_status": "OPERATIONAL", "geometry": {"location": {"lat": 40.50929, "lng": -4.2457}, "viewport": {"northeast": {"lat": 40.5106531802915, "lng": -4.244354269708498}, "southwest": {"lat": 40.5079552197085, "lng": -4.247052230291502}}}, "icon": "https://maps.gstatic.com/mapfiles/place_api/icons/v1/png_71/generic_business-71.png", "icon_background_color": "#7B9EB0", "icon_mask_base_uri": "https://maps.gstatic.com/mapfiles/place_api/icons/v2/generic_pinlet", "name": "Av.Central-Almenara", "place_id": "ChIJ96w8BY-oQQ0REAud57axIKg", "plus_code": {"compound_code": "GQ53+PP La Estación, Spain", "global_code": "8CGQGQ53+PP"}, "reference": "ChIJ96w8BY-oQQ0REAud57axIKg", "scope": "GOOGLE", "types": ["transit_station", "point_of_interest", "establishment"], "vicinity": "Spain"}, {"business_status": "OPERATIONAL", "geometry": {"location": {"lat": 40.5179863, "lng": -4.246171}, "viewport": {"northeast": {"lat": 40.51933323029149, "lng": -4.244814769708498}, "southwest": {"lat": 40.51663526970849, "lng": -4.247512730291502}}}, "icon": "https://maps.gstatic.com/mapfiles/place_api/icons/v1/png_71/generic_business-71.png", "icon_background_color": "#7B9EB0", "icon_mask_base_uri": "https://maps.gstatic.com/mapfiles/place_api/icons/v2/generic_pinlet", "name": "Ctra.M512-Félix Bonet", "photos": [{"height": 4608, "html_attributions": ["<a href=\"https://maps.google.com/maps/contrib/106602543735878134346\">José Concepción Garcés Rogert</a>"], "photo_reference": "AWn5SU5Wei2g00G_6Ma8jmKA0S51Qn6gavVG7I0kiESmXW67BBGYhmDYdasVMo7D7p3MLAPzAujpJEDGp4M76kvkJ99KefxEYpPGyIMj42sKpoy9p-HrTwgRIZEjNmkWTvOkrGc4mHzMg2f0pRS0meF42_0WK7VDOSqcgh2Rkzz24hwEya8r20EpbReIL_jbRB7RWO_rNQkpp714DcRgNzTJUjN1fiSA13p4Q-2PLy5GlLJnrgM4TfIEDo7-wyFcgkBiJ-PHMmyyfHfg8ZNSRV8aN80qgptAjzPJGzI8l05rWsQtT9PLX_LGulplZ0jVTz0HXC1iDd6f1nUKCIycihZ0sFWAOiDHE6SNWjN2k8TVKJFLb950etfPdq9w-gGeD-0HZaNBQJSX0b6UFVAklivC9nVp8AW9SBqen7IuZoxDFTEqoupjHL1uBK4E_5RypYuHqIGzLVM3s00YrIOSWqV74pKiviO_qee_P3QV_CEgk3M9DNswKYva2F3QOMXJvCaLAhIl2lU7FPH9Qd3MiGmYnq7Xx1tP7aYF8viJVNypaTws1qwpMGgaGtuw8K523be1pzxKEeyx-I5hUkM2n5o-L7uCPX4sLqyoqa2LyFa4nldQUKOEYiPfgSEpjB5rwlqK", "width": 3456}], "place_id": "ChIJE1eBWGKoQQ0RtfS3BruvIgc", "plus_code": {"compound_code": "GQ93+5G La Estación, Spain", "global_code": "8CGQGQ93+5G"}, "rating": 4, "reference": "ChIJE1eBWGKoQQ0RtfS3BruvIgc", "scope": "GOOGLE", "types": ["transit_station", "point_of_interest", "establishment"], "user_ratings_total": 1, "vicinity": "Spain"}, {"business_status": "OPERATIONAL", "geometry": {"location": {"lat": 40.5207426, "lng": -4.2467671}, "viewport": {"northeast": {"lat": 40.5220719302915, "lng": -4.245439769708498}, "southwest": {"lat": 40.5193739697085, "lng": -4.248137730291502}}}, "icon": "https://maps.gstatic.com/mapfiles/place_api/icons/v1/png_71/train-71.png", "icon_background_color": "#10BDFF", "icon_mask_base_uri": "https://maps.gstatic.com/mapfiles/place_api/icons/v2/train_rail_1_pinlet", "name": "Robledo de Chavela", "photos": [{"height": 3165, "html_attributions": ["<a href=\"https://maps.google.com/maps/contrib/117504731295270372838\">ANGEL MANUEL FERNANDEZ CORRAL</a>"], "photo_reference": "AWn5SU6ACBNdkYMU1spGm4o6lSGJhWx-8nbacaTqD0reZlWtAtQ8Mf-332VWbBva_FwBGI3LaESNVR8Fe68NPQ2yFDJdlKw-rcrXrRUBjqEHi6R3DQBhvnxfN8Mu0-LkIKZ1jpBHHuTBupussxgUbkeQ3orkxxMj1PKSgktTfRX6nVHqSjKd9tY5W-RfL_kwB2LGEjRH48S0s0Zuia4yiVY_IUhZmKIOMU-Ex_pnBGYRxWZ6gdrPNYblDZhoecspjUT38qUySrbRdmO5BlFiK_6K2aO7HVsCYZE-oYQSl-FgAig-nG5Mhk04OdvNg0odf8cCIdgdWGiq_gU0lZSB7CC6sdDF8X6Lx2n_PRq9ro88f95GAMZk6IeizY3AaJvUfUe5ncsuoL3oFE104dEv33_XILJU8xKGhK2YBjnlq2_HWpOwLREP8H_CLPpvy4Z8c7vWSs8ZeYbklMlQeobPjvN3m23h9bs09HNVRgEf_Q5WDCWXbDJ-_O8agpo3E7y_9Uf0Kq1qKIeqE7AtYOkyvG_pIEnBI_NIHtRvdsVeGR5Rd6bj38xx0vmFddr9a8qifajVYCWPHVe0SU8y81mcTyLXQevNcpR5FME1Re42L0q7nchQOoalqyQTZ-8y-wjpV6PmcBLV-A", "width": 4748}], "place_id": "ChIJ1acUhWOoQQ0RI0V8x1OTkYA", "plus_code": {"compound_code": "GQC3+77 La Estación, Spain", "global_code": "8CGQGQC3+77"}, "rating": 4, "reference": "ChIJ1acUhWOoQQ0RI0V8x1OTkYA", "scope": "GOOGLE", "types": ["train_station", "transit_station", "point_of_interest", "establishment"], "user_ratings_total": 22, "vicinity": "Spain"}]