[{"geometry": {"location": {"lat": 40.7990504, "lng": -3.6224135}, "viewport": {"northeast": {"lat": 40.80305888359328, "lng": -3.616576924613461}, "southwest": {"lat": 40.79550924409271, "lng": -3.634551710385104}}}, "icon": "https://maps.gstatic.com/mapfiles/place_api/icons/v1/png_71/geocode-71.png", "icon_background_color": "#7B9EB0", "icon_mask_base_uri": "https://maps.gstatic.com/mapfiles/place_api/icons/v2/generic_pinlet", "name": "Venturada", "photos": [{"height": 1860, "html_attributions": ["<a href=\"https://maps.google.com/maps/contrib/101321764474141234821\">ricardo fernández del Blanco</a>"], "photo_reference": "AWn5SU4IWKUCLWe6ZODnIqxys76unR9ToADkZwplg_8Kbjpr_tKAkJ0jK0i7TqxsE9dm3_05i4F92KbsdtWc8feaLUcjdb8dDkWlY87cqachPaeqD_nq3O-aANdF-lHC-hbjWnGasdvwsDkHcxt3Zw9rjF01znDhJ_kJ1de_B4WIEOc5-U4637iXn8vU_5fUxKTYZZuFNNFOyEpKJD27Owtc2YN7Eyrw7eMrBUUX1Y5qcsB3d_6loenlstfoAjK3S7QptwJHkkaC_DXeUzld_UR89SXSUq4XHeJS9dhwC1wlZ1yd_lSEBqIU_t3gtscpQ04Xp31mLnZcoBd_xKriK5p3RFWwgoNy_yfnv0NIsAtfpOownIJk_xPBnoRFxMnJsmt_4QVx129gub94YTAOBUXWsNz6O4iaVOzDnZQmJCRgNIIhsQvfdWN82WWhBOCc9029j2ikny0n1QaDegwlCEx3nwmGTx25wqPf2XRozZTdkjucPBWd-VwnkWjvKiJoUulDdlT29Lj3DqNoWoecO7Rp2XrtKSIKpADLTvHlngMupeKmmjIkuJJ46jo2ADEvp_G5j9-YNw1-Uqi1Ac0pN4V_5Dy5HjUUdzSIj9tetJipc9WkpaDIPjOKbWE9k9Fmfodq", "width": 4032}], "place_id": "ChIJub_Cw6HbQw0R2Kefa8mBMwo", "reference": "ChIJub_Cw6HbQw0R2Kefa8mBMwo", "scope": "GOOGLE", "types": ["locality", "political"], "vicinity": "Venturada"}, {"business_status": "OPERATIONAL", "geometry": {"location": {"lat": 40.8222939, "lng": -3.6273623}, "viewport": {"northeast": {"lat": 40.82366353029149, "lng": -3.626020619708498}, "southwest": {"lat": 40.82096556970849, "lng": -3.628718580291503}}}, "icon": "https://maps.gstatic.com/mapfiles/place_api/icons/v1/png_71/hospital-71.png", "icon_background_color": "#F88181", "icon_mask_base_uri": "https://maps.gstatic.com/mapfiles/place_api/icons/v2/hospital-H_pinlet", "international_phone_number": "+34 918 43 90 61", "name": "Consultorio Cabanillas", "opening_hours": {"open_now": false}, "photos": [{"height": 1800, "html_attributions": ["<a href=\"https://maps.google.com/maps/contrib/102243648526755885308\">Ana Fuejo</a>"], "photo_reference": "AWn5SU7AdMj8AM_mBbWGBbbnhHsjQrrySlCV5icOBi3O7S4lrq_vkrvn45jsqUF-f42OCWzPrESNzwcof-i7j1IEZKtOmtYhmwPHffs62W9SrgvJQrVs2Rh81LpX3bh-gQN8CroN7LnYEiFIZjibbo9HclatZ4I8nPHy966ynuhtc0Me1vkeGL6A_YjASzU4yuBse-0fcN-FpkjghQErJeCI7n4g5ous95sML7FBHcjRFK7MVzt-d3FF6kWlcEVDewFZ6eksDkKXwFs_xT3JZLDLKeSQOxDypx5-yQZvnI6Hp8yrVu6EyBXELYBgG_lJ2txY1lYnr6M7azZDe7ycj8gYnNxHPFVHuE7IynGR8lwmCjquVdJ-BNVeWZD4KIigKr4_1xKUl8MvyV_qMweJH3MtTcNp-zsCzAnYkwsfvxoViNu8r3AGVboKB5QX7Fx0b2Mxzr6WWix0gmxVAZr6UXgvAjOpH6N-cf-sUvWbuwqeyUmjCG2i3m0sjUUrBroAOSpwewR6a7mecoQt1KvY08hLt9sQUFttRAwE-7M5TlAQwcfSaVY1RWNWcdqsUA_oP29fl4VSTlFqYGCmAPL8HSUJigQb2wyYDEGJ-Txw0TszIBjqeGeUiX1MG5yVUOgy0sK4gXTUzg", "width": 4000}], "place_id": "ChIJp0OetnjcQw0Ra7p7lzkdfW0", "plus_code": {"compound_code": "R9CF+W3 Cabanillas de la Sierra, Spain", "global_code": "8CGRR9CF+W3"}, "rating": 3.3, "reference": "ChIJp0OetnjcQw0Ra7p7lzkdfW0", "scope": "GOOGLE", "types": ["hospital", "point_of_interest", "health", "establishment"], "user_ratings_total": 3, "vicinity": "Calle Nueva, 2, Cabanillas de la Sierra"}, {"business_status": "OPERATIONAL", "geometry": {"location": {"lat": 40.8216295, "lng": -3.627143299999999}, "viewport": {"northeast": {"lat": 40.82313223029149, "lng": -3.625787619708498}, "southwest": {"lat": 40.8204342697085, "lng": -3.628485580291502}}}, "icon": "https://maps.gstatic.com/mapfiles/place_api/icons/v1/png_71/pharmacy-71.png", "icon_background_color": "#F88181", "icon_mask_base_uri": "https://maps.gstatic.com/mapfiles/place_api/icons/v2/pharmacy_pinlet", "international_phone_number": "+34 918 43 92 26", "name": "Farmacia Luis Rodríguez Segura", "opening_hours": {"open_now": false}, "photos": [{"height": 2250, "html_attributions": ["<a href=\"https://maps.google.com/maps/contrib/104914223308540062627\">Farmacia Luis Rodríguez Segura</a>"], "photo_reference": "AWn5SU4U-yR7vjkegpMb70lq4-iuKJaUKMaQwQGt-wflNmnn4knk_6G6U42auE2N5Q201OZUYXTSKOwyFDP_qD3mbH15nP7jWyn6AkNUQ9Zj0elLIlo47JX9evmrS-pzbTFdHUq_umRVYv-o_-nL5RNXGpfAGzBHYZpgsAbn2l_hthGSGe88kiHYFAitGurEZflf1oPILbq4cVhpre0ndWGOc1ISxCyfk8vCeYrxBIxabDC65kVd211UtKEMI2EQu0Td0pjP2A3dwIGm0KouIIfTfynF0NDi__GnrlsHf8y_hnRNP_aqfE73mL81xbATr3ILd5cT4YruVcU", "width": 4000}], "place_id": "ChIJrUs0lYDbQw0RzDtzwUPdhJ0", "plus_code": {"compound_code": "R9CF+M4 Cabanillas de la Sierra, Spain", "global_code": "8CGRR9CF+M4"}, "rating": 4.4, "reference": "ChIJrUs0lYDbQw0RzDtzwUPdhJ0", "scope": "GOOGLE", "types": ["pharmacy", "point_of_interest", "health", "store", "establishment"], "user_ratings_total": 38, "vicinity": "Calle del Cerrillo, 51, Cabanillas de la Sierra"}, {"business_status": "OPERATIONAL", "geometry": {"location": {"lat": 40.8213889, "lng": -3.626388900000001}, "viewport": {"northeast": {"lat": 40.8227434802915, "lng": -3.624997369708498}, "southwest": {"lat": 40.8200455197085, "lng": -3.627695330291502}}}, "icon": "https://maps.gstatic.com/mapfiles/place_api/icons/v1/png_71/bar-71.png", "icon_background_color": "#FF9E67", "icon_mask_base_uri": "https://maps.gstatic.com/mapfiles/place_api/icons/v2/bar_pinlet", "international_phone_number": "+34 918 43 99 01", "name": "Restaurante El Rincón de Cabanillas", "opening_hours": {"open_now": false}, "photos": [{"height": 3024, "html_attributions": ["<a href=\"https://maps.google.com/maps/contrib/108391631821487489386\">José Daniel Valenzuela Villanueva</a>"], "photo_reference": "AWn5SU6FaxqBdunTmugTcw2Rjvvi_oO-NrkL6LbnN30MuMseF-5VIUt6xehqlHNzRcJwr6fSCZidE0e7PBdfmrZ9sb9CFn9AjF0wQpQY-lhq3ghByI6Nd3fWxd1jtW_ByFH-ymxYwa2qa6mRLLlU5PxOmJqIMhgGfHX9IIkLU7KjasNIvYMma6iCEz7_hrK-ZdpoLKBcUzFzc-LnsCFURFQk59Zu1uSq6ukSD-Jfdd1lSsh-E4AkUyMO41LHWFGkcyZDSd7Ce8OHipKQj3HIYC5O9SmoiDmUcwEaPM5bMAZ0l2VZr_Fg4QSdO6SLypX8j1oiyye5-mmMhFheAL5mDem7LEpZbn-JcfeVdFS-Nf4_JKQyz17W2Li7s_pjuVGKDMRJj0zpBIXZ0S1wpaGoI8kZHlyyGhZDoL5fFmijkl_1llYOgCyqU3XZVU3JXK3rsiyosQ9yMqmGiB8OSOJKxBYaj7zE23A8ON-BoUXAxdB4-xqu_g9xGBnN__XSSgclDiJwUcK1IyMJkbQyEKy-_ZHOPcmXcKuyWhMMdA4eBMWE5CPm0ANohptIPTvGAvjQyjg1fsocoRLrYBD37Tdnc-tFInKPIa-9Io1UlEVDPBeRoDR7K1Iubx7iNnguDSEE84YPD0nH0Kq_Ht2jFXyjU2FQ452P-Ak", "width": 4032}], "place_id": "ChIJYVTRUH_cQw0Rfa4ST_dZwf0", "plus_code": {"compound_code": "R9CF+HC Cabanillas de la Sierra, Spain", "global_code": "8CGRR9CF+HC"}, "price_level": 1, "rating": 4.3, "reference": "ChIJYVTRUH_cQw0Rfa4ST_dZwf0", "scope": "GOOGLE", "types": ["bar", "restaurant", "point_of_interest", "food", "establishment"], "user_ratings_total": 242, "vicinity": "Calle Real, 75, Cabanillas de la Sierra"}, {"business_status": "OPERATIONAL", "geometry": {"location": {"lat": 40.81628989999999, "lng": -3.6167146}, "viewport": {"northeast": {"lat": 40.8180307302915, "lng": -3.614849350000001}, "southwest": {"lat": 40.8153327697085, "lng": -3.62231035}}}, "icon": "https://maps.gstatic.com/mapfiles/place_api/icons/v1/png_71/generic_business-71.png", "icon_background_color": "#7B9EB0", "icon_mask_base_uri": "https://maps.gstatic.com/mapfiles/place_api/icons/v2/generic_pinlet", "international_phone_number": "+34 609 14 59 76", "name": "TAUproiecta estudios y servicios, SL", "photos": [{"height": 3120, "html_attributions": ["<a href=\"https://maps.google.com/maps/contrib/117991879938317947115\">Nuria</a>"], "photo_reference": "AWn5SU5LTtXZWSDyE8yg8qio3LHauX442uLRgRHREJKkqSu-TCr6yhOBLGXz9ZYWws4_WXW6vPuDuH4SLOQiMc4chSoCya5qWyAfLb_c9ZMe1XVb3qmTFxs5m8u0tewBJirGCCYpgR5e1PuK2Su61kbQbNWeaUcgTXWRM1FZaHIHYKvq6ZROmsgVH3PSvFOsPvorciJ0AJLQdNOAA5bgjvbedJH9molDg-ttHtHa4XTqDKEdCwRGHVTH5Kh2B5TyEJ-d3AuzMorIHy23O1cWNdFwfT64W1-x4gooU1yCPv6d3LQtL2hRfeNJfFUuF4Jm4ukyZpPn9wPV67qntjrMT11NIr-zWApniBMGIrZmhzhBem7YU_UF8psrnY59uWOXdJdP9hzzYHTWood2VPDo98_UuceOFQpKcrqfNr2pV21aOXnI5MNSGvzX4jZrknA7PyRM27LaoV6cgVr7cuZo9MyDeCwv6LAdwbCI4Rkogx_SHpp7GP6yKrGuwsFu2YH4JEr6UMQdW6KLsOG_UqB70AT5JxbzVtYCnipZ35e5UkoqZDGc0EXGeU103NZa8xR9GY4CLweM8SaotEDS9BVJRJQMGaufZ6b8haz1mWT_aT1yLFyYxYU5VAfzuqbBOuMRWNhxz_bGHQ", "width": 4160}], "place_id": "ChIJ01oFe-ooQg0RWDunLxljSFA", "plus_code": {"compound_code": "R98M+G8 Redueña, Spain", "global_code": "8CGRR98M+G8"}, "rating": 4, "reference": "ChIJ01oFe-ooQg0RWDunLxljSFA", "scope": "GOOGLE", "types": ["point_of_interest", "establishment"], "user_ratings_total": 1, "vicinity": "Redueña"}, {"business_status": "OPERATIONAL", "geometry": {"location": {"lat": 40.821376, "lng": -3.634199999999999}, "viewport": {"northeast": {"lat": 40.8226260302915, "lng": -3.632846019708497}, "southwest": {"lat": 40.8199280697085, "lng": -3.635543980291502}}}, "icon": "https://maps.gstatic.com/mapfiles/place_api/icons/v1/png_71/generic_business-71.png", "icon_background_color": "#7B9EB0", "icon_mask_base_uri": "https://maps.gstatic.com/mapfiles/place_api/icons/v2/generic_pinlet", "international_phone_number": "+34 917 33 32 59", "name": "Laser Park Madrid", "opening_hours": {"open_now": false}, "photos": [{"height": 2448, "html_attributions": ["<a href=\"https://maps.google.com/maps/contrib/104634371592227370145\">pedro gil caballero</a>"], "photo_reference": "AWn5SU58PxP9vzJscP3aPTBYZJ2iGB1aqw-kFf2AzFmskcqj6mXFETNWzC27QDw6Tf9hlWr1V0wfMoWp-Oy8ts6MNpqqtAeRPLqQesHhhhnlHzu_K_KotpnYE32Axj9KqatI6wpmE4yOfJrXFXt0nF-JygtdjlxuT6vB9VVKkBT7uf-kW7-cG60_6tXpjdFqtZvslSSZ67QSdS9xODDLeFd29elTkPLc7ELymTWcT3uvmV8_0WyDZtQWtCKH28LKvMYbArG0JRcTbr8imZPMoYPJ3M8oOiShnO9A0J3BlLun5H6CPH3oS-IEvgjY01gH-SYYxN_MzY7nwrJz2KoH5hs4d1pq4ptKCvCtjQj6GeY72BdQgxSxk9ArSHV2KaX9QC3ad-PGKlbxh6nDmxRrSzZrK7YEmyqEY7Uz73pe_QWDeI0-wau-E__45San7QFoRNS8YWjLoKZIAGiZl9iaoHjxtEVZ2n-MU-tx45Ryme_AYbORStt2PtdId_I16R6jvdWkyZKFafQdhBJCRoGt58dkhehJDX0YLBR0f_dH4Vsn3LIj3jA5sQxP7tTyWNcCkPtQWhOcDul8E-H8pnPfaKpneWFIq8mJZoUcT0n-6Vy8fj3tHmjQfJDaUjeYGrte-NuZ", "width": 3264}], "place_id": "ChIJJQYT0nfcQw0Rj09c3S7Epqo", "plus_code": {"compound_code": "R9C8+H8 Cabanillas de la Sierra, Spain", "global_code": "8CGRR9C8+H8"}, "rating": 3.3, "reference": "ChIJJQYT0nfcQw0Rj09c3S7Epqo", "scope": "GOOGLE", "types": ["point_of_interest", "establishment"], "user_ratings_total": 4, "vicinity": "Carretera de Madrid a Burgos"}, {"business_status": "OPERATIONAL", "geometry": {"location": {"lat": 40.81967899999999, "lng": -3.626656999999999}, "viewport": {"northeast": {"lat": 40.8210284802915, "lng": -3.625299719708497}, "southwest": {"lat": 40.8183305197085, "lng": -3.627997680291502}}}, "icon": "https://maps.gstatic.com/mapfiles/place_api/icons/v1/png_71/generic_business-71.png", "icon_background_color": "#7B9EB0", "icon_mask_base_uri": "https://maps.gstatic.com/mapfiles/place_api/icons/v2/generic_pinlet", "international_phone_number": "+34 647 86 76 16", "name": "Blanco Díaz - ABOGADOS", "place_id": "ChIJ7_tcyoDbQw0RZSm0wHMhLSM", "plus_code": {"compound_code": "R99F+V8 Cabanillas de la Sierra, Spain", "global_code": "8CGRR99F+V8"}, "rating": 5, "reference": "ChIJ7_tcyoDbQw0RZSm0wHMhLSM", "scope": "GOOGLE", "types": ["lawyer", "point_of_interest", "establishment"], "user_ratings_total": 1, "vicinity": "Spain"}, {"business_status": "OPERATIONAL", "geometry": {"location": {"lat": 40.8198758, "lng": -3.626121600000001}, "viewport": {"northeast": {"lat": 40.8212233802915, "lng": -3.624786569708498}, "southwest": {"lat": 40.8185254197085, "lng": -3.627484530291503}}}, "icon": "https://maps.gstatic.com/mapfiles/place_api/icons/v1/png_71/generic_business-71.png", "icon_background_color": "#7B9EB0", "icon_mask_base_uri": "https://maps.gstatic.com/mapfiles/place_api/icons/v2/generic_pinlet", "international_phone_number": "+34 918 43 93 94", "name": "Grupo de Acción Local de la Sierra Norte de Madrid", "place_id": "ChIJcYTAuYDbQw0RXrb7zR6Vqv0", "plus_code": {"compound_code": "R99F+XH Cabanillas de la Sierra, Spain", "global_code": "8CGRR99F+XH"}, "rating": 3.7, "reference": "ChIJcYTAuYDbQw0RXrb7zR6Vqv0", "scope": "GOOGLE", "types": ["point_of_interest", "establishment"], "user_ratings_total": 3, "vicinity": "Calle de las Escuelas, 5, Cabanillas de la Sierra"}, {"business_status": "OPERATIONAL", "geometry": {"location": {"lat": 40.8065289, "lng": -3.625063700000001}, "viewport": {"northeast": {"lat": 40.8078846302915, "lng": -3.623861219708498}, "southwest": {"lat": 40.8051866697085, "lng": -3.626559180291502}}}, "icon": "https://maps.gstatic.com/mapfiles/place_api/icons/v1/png_71/shopping-71.png", "icon_background_color": "#4B96F3", "icon_mask_base_uri": "https://maps.gstatic.com/mapfiles/place_api/icons/v2/shopping_pinlet", "international_phone_number": "+34 609 18 38 71", "name": "Jardinería El Portugués, SL", "opening_hours": {"open_now": false}, "place_id": "ChIJQz-uQJzbQw0Rm6HXWT4oL2k", "plus_code": {"compound_code": "R94F+JX Venturada, Spain", "global_code": "8CGRR94F+JX"}, "rating": 4.2, "reference": "ChIJQz-uQJzbQw0Rm6HXWT4oL2k", "scope": "GOOGLE", "types": ["point_of_interest", "store", "establishment"], "user_ratings_total": 5, "vicinity": "Avenida de Burgos, 14, Venturada"}, {"business_status": "OPERATIONAL", "geometry": {"location": {"lat": 40.8210174, "lng": -3.626217500000001}, "viewport": {"northeast": {"lat": 40.82253128029149, "lng": -3.624850119708498}, "southwest": {"lat": 40.8198333197085, "lng": -3.627548080291502}}}, "icon": "https://maps.gstatic.com/mapfiles/place_api/icons/v1/png_71/generic_business-71.png", "icon_background_color": "#7B9EB0", "icon_mask_base_uri": "https://maps.gstatic.com/mapfiles/place_api/icons/v2/generic_pinlet", "international_phone_number": "+34 600 78 66 30", "name": "Yagüe Fisioterapia y Rehabilitación", "opening_hours": {"open_now": false}, "photos": [{"height": 2448, "html_attributions": ["<a href=\"https://maps.google.com/maps/contrib/108457074172998210617\">Alberto CSC</a>"], "photo_reference": "AWn5SU62EDeqzfnJ0tdwz0G4mHesDq5QulYw0UFil0qWbJyrrFjWVB7eV5cAv5P39q8GcfVw8WHdJK6zg8ZOyupVOMQ0IBYifiKPtC-6Zb3X5FNQIjtXGivOMtuPjLsRcg5yRDKfUfQAWLMLPwyogJp9owdbS6CHnrtCRZPpYGl5DcEGyHEsW0D8_qrrsHv2deWPt6XbfzWWy9aqoZ5id_tdK4Y6FqZQ27hHwyo98UpUmB8qfIgCGfOmLpIvoCRaPfFLNG5Su1XbKuujXATaGlCxH2pWmkN3LbnU79sLsobuT_pt6FHCodA-nHBvV6qANrwWWxj6gTd2RvAfCTiU9aAHb-qZucbnFkBPVAr7FysWopygY-dmPh85m3U9omrTy0GW62CHB-xUBIT3CSRm72Cbr-E-ozhgQWzQazY-OwxyHIWNjZROaqE7m5KnGCnRsv67nusn9-lXuA9Ry79pzRS8yE1EQdPdEAu0Ezhac4UIDFppTDHgGMphB8-5XiJPHoUFMxZ2eZw551nUA8RkonYY8fVW0z7Wh5u7ZnEA2PyRmJ9eJPgHV2iPaAejcQ53R0TRue47K3imlBZSKari4QeMtt3f7DmlurY8KenXmgTU-TDtt7-iKTVSyeuYSMRzyqp-0uZcIg", "width": 3264}], "place_id": "ChIJzQUIqIDbQw0RAs7g67hvpQQ", "plus_code": {"compound_code": "R9CF+CG Cabanillas de la Sierra, Spain", "global_code": "8CGRR9CF+CG"}, "rating": 5, "reference": "ChIJzQUIqIDbQw0RAs7g67hvpQQ", "scope": "GOOGLE", "types": ["point_of_interest", "health", "establishment"], "user_ratings_total": 15, "vicinity": "Calle de la Cuesta, 4, Cabanillas de la Sierra"}, {"business_status": "OPERATIONAL", "geometry": {"location": {"lat": 40.8216745, "lng": -3.6271564}, "viewport": {"northeast": {"lat": 40.82307083029149, "lng": -3.625726819708498}, "southwest": {"lat": 40.82037286970849, "lng": -3.628424780291502}}}, "icon": "https://maps.gstatic.com/mapfiles/place_api/icons/v1/png_71/shopping-71.png", "icon_background_color": "#4B96F3", "icon_mask_base_uri": "https://maps.gstatic.com/mapfiles/place_api/icons/v2/shopping_pinlet", "international_phone_number": "+34 665 87 33 42", "name": "Animaraida", "opening_hours": {"open_now": false}, "photos": [{"height": 2560, "html_attributions": ["<a href=\"https://maps.google.com/maps/contrib/115196172152628411921\">Animaraida</a>"], "photo_reference": "AWn5SU7Oih9qqC9bFavlKqTe9EF40XZHTyk8Wu0d-mhmlErqIhVyyN87_5xAS68FuPDBRAcGr_Ky5_7bFJfRJo8izrpnTp7RI4vg947OrCCtCe_plytWcCntn_mYPYsncDIXmsp8lCUZz2H2SjaG_dFWNC7ZsXwI98xMk-cThqDTy0XDX4DAWTj_bZgOdb7rmV52gztJVgwLej5ie55ZklEePdOXtZgdimsLEHALXVkAqiuUJsEeUp4seKuk3lZmpKd4auq3YInpvbfJSGRQ80Ac6HbMSnCEQEyOoUIcE0ANwS_qAOzqmYDpwgSHtCuVsKKGOlhk5UHMo6XKa0wB0pqLAmWjufC9XqdjnxYq37-FAZLPPXfyfxfaZnr-H-O7hswi4C35XrIeMk_3P74hztKV7530W85Zwp45u_GHT_OCcdkFeipR061-yxCRhe8XILwj047R952K2BBw-3pMVn01mGG6pW7Yc-riuzk5MjHlxFm1grkrC3TS_a6dWhwZjO8GHtQcbvkW497RLyHzzWwoZT4S71cudRcirZKpDPP-zBe06mx__bSj4b_HE83nUzQmm-8nBrFZUEKyPkPe3YLb0H9xQgj-0NeJNwSk52PA6smVyyUNp4P_Wj50-CHGy5nrkwY4Fg", "width": 1920}], "place_id": "ChIJM8YrsnjcQw0RGPlIxahC1Xk", "plus_code": {"compound_code": "R9CF+M4 Cabanillas de la Sierra, Spain", "global_code": "8CGRR9CF+M4"}, "rating": 4.9, "reference": "ChIJM8YrsnjcQw0RGPlIxahC1Xk", "scope": "GOOGLE", "types": ["store", "point_of_interest", "food", "establishment"], "user_ratings_total": 57, "vicinity": "Calle del Cerrillo, 51, Cabanillas de la Sierra"}, {"business_status": "OPERATIONAL", "geometry": {"location": {"lat": 40.8148185, "lng": -3.6218556}, "viewport": {"northeast": {"lat": 40.81615823029149, "lng": -3.620492369708498}, "southwest": {"lat": 40.81346026970849, "lng": -3.623190330291502}}}, "icon": "https://maps.gstatic.com/mapfiles/place_api/icons/v1/png_71/civic_building-71.png", "icon_background_color": "#7B9EB0", "icon_mask_base_uri": "https://maps.gstatic.com/mapfiles/place_api/icons/v2/civic-bldg_pinlet", "international_phone_number": "+34 918 43 95 05", "name": "Legendario Ibérico", "place_id": "ChIJV5dHdYLbQw0RutmuNpd7OxY", "plus_code": {"compound_code": "R97H+W7 Cabanillas de la Sierra, Spain", "global_code": "8CGRR97H+W7"}, "rating": 4.7, "reference": "ChIJV5dHdYLbQw0RutmuNpd7OxY", "scope": "GOOGLE", "types": ["point_of_interest", "food", "establishment"], "user_ratings_total": 3, "vicinity": "Calle del Aliso, 41, Cabanillas de la Sierra"}, {"business_status": "OPERATIONAL", "geometry": {"location": {"lat": 40.82932, "lng": -3.624400000000001}, "viewport": {"northeast": {"lat": 40.8306453302915, "lng": -3.622925719708498}, "southwest": {"lat": 40.8279473697085, "lng": -3.625623680291502}}}, "icon": "https://maps.gstatic.com/mapfiles/place_api/icons/v1/png_71/generic_business-71.png", "icon_background_color": "#7B9EB0", "icon_mask_base_uri": "https://maps.gstatic.com/mapfiles/place_api/icons/v2/generic_pinlet", "international_phone_number": "+34 918 43 94 66", "name": "Mármoles Y Granitos Cabanillas", "opening_hours": {"open_now": false}, "photos": [{"height": 3096, "html_attributions": ["<a href=\"https://maps.google.com/maps/contrib/117820286103753269003\">Susana Garcia</a>"], "photo_reference": "AWn5SU657N_RyL2wQPoiib2mMuMICYg0NaIVLMyvd5jdVvTNQHFcar9zfvSszmuIcwPh4gL743A_QGv_xgy66Fw92yMK72wk-0tk9-ihK3CHX8vhDqoclkyvA1jB8ro3YwsGmI3qFpvS4MkZipKVECqOQE6S7XLBcKQe5Pca4RUQ7GDEc-cyWH8n95yCxx7d2CEc58llwT3_YQdzrx47POhbFUBi_vj2Guxf6RpBuLnVvKMb_o_TSlXWDHkyNdVwe8rZCNrVNzBA4P_fzmMc--h0c1tJQ7Pmk88Banaco9RNEAQFFMwhAzCKz4tRA5qbgP4uDLUNPiqns-WkNEeabqfUvGaY_qNXYxW1c1S0ST1hhQYtGs6V0it0G6ZCzXzXcH_SUDcYUMGTuvDBZJOJ_y8EA6Y-BD8cd4pH58VigNIZHFzrq10wsozPM1A2N7XV0iMQgq3xoOI358k8kh4NV0CaOwL9HV7PEFW1CQnfiS9LwEfJmQ6m7RFLUZEDjXAzV-6BNgsI_GeFq3UYrY6Z_Ey7TLTpDhHJuodZsn_ot_AT_1Lgox7t7JtEFalXW_AJLdYew4KTiag1DSQnrId2Yf7Kg7T_smvYbasPBAJpKJ7lc--kN9vTnmbyaO2SlFjlL_TH", "width": 4128}], "place_id": "ChIJt2HCP3ncQw0RGzXeiLnBZlU", "plus_code": {"compound_code": "R9HG+P6 Cabanillas de la Sierra, Spain", "global_code": "8CGRR9HG+P6"}, "rating": 4.6, "reference": "ChIJt2HCP3ncQw0RGzXeiLnBZlU", "scope": "GOOGLE", "types": ["point_of_interest", "general_contractor", "establishment"], "user_ratings_total": 32, "vicinity": "Avenida de los Arrieros, 34, Cabanillas de la Sierra"}, {"business_status": "OPERATIONAL", "geometry": {"location": {"lat": 40.81632099999999, "lng": -3.6035341}, "viewport": {"northeast": {"lat": 40.8176528802915, "lng": -3.602194269708498}, "southwest": {"lat": 40.81495491970851, "lng": -3.604892230291502}}}, "icon": "https://maps.gstatic.com/mapfiles/place_api/icons/v1/png_71/civic_building-71.png", "icon_background_color": "#7B9EB0", "icon_mask_base_uri": "https://maps.gstatic.com/mapfiles/place_api/icons/v2/civic-bldg_pinlet", "international_phone_number": "+34 918 43 84 07", "name": "Redueña Town Hall", "opening_hours": {"open_now": false}, "photos": [{"height": 4008, "html_attributions": ["<a href=\"https://maps.google.com/maps/contrib/116522339215122585058\">Juan Rubio</a>"], "photo_reference": "AWn5SU5eJ8xI5SBJTgM2nHxBd8XbcWT4zLlA3XgX1LYJhsTUgNqmbKsJStcNdW1sHX7gOr1J3cP69Wgg3BDgl-3bhDW7rDDhbNSt2FapCHgqTAdQMwjkBH0JnzsdrU_-k9Bhb3pJfK8G8R64r2QInY_Q0kcwy_8G4VeipdGlFQ0amG1EHEjvTXKKB3yk6ou7hnDu2ivVK80wRS2GF-FUKtvPPYoEtUJKTzzmWi76xZjmUxAPfrf-_lgLZbkcHDjLSPpHl3SRhuW9uXJNf95M0YqflyGH9Uee7eqUwOR_rpc7VkG3GRAQEkjeYguBG32BVjPI-VmnmEnmjPkresbhP5mR4OJvdSOw6XkG8wRzaSRG-dGsVkn5VCwNbCM0_jqsn5UggnOxqD8VRwSAFdRvkpfET8sQzoQoMiBsR0QCSiU7Gl4QfMwCs7_-d8mI6fw2zCJCcLkWHWGq9SwuLT8nqm3xnVq-h_YQWO3cnoYvcnuQzaESLuiwstNhjtbPMWHJR-l5zlv-D52U-4YrygITSiox9N_aHCUrBe9S3bpRQGTm7akwCe29_znO29vbItWzmQokV-7_pIf7bkSbJ1rA7nzN-RQaRrrZy7znZ6G7vj5ayAz-41u6lZQcrnMWC3vW62rynHdFPJC-agvBdSuJAnebPWfN1vI", "width": 6008}], "place_id": "ChIJtVJ3foDbQw0RxdJSGYDneMY", "plus_code": {"compound_code": "R98W+GH Redueña, Spain", "global_code": "8CGRR98W+GH"}, "rating": 4.6, "reference": "ChIJtVJ3foDbQw0RxdJSGYDneMY", "scope": "GOOGLE", "types": ["city_hall", "local_government_office", "point_of_interest", "establishment"], "user_ratings_total": 14, "vicinity": "Plaza de la Villa, 2, Redueña"}, {"business_status": "OPERATIONAL", "geometry": {"location": {"lat": 40.81637349999999, "lng": -3.6045472}, "viewport": {"northeast": {"lat": 40.8177331802915, "lng": -3.603245019708498}, "southwest": {"lat": 40.8150352197085, "lng": -3.605942980291502}}}, "icon": "https://maps.gstatic.com/mapfiles/place_api/icons/v1/png_71/generic_business-71.png", "icon_background_color": "#7B9EB0", "icon_mask_base_uri": "https://maps.gstatic.com/mapfiles/place_api/icons/v2/generic_pinlet", "international_phone_number": "+34 639 14 89 44", "name": "Tecram", "opening_hours": {"open_now": false}, "photos": [{"height": 270, "html_attributions": ["<a href=\"https://maps.google.com/maps/contrib/100100665761180010515\">Tecram</a>"], "photo_reference": "AWn5SU6Cu6fvyRpJeNT3enc8L1n9dkvBiVDUY6KshVFFVjx4m5y_Z3ROZEnMocYsISmdb59v9tWfqSYWc_X88rrwc7uvhvwBf269p53Rh3JLZxrdYLnKzJeDkzOlYFVxADxQ05GUb4MABT0LIxUrlH6KMFPU_z4HKsX0wLmzIhMPObEioI280TkuIxBCyOMDPUrv6yDGUG0vCQDnyuvI9JS3cmY2D4cqH0hKNSX6GUuyIgm4AuXLzAu1bsGnHkCBulbtleLV4qJcs47SSUUuK8HUuWacSUDn8XebwF_Oq4-wbob_v1Hq4jQG_OtnmmrWn5oLwXf8RPYT", "width": 870}], "place_id": "ChIJzefvFy0qQg0R0WmMWkemzdQ", "plus_code": {"compound_code": "R98W+G5 Redueña, Spain", "global_code": "8CGRR98W+G5"}, "rating": 5, "reference": "ChIJzefvFy0qQg0R0WmMWkemzdQ", "scope": "GOOGLE", "types": ["point_of_interest", "establishment"], "user_ratings_total": 4, "vicinity": "Calle del Olivo, 3, Redueña"}, {"business_status": "OPERATIONAL", "geometry": {"location": {"lat": 40.8167528, "lng": -3.6017578}, "viewport": {"northeast": {"lat": 40.81798313029149, "lng": -3.600437319708497}, "southwest": {"lat": 40.8152851697085, "lng": -3.603135280291502}}}, "icon": "https://maps.gstatic.com/mapfiles/place_api/icons/v1/png_71/worship_general-71.png", "icon_background_color": "#7B9EB0", "icon_mask_base_uri": "https://maps.gstatic.com/mapfiles/place_api/icons/v2/worship_christian_pinlet", "international_phone_number": "+34 918 44 85 03", "name": "Iglesia de San Pedro Advincula", "photos": [{"height": 3096, "html_attributions": ["<a href=\"https://maps.google.com/maps/contrib/103644858766260406648\">Un opinante delirante</a>"], "photo_reference": "AWn5SU6YdOiOp4mYSVar9vTkLC7TU77BncKdAVbo8LHL13Dk5M-BV5Aa5w0lVC2fmCKXfzp4jWMAwDEBNP6IqumaaJ6xPpzvgejWoWcx-iy_kBdy8gUTHoDUQ0EzotzhnDmsrg-2gKLh2DP1CWgt8nbw_GFk9k3TvkW_AMBEBiTAfttmngYx7yWioFflpm2UMUs5bBUWiZpEl7yUhVotbtpq1e2bkfZUToseTI0fQduSSz9ZXdI2RLo34HcyI1FxG9ZK2bQRUdM1C5WIVSwYvEiowWl506Chs5btyLGHiCj0gc3LtyZ7hhBaAzqtjvyUw9upV-HgRPKrISVSvKd9zzTZoiaz38t_slLFiY7r_6MEYBptCsp1DfjXOB06M6Oqd2rIQpaRr1lRhdFO74NOQA5ZsP36Osam8wBW8WlCTIHNOEHPr3sYBPBV9RbcxaMdijp1EKp4HBRJp0MLIthGsv5r0ipZHW3rBjONibKn076M9QeJWGgPT3rjfLuSTxu_lGpqf4oKCNsSYBJqk2t6B9WgreoGuKuRaTY3Uk0ykcw0wAEFhN8omdUMGJQ00WVGLyMxKSJFqUddt6YXi_hjX46v9j74PAE04rzOGtQrx42HjGb3CkIIBlVBzjAYqJWG7pN50ueobA", "width": 4128}], "place_id": "ChIJn7-uTGHbQw0RP44XPxw7p0s", "plus_code": {"compound_code": "R98X+P7 Redueña, Spain", "global_code": "8CGRR98X+P7"}, "rating": 4.6, "reference": "ChIJn7-uTGHbQw0RP44XPxw7p0s", "scope": "GOOGLE", "types": ["church", "place_of_worship", "point_of_interest", "establishment"], "user_ratings_total": 10, "vicinity": "Calle Mayor, 47, Redueña"}, {"business_status": "OPERATIONAL", "geometry": {"location": {"lat": 40.7997029, "lng": -3.6255329}, "viewport": {"northeast": {"lat": 40.8010752302915, "lng": -3.624113519708497}, "southwest": {"lat": 40.7983772697085, "lng": -3.626811480291502}}}, "icon": "https://maps.gstatic.com/mapfiles/place_api/icons/v1/png_71/generic_business-71.png", "icon_background_color": "#7B9EB0", "icon_mask_base_uri": "https://maps.gstatic.com/mapfiles/place_api/icons/v2/generic_pinlet", "international_phone_number": "+34 918 43 94 90", "name": "Residencial Gerontos Venturada", "photos": [{"height": 1600, "html_attributions": ["<a href=\"https://maps.google.com/maps/contrib/101122490023466409215\">Residencial Gerontos Venturada</a>"], "photo_reference": "AWn5SU7Yz51bM6O3rigDI9FA8tIm37Fimg0PF2e2w9d3GqyVgUHJJ4qX6gqD755Yb1iXm3mFTywflupyQ131mOhzEajTtO7N-V4-uRd78gBOz8Ky-Sfr6XXmq5uBbDm25EaKWn138V36iO26a9L6rVGnDbAmyw-3P9MzTGN8SXWTWQ_DG5G7LUrLHFo8uZkAPR79Xr86etVYk2KEffY0HPzrc814Aq_ZadJJLG0vBJwXccWPmHecaugDkJkJ_L6RbW3Xeq0695GeTQg-jUO3LlyO6N4Buw2IATa4QSZ_QQ8RyVoAtv9pBNtHHOcdTKUNZw0vNGlbwcjnyes", "width": 1200}], "place_id": "ChIJi-_hsKHbQw0RWON5OmdjVe4", "plus_code": {"compound_code": "Q9XF+VQ Venturada, Spain", "global_code": "8CGRQ9XF+VQ"}, "rating": 3.8, "reference": "ChIJi-_hsKHbQw0RWON5OmdjVe4", "scope": "GOOGLE", "types": ["point_of_interest", "health", "establishment"], "user_ratings_total": 23, "vicinity": "Avenida de Madrid, 1, BAJO, Venturada"}, {"business_status": "OPERATIONAL", "geometry": {"location": {"lat": 40.79839, "lng": -3.6215974}, "viewport": {"northeast": {"lat": 40.7996920302915, "lng": -3.620259469708498}, "southwest": {"lat": 40.7969940697085, "lng": -3.622957430291502}}}, "icon": "https://maps.gstatic.com/mapfiles/place_api/icons/v1/png_71/generic_business-71.png", "icon_background_color": "#7B9EB0", "icon_mask_base_uri": "https://maps.gstatic.com/mapfiles/place_api/icons/v2/generic_pinlet", "international_phone_number": "+34 650 79 16 74", "name": "Mysteria Designs", "opening_hours": {"open_now": false}, "photos": [{"height": 942, "html_attributions": ["<a href=\"https://maps.google.com/maps/contrib/111839364036619857638\">Mysteria Designs</a>"], "photo_reference": "AWn5SU7pEssiEgWNZPO9qEjxYLx_GDTsp7kcbFBFiQkNrA3zt2MOXIK6gjVLRtVdjxj-or5e_-KdWfgGtWZC6NshWq_N91ptNRm6NRmxHDGcQiuiLK0WywH7KtOduNG3IvKdDyyw-uuhSyWHoeRR5s81WyepCpLQIK0BgnIuRnPEDq7o0KexOVf36K6Vl_nlzzB43qDpR_2FQxEv8FCG8VqcowAO2Fa50bkWr8ZR6s9-fHenMjkiwEH6F_wpEHV8xxn5tbuYRRZshrfWXGnOxqOC3AK46UemKSMC4hA1UFOok0XXzk7x7tb6kbNNTOUc1aWakDdCY2qqzHk", "width": 1675}], "place_id": "ChIJrdFLfgrbQw0RUxfBLw7gBvk", "plus_code": {"compound_code": "Q9XH+99 Venturada, Spain", "global_code": "8CGRQ9XH+99"}, "rating": 4.5, "reference": "ChIJrdFLfgrbQw0RUxfBLw7gBvk", "scope": "GOOGLE", "types": ["point_of_interest", "establishment"], "user_ratings_total": 8, "vicinity": "Calle del Parador, 11C, Venturada"}, {"business_status": "OPERATIONAL", "geometry": {"location": {"lat": 40.7979112, "lng": -3.622020700000001}, "viewport": {"northeast": {"lat": 40.79922523029149, "lng": -3.620759019708498}, "southwest": {"lat": 40.79652726970849, "lng": -3.623456980291503}}}, "icon": "https://maps.gstatic.com/mapfiles/place_api/icons/v1/png_71/shopping-71.png", "icon_background_color": "#4B96F3", "icon_mask_base_uri": "https://maps.gstatic.com/mapfiles/place_api/icons/v2/shopping_pinlet", "international_phone_number": "+34 918 43 91 12", "name": "Imprenta Venturada", "opening_hours": {"open_now": false}, "place_id": "ChIJyxr9fgrbQw0RzHktmZqP72A", "plus_code": {"compound_code": "Q9XH+55 Venturada, Spain", "global_code": "8CGRQ9XH+55"}, "rating": 3.4, "reference": "ChIJyxr9fgrbQw0RzHktmZqP72A", "scope": "GOOGLE", "types": ["book_store", "point_of_interest", "store", "establishment"], "user_ratings_total": 30, "vicinity": "N-1, 6, Venturada"}, {"geometry": {"location": {"lat": 40.8219178, "lng": -3.627714999999999}, "viewport": {"northeast": {"lat": 40.83476793923587, "lng": -3.618180445376176}, "southwest": {"lat": 40.81224744919375, "lng": -3.64300404792393}}}, "icon": "https://maps.gstatic.com/mapfiles/place_api/icons/v1/png_71/geocode-71.png", "icon_background_color": "#7B9EB0", "icon_mask_base_uri": "https://maps.gstatic.com/mapfiles/place_api/icons/v2/generic_pinlet", "name": "Cabanillas de la Sierra", "photos": [{"height": 1504, "html_attributions": ["<a href=\"https://maps.google.com/maps/contrib/101321764474141234821\">ricardo fernández del Blanco</a>"], "photo_reference": "AWn5SU6E5dzuxU7naxMNp9Rmha19_sbsWMt1aKGqeCIif19Ta6UF_CrsT5d7BlQFUEHdOftCbLhE9pAVWBA4TfPJKNs620kSfpkK_VOBqk83XrNCqbg2Sz5w2JRiqdxvdkU3ErsLAztJxaiqj-56XYNKUq77pC5OqZwq2sNxVkoiPX3i-T0S01F2L7qiZxXmzRjUx5CdKVUpzL7XN1zD8QbDySUjv1dBFzWyGZr43vhml4agCnSrm9YD9-i94seduLuu3YCq4O-0diQv_CGiMmTZ6pt9txWbrANmEcqlIj5I-wgd5snmmRlUInv_eG5JS4RXem4NsW7X_JrEUiPPSDpm3DAoE-3V-CnGgjs8T8EI3EdVfcAbcj9m7D8nbLNw9PotbNcq_nBhlqf4cp9evVgC-xc4IozzK6wTPZ-vmkoj5hfz6UWAyLQdqBjYcdjjXBV2-zoGyPqYvPCVkS2g9-3sohrNwxve6D2KPeq0r8LzO8dAU4Q3f8970QOdDXJQM6lbztQlUHxBECHg8LcaqLNf46z2h3-7nAqGJKM83VOsv6XJYaABmXbqqO7rbTZy8nJUJdmP4sZkFyTqJxJa4VVcdeiN_OOXTy-wHI0kl0U_5T-Kml10W5m41OWtGCojPXJ1XvLHBw", "width": 3264}], "place_id": "ChIJjxYR8oHbQw0Re-702MrDYcs", "reference": "ChIJjxYR8oHbQw0Re-702MrDYcs", "scope": "GOOGLE", "types": ["locality", "political"], "vicinity": "Cabanillas de la Sierra"}]