[{"geometry": {"location": {"lat": 40.54502979999999, "lng": -3.4574079}, "viewport": {"northeast": {"lat": 40.55489076152302, "lng": -3.448311239504362}, "southwest": {"lat": 40.54049597820279, "lng": -3.467545043832218}}}, "icon": "https://maps.gstatic.com/mapfiles/place_api/icons/v1/png_71/geocode-71.png", "icon_background_color": "#7B9EB0", "icon_mask_base_uri": "https://maps.gstatic.com/mapfiles/place_api/icons/v2/generic_pinlet", "name": "Daganzo de Arriba", "photos": [{"height": 2448, "html_attributions": ["<a href=\"https://maps.google.com/maps/contrib/114573754530632149142\">Juan Jose Pablos</a>"], "photo_reference": "AWn5SU4ldvdXzEnpaTDKPVS3xKss0LHnbk2nZf7oo3Gh1bqW67aARKi0A4QeoHlApI5VF74NxJ7J8nvnLIrUjTZfcsWT_zU--zBJT8BJvYzc8F6pHafSJESAjO0fNaILC-4ZZi6f6qyN1HoBejG_dkjdJ9-LRzwV9bnwyP1Me8Fd6WLPUy3rUI0y4fYo6YYTlxZhehH-bFiaG-u7hAaTqO7zOuutnsJ_-tEI6m-mkkaLjJstuoQzNXv5HjIz06tdTvOYUSS-9pXf4J5qjH3xAlICuofGPaJHO5GHmBOnFutroCru0xmSDYrvd0LPW0ncOe4NL0uXs2yXTK2NY2KZK4dYsGyuVfPnkCeURgfzPZhmpIJz58Yquan9wfPJzbF3XsNQ259-GKrJ6uxQ-1R9kCfKy8SPFkYndpHnCvAZNzl4iAA5bPLIWFCGtN-3ZKg2jhUAjp0SRxzA48S-wDzfib897wgfqaATkzhEwfyOEiyWLlh-F12wU7y7qnkdWhUQm8yI-yMYshAW1AhoMeeWudBm63MetYJ2F4Ufm9cSkdcpCJ7Gp4dVCuHGQTcGT-dA1DCyS8gy0aP-IRJJ5IfznvJmvqBl9ag7a_i3X6bGS8gnUV51Z7dB5jdCzwygMRWdnkOg0Z9ZZ6Nq", "width": 3264}], "place_id": "ChIJxU4G-f00Qg0RqZUXbdRRBVk", "reference": "ChIJxU4G-f00Qg0RqZUXbdRRBVk", "scope": "GOOGLE", "types": ["locality", "political"], "vicinity": "Daganzo de Arriba"}, {"business_status": "OPERATIONAL", "geometry": {"location": {"lat": 40.5434203, "lng": -3.4584458}, "viewport": {"northeast": {"lat": 40.5447694802915, "lng": -3.456998369708498}, "southwest": {"lat": 40.5420715197085, "lng": -3.459696330291502}}}, "icon": "https://maps.gstatic.com/mapfiles/place_api/icons/v1/png_71/bank-71.png", "icon_background_color": "#909CE1", "icon_mask_base_uri": "https://maps.gstatic.com/mapfiles/place_api/icons/v2/bank-intl_pinlet", "international_phone_number": "+34 918 78 23 00", "name": "BBVA", "opening_hours": {"open_now": false}, "photos": [{"height": 720, "html_attributions": ["<a href=\"https://maps.google.com/maps/contrib/112837948615594447003\">BBVA</a>"], "photo_reference": "AWn5SU6-lplu19CR3LeBj4ILuyu6DpUxv3uPz_0mhib_5w1lTIhXsDa6dfzdBtqxDq757uRhWhCLB5cLj5hlRoTI2hgNv8CzjFJcUKNciVRDclUEfosD6xhGoU3jHogN9jGjjA6Wtr1xC2teecRGvqN_980CPfBpfs0esvCXKpOGy_-SWDXS2TPO18eusWXi0PmbdZ_wGlViogUHx_jAX-41IMW_j2r0NlnnPqh5Dah8PFBGWCfTFo18iSdetEi1EXL-jFvaSSciXVXFYp2mvp4Am-Ktq5XKzStLiS6zm_jBwg-ne-RLZDisDsSNA2h68ucW0zF8efbK", "width": 1280}], "place_id": "ChIJBa3ScQA1Qg0RmEjiQiOpbi4", "plus_code": {"compound_code": "GGVR+9J Daganzo de Arriba, Spain", "global_code": "8CGRGGVR+9J"}, "rating": 3.2, "reference": "ChIJBa3ScQA1Qg0RmEjiQiOpbi4", "scope": "GOOGLE", "types": ["bank", "atm", "accounting", "finance", "point_of_interest", "establishment"], "user_ratings_total": 23, "vicinity": "Glorieta de Alcala, 2, Daganzo de Arriba"}, {"business_status": "OPERATIONAL", "geometry": {"location": {"lat": 40.53378799999999, "lng": -3.4789378}, "viewport": {"northeast": {"lat": 40.5351686802915, "lng": -3.477620769708498}, "southwest": {"lat": 40.5324707197085, "lng": -3.480318730291502}}}, "icon": "https://maps.gstatic.com/mapfiles/place_api/icons/v1/png_71/bank-71.png", "icon_background_color": "#909CE1", "icon_mask_base_uri": "https://maps.gstatic.com/mapfiles/place_api/icons/v2/bank-intl_pinlet", "international_phone_number": "+34 918 84 30 56", "name": "Banco Sabadell", "opening_hours": {"open_now": false}, "photos": [{"height": 1080, "html_attributions": ["<a href=\"https://maps.google.com/maps/contrib/102532124654482654371\">Banco Sabadell</a>"], "photo_reference": "AWn5SU4QvwLmchK57U9DH5HarnbaEpuK-DtAnQuYYsH_dMXfSCHCCEK9hAoGAlrW6-uUKVs8ISVYUk3ByGhvlt3_MVEcEhEoNobq00cvuqvurPlZwY9gNGUTgohujXqNt-6O1NswUK_s3qo670qNBdRHOcSDLahtqEfKlZmrcbGdsFDTPZvQrvjO4BWVOFeAzOHBefgeDjPisGhaOpzuY7uqv_wSVV5Idr-G4NPw7MNYq53SEoQjCwnqlIMeZWYq38zNkA4HXFboRN9zr-BPaGwzKgdsb_TDi4-ngpC7UdGCC9a5HD_72YQsZ9WUZg70qweb6HTKqB4Xx-w", "width": 1920}], "place_id": "ChIJH76BdF00Qg0RwJkLS5oV9ao", "plus_code": {"compound_code": "GGMC+GC Ajalvir, Spain", "global_code": "8CGRGGMC+GC"}, "rating": 1.9, "reference": "ChIJH76BdF00Qg0RwJkLS5oV9ao", "scope": "GOOGLE", "types": ["bank", "atm", "accounting", "finance", "point_of_interest", "establishment"], "user_ratings_total": 29, "vicinity": "Calle Carlos Ruiz, 27, Ajalvir"}, {"business_status": "OPERATIONAL", "geometry": {"location": {"lat": 40.5420708, "lng": -3.4634832}, "viewport": {"northeast": {"lat": 40.5434491802915, "lng": -3.461971119708498}, "southwest": {"lat": 40.5407512197085, "lng": -3.464669080291502}}}, "icon": "https://maps.gstatic.com/mapfiles/place_api/icons/v1/png_71/shopping-71.png", "icon_background_color": "#4B96F3", "icon_mask_base_uri": "https://maps.gstatic.com/mapfiles/place_api/icons/v2/shopping_pinlet", "international_phone_number": "+34 918 84 15 79", "name": "Maldito Vicio", "opening_hours": {"open_now": false}, "place_id": "ChIJx2lIiVU0Qg0RBTr_c6sUXkM", "plus_code": {"compound_code": "GGRP+RJ Daganzo de Arriba, Spain", "global_code": "8CGRGGRP+RJ"}, "reference": "ChIJx2lIiVU0Qg0RBTr_c6sUXkM", "scope": "GOOGLE", "types": ["point_of_interest", "store", "establishment"], "vicinity": "Avenida de Circunvalación, 248, primera planta, Daganzo de Arriba"}, {"business_status": "OPERATIONAL", "geometry": {"location": {"lat": 40.5431762, "lng": -3.4580838}, "viewport": {"northeast": {"lat": 40.5445244302915, "lng": -3.456799919708498}, "southwest": {"lat": 40.5418264697085, "lng": -3.459497880291502}}}, "icon": "https://maps.gstatic.com/mapfiles/place_api/icons/v1/png_71/civic_building-71.png", "icon_background_color": "#7B9EB0", "icon_mask_base_uri": "https://maps.gstatic.com/mapfiles/place_api/icons/v2/civic-bldg_pinlet", "international_phone_number": "+34 607 70 64 59", "name": "POLICÍA LOCAL DAGANZO DE ARRIBA.", "opening_hours": {"open_now": true}, "place_id": "ChIJXcnTuKc1Qg0Ri98nFmLWAGs", "plus_code": {"compound_code": "GGVR+7Q Daganzo de Arriba, Spain", "global_code": "8CGRGGVR+7Q"}, "reference": "ChIJXcnTuKc1Qg0Ri98nFmLWAGs", "scope": "GOOGLE", "types": ["police", "point_of_interest", "establishment"], "vicinity": "Glorieta de Alcalá s/n"}, {"business_status": "OPERATIONAL", "geometry": {"location": {"lat": 40.5458761, "lng": -3.4585109}, "viewport": {"northeast": {"lat": 40.5472431802915, "lng": -3.457193419708498}, "southwest": {"lat": 40.5445452197085, "lng": -3.459891380291502}}}, "icon": "https://maps.gstatic.com/mapfiles/place_api/icons/v1/png_71/shopping-71.png", "icon_background_color": "#4B96F3", "icon_mask_base_uri": "https://maps.gstatic.com/mapfiles/place_api/icons/v2/shopping_pinlet", "international_phone_number": "+34 911 69 83 61", "name": "Daganzo Animal", "opening_hours": {"open_now": false}, "photos": [{"height": 300, "html_attributions": ["<a href=\"https://maps.google.com/maps/contrib/108986534458577332991\">Rei</a>"], "photo_reference": "AWn5SU5ItrtlxBjuRYtAZHdgylj9r-2-mcQanpY67Y-W9JXqnqjDEYc19lEDT0gWNhk42Q1LlCNATQ-OVOLtnxW-4M6AzuTpWDXDzxEv6INiguIVsntLQ8bNuurZE5Ftm05q9Eks1uWboGPQydhJJQiQvZqE_lg2_PFwQb1kYm-qQe2Mg6q9GkQ9BDnESX5QDD9EI7c-_8s22jIRiOM16_O0R0RHX9ECYFzpz4hv5vyl_pyEZR7N-sYiwrgdtheZWHBRn6oAUI286TMf-2qMefZmqekZECrHp65PM2c6Vu02YofJPO4Nop4A8dqSNkocZU47JIRmGG0drfUY5SYkrzAZdlGck4-4adHNkq-ppZFNuRs6kPvN8wdPSut0RKByaeN09YvLD3mqKuXQYtEBcfLt69VsnsEFhSbWTYM98T6CIN-xqEVGnQqO9gI2CsyvESSNO-Mt8pDXgX0dnPWo2aS5-2GAu8Fq_QGmUVy97_5pdXIMFh0udMq9k7gjOnGsTv71KQUvnlYc1WVpYw33FgANTCX27zkiXkEWYdiER4nMuhmsqN0VEfwDdfL4eeGdBZhOkg6ACZjl9yz0BTcJ3Wz-dL8GNs7STBDh8TwXITE3lDsRlgeWJVCAlW_dzJfnHmOGJN9Ttg", "width": 400}], "place_id": "ChIJ3XDpuKo1Qg0RcTntt2AV4wg", "plus_code": {"compound_code": "GGWR+9H Daganzo de Arriba, Spain", "global_code": "8CGRGGWR+9H"}, "rating": 4.8, "reference": "ChIJ3XDpuKo1Qg0RcTntt2AV4wg", "scope": "GOOGLE", "types": ["pet_store", "point_of_interest", "store", "establishment"], "user_ratings_total": 16, "vicinity": "Calle Constitución, 54, local 3, Daganzo de Arriba"}, {"business_status": "OPERATIONAL", "geometry": {"location": {"lat": 40.546598, "lng": -3.4598703}, "viewport": {"northeast": {"lat": 40.5478961802915, "lng": -3.458522519708498}, "southwest": {"lat": 40.5451982197085, "lng": -3.461220480291502}}}, "icon": "https://maps.gstatic.com/mapfiles/place_api/icons/v1/png_71/civic_building-71.png", "icon_background_color": "#7B9EB0", "icon_mask_base_uri": "https://maps.gstatic.com/mapfiles/place_api/icons/v2/civic-bldg_pinlet", "international_phone_number": "+34 918 78 20 64", "name": "Oficina de Correos", "opening_hours": {"open_now": false}, "photos": [{"height": 900, "html_attributions": ["<a href=\"https://maps.google.com/maps/contrib/113679565406464824527\">Oficina de Correos</a>"], "photo_reference": "AWn5SU4lkRSyWPIDaBwC0D4EUNbzXGhUGssqmZKM6SNueg-RiT-_zuiLpdLVMF8b-Nhlsn40zxZt2mmqgsYoejv-E2SiKHHIekPxorhLLL9_I88o-_JYw4TfVo8lqlak61JEWnBeFnsQwvZ6SbcBXUQ6PAzqyKwrgVQj4YHIILiYd273uZGVNt27aN6_Bb7viTiKnfXeoN49AZJuMGZU5A1BS1A5B9rl3dREOAMY6pFM3_hJmVOB36sNjN9VUXWHo5aZiCleMcYw3-rQfFPTS1TrT0Moe9FoAlEqqcS_zkI0k_W9g2_DAfo6S8b7u9pEQxMivkC9AFA82JU", "width": 1600}], "place_id": "ChIJOUOq5gE1Qg0Rktx22SHTVAk", "plus_code": {"compound_code": "GGWR+J3 Daganzo de Arriba, Spain", "global_code": "8CGRGGWR+J3"}, "rating": 3.7, "reference": "ChIJOUOq5gE1Qg0Rktx22SHTVAk", "scope": "GOOGLE", "types": ["post_office", "finance", "point_of_interest", "establishment"], "user_ratings_total": 219, "vicinity": "Avenida del Conde de Coruña, 87, Daganzo de Arriba"}, {"business_status": "OPERATIONAL", "geometry": {"location": {"lat": 40.5381804, "lng": -3.459455199999999}, "viewport": {"northeast": {"lat": 40.53942593029149, "lng": -3.458327769708498}, "southwest": {"lat": 40.53672796970849, "lng": -3.461025730291502}}}, "icon": "https://maps.gstatic.com/mapfiles/place_api/icons/v1/png_71/shopping-71.png", "icon_background_color": "#4B96F3", "icon_mask_base_uri": "https://maps.gstatic.com/mapfiles/place_api/icons/v2/shopping_pinlet", "international_phone_number": "+34 918 78 21 35", "name": "EuroMontyres", "opening_hours": {"open_now": false}, "photos": [{"height": 1512, "html_attributions": ["<a href=\"https://maps.google.com/maps/contrib/112486497698963729731\">EuroMontyres</a>"], "photo_reference": "AWn5SU6U_VWdjZ37ZyYTq4tAm6JXnTrP70e_O22L2Q0aXnICA3A9rh_IEgZ0Hcteykj0XsMqRYI8HTZP3vc5Fzaw8mmlVdCfhGa2-n7vJ-RwZ4ZFROe1d1EyrdIntqAUfbLZGXg99KRdCLHN3fptAM85r9xLWGFlaJnz85UCCHylrTEOHbZDeGuyyElbpCadRk8oTyWQzucrhA2k0lv2zmU1A5HgrTnPviP6wMK4qQee2hYM6skLov2e-JaT9EHHJXewYA1hiy6_UcVznG0WvnpJVvMMlzQ-xGPUeooGpC4NDDvVKBcPvyRf1wZtXoFA_Js6kH8jant7puY", "width": 2016}], "place_id": "ChIJ3Tnskbo1Qg0RehyOspelfkQ", "plus_code": {"compound_code": "GGQR+76 Daganzo de Arriba, Spain", "global_code": "8CGRGGQR+76"}, "rating": 4.2, "reference": "ChIJ3Tnskbo1Qg0RehyOspelfkQ", "scope": "GOOGLE", "types": ["car_repair", "point_of_interest", "store", "establishment"], "user_ratings_total": 95, "vicinity": "Camino Ancho, 48, Daganzo de Arriba"}, {"business_status": "OPERATIONAL", "geometry": {"location": {"lat": 40.5435861, "lng": -3.457146299999999}, "viewport": {"northeast": {"lat": 40.5449103802915, "lng": -3.455735619708498}, "southwest": {"lat": 40.5422124197085, "lng": -3.458433580291501}}}, "icon": "https://maps.gstatic.com/mapfiles/place_api/icons/v1/png_71/bank-71.png", "icon_background_color": "#909CE1", "icon_mask_base_uri": "https://maps.gstatic.com/mapfiles/place_api/icons/v2/bank-intl_pinlet", "international_phone_number": "+34 918 84 50 77", "name": "Banco Santander", "opening_hours": {"open_now": false}, "photos": [{"height": 720, "html_attributions": ["<a href=\"https://maps.google.com/maps/contrib/111156841888383096025\">Banco Santander</a>"], "photo_reference": "AWn5SU5u782M6KIIKyPm47RDNho615qtpxNjCpGMn_HiQiIxtvdGGQxWWYjBbNsIRArlDN8Snt16n2s19nmJRbW_UVTGSnlY3cCbza9hyvAhhfDTx9AN0_EhlVtIxtdh2SAjpTNM5CtZ_qkn8Cfmvv4SEFiYFuin0DU27C3pDBbA20LtvKGqXHehx99s7g41FH-chzOIgoCIFosJDWXcdvWev0tB0mF7GqOrR5jCAYCuQOjrwAH4Lj-QtiwNWCDg8J3L9sQzSJSY-VW-TYjfcRYh-mUpDq-NHh4cf0gI2WElWDidC66vgT4bzqkHdyudHe1ORU9ERcYi", "width": 1280}], "place_id": "ChIJpdANjAA1Qg0R9Elbav7drqE", "plus_code": {"compound_code": "GGVV+C4 Daganzo de Arriba, Spain", "global_code": "8CGRGGVV+C4"}, "rating": 2.6, "reference": "ChIJpdANjAA1Qg0R9Elbav7drqE", "scope": "GOOGLE", "types": ["bank", "atm", "finance", "point_of_interest", "establishment"], "user_ratings_total": 39, "vicinity": "Calle Pintor Velazquez, 2, Daganzo de Arriba"}, {"business_status": "OPERATIONAL", "geometry": {"location": {"lat": 40.5461501, "lng": -3.4603611}, "viewport": {"northeast": {"lat": 40.5474871302915, "lng": -3.458867319708498}, "southwest": {"lat": 40.5447891697085, "lng": -3.461565280291502}}}, "icon": "https://maps.gstatic.com/mapfiles/place_api/icons/v1/png_71/generic_business-71.png", "icon_background_color": "#7B9EB0", "icon_mask_base_uri": "https://maps.gstatic.com/mapfiles/place_api/icons/v2/generic_pinlet", "international_phone_number": "+34 918 87 54 87", "name": "Clínica Veterinaria en Daganzo - Rafael Uría", "opening_hours": {"open_now": false}, "photos": [{"height": 4284, "html_attributions": ["<a href=\"https://maps.google.com/maps/contrib/108754031943348770847\">Marcos Cabaleiro Onandia</a>"], "photo_reference": "AWn5SU7SFudqJF-Acp97kGTjXVR0OkQ3geQg8BtXVQ3hzY1i_YkdNYJQRscr3RZuL5fcLM9m9T5n-WLez1xiO_XcWp6tc06HCFLwlBzPKDw1BqRzdpJVLosOXEBEssLmXVdMGAgQlq0vgpSdDpilcM4yugxER7wSB_yKRE0UWt6SF1PgCqBmNr2kiN-65VyjE2d-N1-qtKSwXScyXYiBxl7ztoqXy9_K-BR_pMSZH_GXgVqjU1uBze6Z14-BRQZaQeQGXBXkJTqQkbvNUGU5ZYS5OhdJzkB1z9Qc9I540VdPSIJLMoxYsZTt9TZ_ryFOHWTGsdJVR7oPFRJgQLaF6SB8WnGCn6pvotafXTaqx7EeGYijBZwjgDkemjXAO3XFXuVosGBirXu8Msjr2XTXTaecRw1BlLNHqbSWOVM8J4-lGEnptfDRvFfq2-olNI4D3SWsS30U4rxwyB3cwICnzyUnjgkJ5Xo3SDetdYgMkwBlGkLjajXYIlhWgKZeflN6WdwRUjNIVs04HFcp_2ijZiF2CtkumfumupApt-0E-mlgC1iKh183dN836RvCNaXFzX-4W0WNTzPinJEM5IeJiSnYZfxfEUvs7yuPuTMMD4XYPiaO5CUxoyqoyiPUtLu7s7ZLuc5J_Q", "width": 5712}], "place_id": "ChIJlasDxgE1Qg0RxSOcIt2_cN0", "plus_code": {"compound_code": "GGWQ+FV Daganzo de Arriba, Spain", "global_code": "8CGRGGWQ+FV"}, "rating": 4.8, "reference": "ChIJlasDxgE1Qg0RxSOcIt2_cN0", "scope": "GOOGLE", "types": ["veterinary_care", "point_of_interest", "establishment"], "user_ratings_total": 229, "vicinity": "Calle Gustavo Adolfo Bécquer, 2, Daganzo de Arriba"}, {"business_status": "OPERATIONAL", "geometry": {"location": {"lat": 40.5393484, "lng": -3.4593016}, "viewport": {"northeast": {"lat": 40.5407678802915, "lng": -3.458003269708498}, "southwest": {"lat": 40.5380699197085, "lng": -3.460701230291502}}}, "icon": "https://maps.gstatic.com/mapfiles/place_api/icons/v1/png_71/generic_business-71.png", "icon_background_color": "#7B9EB0", "icon_mask_base_uri": "https://maps.gstatic.com/mapfiles/place_api/icons/v2/generic_pinlet", "international_phone_number": "+34 605 33 20 80", "name": "Parapente en Madrid | MADparapente", "opening_hours": {"open_now": false}, "photos": [{"height": 3822, "html_attributions": ["<a href=\"https://maps.google.com/maps/contrib/114076999316539461059\">Parapente en Madrid | MADparapente</a>"], "photo_reference": "AWn5SU6aAq3iux2lW9Bjvnj0zACJQxO25wb7BcLOfbRSaDniJ05e8ayXUL93GTWPLau29__TuhrRqTBq_Ekz4vuICk4X2CjyT7g1MH35ok5FCNSq3jDm92ZjRzRj9xyMCgbOte8BEGr73oe0HvhapvbXCTMifjfzT3iW-BnGax7JWOg5ysVaa_9kFW4n7Xx-zZZBHtwPMmrAFFRydxhv9ZYJo37NADZS6WM8gGCZ9DjC1FbU1u7h8G7DWWn7pswTZZ7nAnUYTaBxH5jZUuN3fwez-wn5AYe_aiX_UdMgfjZK34PifoL4qIzdLV9ThYdfef1DvZNwvWSJUh4", "width": 5096}], "place_id": "ChIJo5vwbZE5Qg0R_-K3lf-wJWQ", "plus_code": {"compound_code": "GGQR+P7 Daganzo de Arriba, Spain", "global_code": "8CGRGGQR+P7"}, "rating": 4.9, "reference": "ChIJo5vwbZE5Qg0R_-K3lf-wJWQ", "scope": "GOOGLE", "types": ["point_of_interest", "store", "establishment"], "user_ratings_total": 450, "vicinity": "Camino Ancho, 55, Daganzo de Arriba"}, {"business_status": "OPERATIONAL", "geometry": {"location": {"lat": 40.5433732, "lng": -3.45858}, "viewport": {"northeast": {"lat": 40.5446916302915, "lng": -3.457260619708499}, "southwest": {"lat": 40.5419936697085, "lng": -3.459958580291502}}}, "icon": "https://maps.gstatic.com/mapfiles/place_api/icons/v1/png_71/generic_business-71.png", "icon_background_color": "#7B9EB0", "icon_mask_base_uri": "https://maps.gstatic.com/mapfiles/place_api/icons/v2/generic_pinlet", "international_phone_number": "+34 918 84 55 44", "name": "CLINICAS DENTALMED DAGANZO", "opening_hours": {"open_now": false}, "photos": [{"height": 1829, "html_attributions": ["<a href=\"https://maps.google.com/maps/contrib/104801168019153699619\">clinicas dentalmed</a>"], "photo_reference": "AWn5SU50RUxwIU7eLRg2fYYZUruHhpBc-oQmSV85xdDsiqKT2m_Tdu5wrM-8ODWxODVeDrYPnK1LY9jTTUlNFTszhwavpoHa0d1WAmQ5YYDv4onuFlULIjBSURmiswkh-UO5TFXsNMTpqqqfpAyMhEY5sOM2AIg8lK8JQ4Q-d3QMm1zRv0ogXIsB7dZXFxwLxlBLnXZPtJsnAn7HZ74p8ItMjK5a9tQWRLZRM2l1os8lfBXHbLC5QxzuSxIAjOF4JE3WhK0CQadn5fKHodZZ5_uDNf-Kl3XrQVvpGSSqcynsd_09J0BDDukc4Tq0ZiPGhvHv7kJfz4WhIKQm4_Hj-GevD8RklH9uhamTu34Ah3vTm2ytgV6LMYjFlhPrvgpGYCT1mzkvL8GnFSJL-BZga73_3uWfwJlXax_PZX66VvF_1Tnz9mUJw_pFQz2ju6Vqbpd9D0UV-937ESimsPpwmLh0PokztztKstJAilHmOugzb1DtYrPshjy8D350ZYcvqb-KHG7SD4gct4pwqtZQYvGH-EMv-1sO6mNJ7oT35bWdBZCpmPp_Fu2Gut-WlXp0sG_JLrAMGBSRSvjJJq3tAX3BKIFMxBeM6muZlmR_3Xz37mqP_LFOhrKxB3uV8UPCRm7kUiV9qw", "width": 2058}], "place_id": "ChIJz1eaegA1Qg0RI3SMExavR-o", "plus_code": {"compound_code": "GGVR+8H Daganzo de Arriba, Spain", "global_code": "8CGRGGVR+8H"}, "rating": 4.6, "reference": "ChIJz1eaegA1Qg0RI3SMExavR-o", "scope": "GOOGLE", "types": ["dentist", "doctor", "point_of_interest", "health", "establishment"], "user_ratings_total": 42, "vicinity": "Glorieta de Alcalá, 4, Daganzo de Arriba"}, {"business_status": "OPERATIONAL", "geometry": {"location": {"lat": 40.5462477, "lng": -3.4600133}, "viewport": {"northeast": {"lat": 40.5475778302915, "lng": -3.458643469708498}, "southwest": {"lat": 40.54487986970851, "lng": -3.461341430291502}}}, "icon": "https://maps.gstatic.com/mapfiles/place_api/icons/v1/png_71/school-71.png", "icon_background_color": "#7B9EB0", "icon_mask_base_uri": "https://maps.gstatic.com/mapfiles/place_api/icons/v2/school_pinlet", "international_phone_number": "+34 622 04 04 29", "name": "Mi Pequeño Mundo Infantil", "opening_hours": {"open_now": false}, "photos": [{"height": 2238, "html_attributions": ["<a href=\"https://maps.google.com/maps/contrib/110575498998019566197\">Samanda Henríquez</a>"], "photo_reference": "AWn5SU5fKoWYnHPHFpL55jATGSDTNHDofG2E6CY7K7M-xpAjjG-6aBwMnry0YMB4qNcm8eFwqwtVI8kCLxqQj3dS_i2Q99FTyxTxa6N4yPwEz0_Epz-UJyxTVXfxLUZPeD0ozDtsseTnMvrN1SP-UyK9Iwyy5sG-l3DTcJkUaotLA79HWZtjMS1ptPwejjb2uwzdz5JSx-dX8ufeAelGdBUdWoh2nncFKEBeto-KlpG7GZJgF2Tg40Q_Yyc8sRk2_ATcsKuDrNlUo3cjRerMV8pWldCKvOl_wVMPGnOFsD1VWZFM5tTiyl7XAzVoCGaxFaZJW1lhsj_al9Fg17LcuaxtV-mO6OppCwuzMoEKT0CG2LIl3QEHei0QQYzvKi0189u2EfvYO9LIZhjAq8g0YfvAwZuaEUE5GI1tJVSXldPZORIdS36MZKgSFYujJkTzOuqfoZsBwo3_z-_CZ5p3YsP4kYLClcSYVRor1jVXuwKu1nY90mG1IJiP6Xi1TV9hTLQK0YzSAt0Y6U28AB2ANphQKHeN9FNNRhxjvP9jbULS5DMv3LRc1_LfGu2UOBKggAGnt6XaWpONP6Fi9CNWqFv5XDMwo8-ZxuE_eDc907vIsnVc1pCT2iD6GVfyV-zP8Pms", "width": 3510}], "place_id": "ChIJbcoR4AE1Qg0ReB6UymQUjbs", "plus_code": {"compound_code": "GGWQ+FX Daganzo de Arriba, Spain", "global_code": "8CGRGGWQ+FX"}, "rating": 4.8, "reference": "ChIJbcoR4AE1Qg0ReB6UymQUjbs", "scope": "GOOGLE", "types": ["point_of_interest", "school", "establishment"], "user_ratings_total": 44, "vicinity": "Avenida del Conde de Coruña, 85, Daganzo de Arriba"}, {"business_status": "OPERATIONAL", "geometry": {"location": {"lat": 40.53993489999999, "lng": -3.456647999999999}, "viewport": {"northeast": {"lat": 40.5412852802915, "lng": -3.455248969708498}, "southwest": {"lat": 40.5385873197085, "lng": -3.457946930291502}}}, "icon": "https://maps.gstatic.com/mapfiles/place_api/icons/v1/png_71/generic_business-71.png", "icon_background_color": "#7B9EB0", "icon_mask_base_uri": "https://maps.gstatic.com/mapfiles/place_api/icons/v2/generic_pinlet", "international_phone_number": "+34 918 84 33 90", "name": "GREYMO S.A.", "opening_hours": {"open_now": false}, "photos": [{"height": 4000, "html_attributions": ["<a href=\"https://maps.google.com/maps/contrib/117750647183085303185\">GREYMO S.A.</a>"], "photo_reference": "AWn5SU6C7Kkng0DCzYK4ixsOl1VC6sVZ66_lshtoHczQX56-lSBZ9xMG56PWYy8CiTcUmuwR-OY1olS6tYNJZ14C-D8u4vCBuAGsOJzeINxIHxcUiiPQzPq0VOJ4rFUeTIrJUKvppWS5__W0l68xtN733kKqvoE-Q45j_lQKXghWwKdkm-Yd1L8A1KsKPKf3vtwsfsJn6wwAJfcoBG0o7VDJuKuWsAWFZrvpysXXaXSOo-ikwPigDNy_R1q3b5_9_d0bFrJD1NqkHJyupAUCmFFhYldd8rENzpqIpTcnDSJT395HsobrBdZF_NUxh4wgeiir-v8wG9wyIqk", "width": 6000}], "place_id": "ChIJm4PqZnA0Qg0RkKvVUB0Iskc", "plus_code": {"compound_code": "GGQV+X8 Daganzo de Arriba, Spain", "global_code": "8CGRGGQV+X8"}, "rating": 4.6, "reference": "ChIJm4PqZnA0Qg0RkKvVUB0Iskc", "scope": "GOOGLE", "types": ["point_of_interest", "establishment"], "user_ratings_total": 9, "vicinity": "Calle Pintor Rosales, 9, Daganzo de Arriba"}, {"business_status": "OPERATIONAL", "geometry": {"location": {"lat": 40.54428769999999, "lng": -3.457404899999999}, "viewport": {"northeast": {"lat": 40.54567128029149, "lng": -3.456044369708498}, "southwest": {"lat": 40.54297331970849, "lng": -3.458742330291502}}}, "icon": "https://maps.gstatic.com/mapfiles/place_api/icons/v1/png_71/generic_business-71.png", "icon_background_color": "#7B9EB0", "icon_mask_base_uri": "https://maps.gstatic.com/mapfiles/place_api/icons/v2/generic_pinlet", "international_phone_number": "+34 918 84 57 58", "name": "Protección Civil de Daganzo", "opening_hours": {"open_now": false}, "photos": [{"height": 650, "html_attributions": ["<a href=\"https://maps.google.com/maps/contrib/107532433099483092196\">Protección Civil de Daganzo</a>"], "photo_reference": "AWn5SU7-9hEtLZkolofhISAOP1n8ay_3Sy_rfv4Pww3nsWgdh0qC9hovtotNdXsRZJj-HVS-MbqRU1KgEnXe_YxPl797ai0u5xM_0dSK2kvZ_8mN-6RElQApV8Om00CG8WtxapJSU5UbPgat8zlPq3Qfa_Od1tZ51Hn0AA60-jGqcw6AG_Y_bp9MAYV20n2rSGhFL7VMzQyzttvZ9lgPiPY_Evv-9IlJpS-rp3rrJJMeHZ50b9sh5tBBgfweQkQfhWrjaD9_OuFRQTjDvVK11iTlMWD9IxX_2u25bhFZG2D9A2yc4X7hNnjEWhClBLoUadGQcmhpxl0SPiU", "width": 650}], "place_id": "ChIJn7dTWAA1Qg0RtzUvisxRBtY", "plus_code": {"compound_code": "GGVV+P2 Daganzo de Arriba, Spain", "global_code": "8CGRGGVV+P2"}, "rating": 4, "reference": "ChIJn7dTWAA1Qg0RtzUvisxRBtY", "scope": "GOOGLE", "types": ["point_of_interest", "health", "establishment"], "user_ratings_total": 1, "vicinity": "Calle San Juan, 15, Daganzo de Arriba"}, {"business_status": "OPERATIONAL", "geometry": {"location": {"lat": 40.5454901, "lng": -3.4586804}, "viewport": {"northeast": {"lat": 40.5468076302915, "lng": -3.457369069708498}, "southwest": {"lat": 40.5441096697085, "lng": -3.460067030291501}}}, "icon": "https://maps.gstatic.com/mapfiles/place_api/icons/v1/png_71/shopping-71.png", "icon_background_color": "#4B96F3", "icon_mask_base_uri": "https://maps.gstatic.com/mapfiles/place_api/icons/v2/shopping_pinlet", "international_phone_number": "+34 911 37 37 45", "name": "Patchwork Carmen", "opening_hours": {"open_now": false}, "photos": [{"height": 4160, "html_attributions": ["<a href=\"https://maps.google.com/maps/contrib/106124727949983399329\">Alejandro Moral Castro</a>"], "photo_reference": "AWn5SU4VNsnGMhPVJt6nxzcmwYlbMjZunUplSaVnL1RCPS4UcAoCIFhsy7UuuYG1cAZtIRAKcHlP_nFMgLGsMK6esAPT2D9dTkUWqb7W5wRxudROLpgkd02RXgy_EB33GRZTuHkhh1flebx_Bnvkx3RE3_6qRczqNIEIzPV0F0F_BgHrXTRRB8k337rBQDn6NRJxYEiQYwq2DHbsOJqcBfmPV30oOwS2Q-WpekW7ZCxZmNIaDBjWLJll_cbzeIsCMWhxqbNW0kF42XE20wJ85sEKvJGMUqozYWNfDcmLko3_0qs8iwtiMAQDEgMLNmyvJDM5r3nmsk34C-ThIJozYh_KC0zWV8cklzqAr5f_nmkhL22suNqCyUTO69qrx7mYJ_eOXo983UBxZQI5vKfF1_FuKX-cStIEfgyFHxCHF89a4zWi0z-DL21ErHMhvhlagL5b3xBZ-ucd1lwWOW7fcYgbs01XicgrUyYmNZBEEe32zhFfYXBCYMQdC1O07wV7ROQu8dY0GJ-wdFpumZz0Btc37GCAAKLt42pIiqGDwHgpYOe6VBo5T9M4oNDjSG2KArjSWDv-OsvORGsMshTF_OPR1XiBE5O-QmPhtdsicS3p6fL0mRuyrvQp1tOTJbDPXHkBqq6mIsPg", "width": 2336}], "place_id": "ChIJtW-05_80Qg0RvIgTGEU0aJ8", "plus_code": {"compound_code": "GGWR+5G Daganzo de Arriba, Spain", "global_code": "8CGRGGWR+5G"}, "rating": 4.4, "reference": "ChIJtW-05_80Qg0RvIgTGEU0aJ8", "scope": "GOOGLE", "types": ["point_of_interest", "store", "establishment"], "user_ratings_total": 9, "vicinity": "Calle Hermanos Machado, 2, Local 2, Daganzo de Arriba"}, {"business_status": "OPERATIONAL", "geometry": {"location": {"lat": 40.54517789999999, "lng": -3.4573444}, "viewport": {"northeast": {"lat": 40.54654608029151, "lng": -3.455981019708498}, "southwest": {"lat": 40.54384811970851, "lng": -3.458678980291502}}}, "icon": "https://maps.gstatic.com/mapfiles/place_api/icons/v1/png_71/generic_business-71.png", "icon_background_color": "#7B9EB0", "icon_mask_base_uri": "https://maps.gstatic.com/mapfiles/place_api/icons/v2/generic_pinlet", "international_phone_number": "+34 661 72 31 61", "name": "TodoDaganzo", "place_id": "ChIJV3__AAE1Qg0RENajnyd-bZs", "plus_code": {"compound_code": "GGWV+33 Daganzo de Arriba, Spain", "global_code": "8CGRGGWV+33"}, "reference": "ChIJV3__AAE1Qg0RENajnyd-bZs", "scope": "GOOGLE", "types": ["point_of_interest", "establishment"], "vicinity": "Calle de la Paz, 95, Daganzo de Arriba"}, {"business_status": "OPERATIONAL", "geometry": {"location": {"lat": 40.5449964, "lng": -3.4574431}, "viewport": {"northeast": {"lat": 40.5463695802915, "lng": -3.456159469708498}, "southwest": {"lat": 40.5436716197085, "lng": -3.458857430291502}}}, "icon": "https://maps.gstatic.com/mapfiles/place_api/icons/v1/png_71/shopping-71.png", "icon_background_color": "#4B96F3", "icon_mask_base_uri": "https://maps.gstatic.com/mapfiles/place_api/icons/v2/shopping_pinlet", "international_phone_number": "+34 918 84 85 23", "name": "Fiberpol Laminados S.L.", "place_id": "ChIJtan5Nbo1Qg0RCWNlTTLoMCs", "plus_code": {"compound_code": "GGVV+X2 Daganzo de Arriba, Spain", "global_code": "8CGRGGVV+X2"}, "reference": "ChIJtan5Nbo1Qg0RCWNlTTLoMCs", "scope": "GOOGLE", "types": ["point_of_interest", "health", "store", "establishment"], "vicinity": "Polígono Industrial Los Frailes, 35, Daganzo de Arriba"}, {"business_status": "OPERATIONAL", "geometry": {"location": {"lat": 40.5449964, "lng": -3.4574431}, "viewport": {"northeast": {"lat": 40.5463695802915, "lng": -3.456159469708498}, "southwest": {"lat": 40.5436716197085, "lng": -3.458857430291502}}}, "icon": "https://maps.gstatic.com/mapfiles/place_api/icons/v1/png_71/shopping-71.png", "icon_background_color": "#4B96F3", "icon_mask_base_uri": "https://maps.gstatic.com/mapfiles/place_api/icons/v2/shopping_pinlet", "international_phone_number": "+34 918 25 93 16", "name": "DULCE HOGAR", "opening_hours": {"open_now": false}, "place_id": "ChIJAQAAAAE1Qg0ReCyzY70jIi8", "plus_code": {"compound_code": "GGVV+X2 Daganzo de Arriba, Spain", "global_code": "8CGRGGVV+X2"}, "reference": "ChIJAQAAAAE1Qg0ReCyzY70jIi8", "scope": "GOOGLE", "types": ["furniture_store", "jewelry_store", "point_of_interest", "home_goods_store", "store", "establishment"], "vicinity": "Constitucion, 50, local, Daganzo de Arriba"}, {"geometry": {"location": {"lat": 40.5302674, "lng": -3.4839237}, "viewport": {"northeast": {"lat": 40.54137952268166, "lng": -3.474466590845841}, "southwest": {"lat": 40.51951032382934, "lng": -3.492379134769721}}}, "icon": "https://maps.gstatic.com/mapfiles/place_api/icons/v1/png_71/geocode-71.png", "icon_background_color": "#7B9EB0", "icon_mask_base_uri": "https://maps.gstatic.com/mapfiles/place_api/icons/v2/generic_pinlet", "name": "Ajalvir", "photos": [{"height": 2448, "html_attributions": ["<a href=\"https://maps.google.com/maps/contrib/107221420924155058702\">Excentrica Solidaria</a>"], "photo_reference": "AWn5SU7jhPkBtIRPwS1Fk-nZOosq21dL0-8Q-Kb-2c7E2IExYfsrWUrJjmkQB0SbBKaz3U-qO7Io1EUoqK1aPxVJhSTm5UqmCpqZnIGVNRE5P4vlhgFQLkZae2o1Os6RS2Vntt_RILuRWFGaTV95PdwTQ90OL_7OZy_u4SDdJWpyKI4CtMKLcm44aNhOJUgHJy5gng2kkn5cbIYRawRSs1pD6NZl31i6KIxuQDyqhPsBY6uDdq3gxOyJRhsP3N17NoOTWrH1aOdEkdBXzxCXh23UH615H1H3bevrvOWasDYOn0I0HkDJgkin-3SN_atkngtuvWeD2CQgmqWrL3PNAr61uH59EnhJLOZ7ee1rkWlG0d72yqSI4KSlp50poGGnxYwsaEbvNwufIC4MyBBtZWf_9OgjXRmkGmw3uVWJcwmlHBWmXQhfyyGHoiWaxf42pHTG6b_8hasBWP37SZ-x4Xf7uozccDmWsuUiYwWNxNOmsaRZuqo0qd2sQQ10JR90QmTs17bzBYqpHr6suWSaBM0DdFeC7TE3tHbKZpDulC6Ob50bZxEbcn0-twPB4iPHQDLLRvUt9CqXGk5C8YZEY9pyxhnrbhJFxDxqsazNvsVpgQiHC_rYjsCiofEjVwfThgv4U3Cv8S2S", "width": 3264}], "place_id": "ChIJGyu2h2c0Qg0RuWYNJIA4sWA", "reference": "ChIJGyu2h2c0Qg0RuWYNJIA4sWA", "scope": "GOOGLE", "types": ["locality", "political"], "vicinity": "Ajalvir"}]