[{"geometry": {"location": {"lat": 40.5964617, "lng": -3.5016452}, "viewport": {"northeast": {"lat": 40.60244857187934, "lng": -3.492189160304554}, "southwest": {"lat": 40.58910249695727, "lng": -3.509444479745053}}}, "icon": "https://maps.gstatic.com/mapfiles/place_api/icons/v1/png_71/geocode-71.png", "icon_background_color": "#7B9EB0", "icon_mask_base_uri": "https://maps.gstatic.com/mapfiles/place_api/icons/v2/generic_pinlet", "name": "Algete", "photos": [{"height": 4000, "html_attributions": ["<a href=\"https://maps.google.com/maps/contrib/113497895923388473140\">Antonio Fernandez Hernandez</a>"], "photo_reference": "AWn5SU6RbFDFONtWXB3dmpsOzRRD8WPykeGRGHpWIiyXVGY8odbuzZkFr5kjhLuYfFx8bTCKE1wZa-k34CLIirmkj-dDCdGzXFmgH-4aejiXcD636hioSqKSdZQLunmiIonEIsB9y4D2kSElVAID1zBuKEK8mvo8jY5dh3YR3tWA6-hy8uMRSGExO9SjdDpLkGsJDNl1KJrNPWFvtSC7CZ4wG_Jvw9z5YxiHjHhlIjj8wwIV3CwVQDQPM-rzfLCnoC5TsebmzrWlnoJEUz9UqhZ9B1AcJJ1Hw7jIECLXFwH9NknDGdQmESfgMCV7WM9BsBQwGwpS7jfavdmxzZoQNiaJcnxGxb36cbMYO_n5nmOKmr6xvIoa-6svPsFarqw7GZbaopPukReZL0We7hmLo4y_359KuOZooOSC7c7FQC4tNtAyYl7RN8cZN35CyMZZD5CqEyw_p9il8UJnmVbLRuW_TJ11YhbknOtXdWOKETcaJ8lXM-IABBW6rDCdNZ8f1D3-gl_N6IJG1WSvGN0yePNaIgVHQOIiU9qEgDEExjJ9gafYFa_0joyWFnjlMHDCOqx2O5VtIyTAYOf-MEfqIZ2LQ-qJPtxhGi4yUtFp7APjhbewZYwF7-CA0iKNCA6LY5hwxTYexs2h", "width": 2250}], "place_id": "ChIJ--WBXafMQw0RhyEXOO-RAqw", "reference": "ChIJ--WBXafMQw0RhyEXOO-RAqw", "scope": "GOOGLE", "types": ["locality", "political"], "vicinity": "Algete"}, {"business_status": "OPERATIONAL", "geometry": {"location": {"lat": 40.5967655, "lng": -3.4951376}, "viewport": {"northeast": {"lat": 40.59813293029151, "lng": -3.493643819708498}, "southwest": {"lat": 40.59543496970851, "lng": -3.496341780291502}}}, "icon": "https://maps.gstatic.com/mapfiles/place_api/icons/v1/png_71/lodging-71.png", "icon_background_color": "#909CE1", "icon_mask_base_uri": "https://maps.gstatic.com/mapfiles/place_api/icons/v2/hotel_pinlet", "international_phone_number": "+34 916 28 29 05", "name": "Hotel Algete", "opening_hours": {"open_now": true}, "photos": [{"height": 2000, "html_attributions": ["<a href=\"https://maps.google.com/maps/contrib/114848903527278904213\">Hotel Algete</a>"], "photo_reference": "AWn5SU5-qMDRD_tK49xLCuXcIreBkakslC96vSb4ZZ5v6iJ2HLj4q2PvfCIEyp6edPT_yDDB3Rqat4abflx4XDi3wayZxOkzszferXNwM1aRaXhMQm1b6wmpiQhqxmkAA0xlCvQ4ct3NpI-WLklJ2p8SGx6uSuZbcSfXwvhyk4OxMqnaZB3kgfectFsdX9uLA2AxUCf1TQCaadJe_DcxQ3inIgzWMg-kDh966jvgbncuS56OB1z5goplTkh-Aby-VVXUyVz2Fm6kgyVCbswjoeSwEx-mBymIuolNIoOXCN09817LARkEdUUBVvSt_fn4XuMxk-Gr7zdecH4", "width": 3008}], "place_id": "ChIJj5bA_FvLQw0Rz9O9ijh8zyM", "plus_code": {"compound_code": "HGW3+PW Algete, Spain", "global_code": "8CGRHGW3+PW"}, "price_level": 2, "rating": 4.1, "reference": "ChIJj5bA_FvLQw0Rz9O9ijh8zyM", "scope": "GOOGLE", "types": ["lodging", "point_of_interest", "establishment"], "user_ratings_total": 1266, "vicinity": "Calle San Roque, 25, Algete"}, {"business_status": "OPERATIONAL", "geometry": {"location": {"lat": 40.59630490000001, "lng": -3.4959466}, "viewport": {"northeast": {"lat": 40.59770043029151, "lng": -3.494600269708498}, "southwest": {"lat": 40.59500246970851, "lng": -3.497298230291502}}}, "icon": "https://maps.gstatic.com/mapfiles/place_api/icons/v1/png_71/bank-71.png", "icon_background_color": "#909CE1", "icon_mask_base_uri": "https://maps.gstatic.com/mapfiles/place_api/icons/v2/bank-intl_pinlet", "international_phone_number": "+34 916 28 25 97", "name": "BBVA", "opening_hours": {"open_now": false}, "photos": [{"height": 720, "html_attributions": ["<a href=\"https://maps.google.com/maps/contrib/114738695419741946657\">BBVA</a>"], "photo_reference": "AWn5SU72i2l3RvjSggfOvCOhS4t11CiIXzLtgvxrt2hu2mYeIEiAM0ILJtnbJ7XS8TESEKELk39R-InRV7JA_1mLF3Phl3nFkgnEBNoM0dUaTMUBqOptQ7IXatvGA8FPv_QXM8Do82EGooIsHLWuCpqJ-ZzN8fQ1m17qB2cpR6UrmZIwE9KZIFTAXEC9tdnIfp5gjPkE8HTKgGtsQr-hh-HPgRcM0oBugHtDdvaRtrGenoJJ7gHM--iwjRepYysQY8bIzKKmzZyl_lytRp5nk8sHWmn6_8UGY4HOJFUa-bPvhtBqamzLYMuvqLS-PXhdJSNRo7SpqIPJ", "width": 1280}], "place_id": "ChIJpczDRFnLQw0R6BAL4_awIew", "plus_code": {"compound_code": "HGW3+GJ Algete, Spain", "global_code": "8CGRHGW3+GJ"}, "rating": 2.3, "reference": "ChIJpczDRFnLQw0R6BAL4_awIew", "scope": "GOOGLE", "types": ["bank", "atm", "accounting", "finance", "point_of_interest", "establishment"], "user_ratings_total": 47, "vicinity": "Calle San Roque, 14, Algete"}, {"business_status": "OPERATIONAL", "geometry": {"location": {"lat": 40.56710410000001, "lng": -3.506215399999999}, "viewport": {"northeast": {"lat": 40.56841393029151, "lng": -3.504923919708498}, "southwest": {"lat": 40.56571596970851, "lng": -3.507621880291502}}}, "icon": "https://maps.gstatic.com/mapfiles/place_api/icons/v1/png_71/bank-71.png", "icon_background_color": "#909CE1", "icon_mask_base_uri": "https://maps.gstatic.com/mapfiles/place_api/icons/v2/bank-intl_pinlet", "international_phone_number": "+34 916 20 70 77", "name": "BBVA", "opening_hours": {"open_now": false}, "photos": [{"height": 720, "html_attributions": ["<a href=\"https://maps.google.com/maps/contrib/103234548839776676588\">BBVA</a>"], "photo_reference": "AWn5SU40sJIOs88EPqwQGT_yDlWeEPGBGj67uJCj-uNHUbfguycdiGDfJHsnf2v96E_HT_Ax2pD5l-xMo5vSXgjFDoqEfBKj4WDNvOq8vMyhHs8W0VVhAzY5u1T_AI-3BrqMJ4BgkCbffqlxvXxproHNPTg6do0uz5GTa8IKdIWOzBimpQyWw_Emieg6m46WFdgqsO6Fs1XIBcNW36KW6VkgUiHvRDHg_OfFN4v3xlDZpCpYIR9Jz9xjB28XVcD8YosghoEYboxnRMdCy5Qt9rAJ0sDtA1-b9vX8wxhMq3b9zRpUOuU3Pp7vGCDITSgQBUSMaEuJ7JePQOY", "width": 1280}], "place_id": "ChIJKUNAW1kzQg0Rq3-HZ2NdVgI", "plus_code": {"compound_code": "HF8V+RG Cobeña, Spain", "global_code": "8CGRHF8V+RG"}, "rating": 2.9, "reference": "ChIJKUNAW1kzQg0Rq3-HZ2NdVgI", "scope": "GOOGLE", "types": ["bank", "atm", "accounting", "finance", "point_of_interest", "establishment"], "user_ratings_total": 27, "vicinity": "Calle Madrid, 10, Cobeña"}, {"business_status": "OPERATIONAL", "geometry": {"location": {"lat": 40.58800919999999, "lng": -3.550925799999999}, "viewport": {"northeast": {"lat": 40.58926973029149, "lng": -3.549678769708498}, "southwest": {"lat": 40.58657176970849, "lng": -3.552376730291501}}}, "icon": "https://maps.gstatic.com/mapfiles/place_api/icons/v1/png_71/generic_business-71.png", "icon_background_color": "#7B9EB0", "icon_mask_base_uri": "https://maps.gstatic.com/mapfiles/place_api/icons/v2/generic_pinlet", "international_phone_number": "+34 916 29 03 16", "name": "El Tesoro materiales de construcción y saneamientos SL", "opening_hours": {"open_now": false}, "photos": [{"height": 587, "html_attributions": ["<a href=\"https://maps.google.com/maps/contrib/106531900320933615732\">El Tesoro materiales de construcción y saneamientos SL</a>"], "photo_reference": "AWn5SU6INlRQQZldkMS7MmRMQckyEqXGxQEdlGJvhKhFju-xIhunpNFOZZq-sua7Btn2XC_qxko2ECVOtgUP5pb20VcuFMjlHkFMYmU9Q7UkcWul1rSXdETcyw_yKs1ED3ZIlUinAybWSemSTM2McqYHHDhKuOSWYVPLvdN0W-Z92fePYaNB6Rntvlyj9LB1LPSJIuGBjLkzq3KxleOCBtuL34Qi-8rQsoNv0uCMJaRccGAmgfhnhhOZ1cGgeKjBVFABYOA7T0XVjp2GwIk6c_Brna2qmWmzh--YQIgAeNG0Yp6CsYSRXRLmggm9Zgier1pfpQgDA2-IMFI", "width": 571}], "place_id": "ChIJh3lJu1nLQw0RT5eRta6TQDY", "plus_code": {"compound_code": "HCQX+6J Algete, Spain", "global_code": "8CGRHCQX+6J"}, "rating": 4.8, "reference": "ChIJh3lJu1nLQw0RT5eRta6TQDY", "scope": "GOOGLE", "types": ["plumber", "hardware_store", "home_goods_store", "general_contractor", "point_of_interest", "store", "establishment"], "user_ratings_total": 241, "vicinity": "Avenida Nicasio Martin, 6, Algete"}, {"business_status": "OPERATIONAL", "geometry": {"location": {"lat": 40.6376966, "lng": -3.51763}, "viewport": {"northeast": {"lat": 40.6389842802915, "lng": -3.516318769708499}, "southwest": {"lat": 40.6362863197085, "lng": -3.519016730291502}}}, "icon": "https://maps.gstatic.com/mapfiles/place_api/icons/v1/png_71/generic_business-71.png", "icon_background_color": "#7B9EB0", "icon_mask_base_uri": "https://maps.gstatic.com/mapfiles/place_api/icons/v2/generic_pinlet", "international_phone_number": "+34 918 23 54 00", "name": "Algeco Construcciones Modulares", "opening_hours": {"open_now": false}, "photos": [{"height": 2448, "html_attributions": ["<a href=\"https://maps.google.com/maps/contrib/112418867413302071946\">ramon aragon rodriguez</a>"], "photo_reference": "AWn5SU6JuWTYs6VHbEWjVA7N026DXSMsUhl8J4ldd36BdUmIq2TihPihB_oKUGXqT31qggRukBZOebSekIuj85HRdwfvu63XVengRVNYNUhNnO1_PFbax1vnmrcmh8RuOtzJkeV2HmlgCTG-RdHcPdnRnaIjVZcqbQf1zrKgcR_H2fPnkp4ujpaDoLUhksEwAOB0Iw6t90Wm-QBDVhNmpob5iwqWFygNeXIdUcZ59G_w381R-L_dJ3uKh3skz68bHaSkJHVYI4V4KJp_mhnDBbr47itaVcSjXmOaKB_OSP2wFQcnUFeYyh1bKbN6r9nW3bt7Gnk-VV1jphxj8N0md2nG-_B9f4CB_txgBKRSicuO6FvGI4IX6owzU40Ve6YOYPaAHvSVM0EkxmfSptBwDZ0Pm1PcW3Fy4a_1HWrXaNg2hL7sBALlL1d-L_YEvABiW83ft7bIs6eOPbQ_BJVtS0YjnYYp0BG29rTgzywv5nEEaek1zhexn9M7qfrjbVTlemkFFxkoIBcyis9FaA3pkMvTNMQNyWls3kHAMF205FTaV8LT4Vcrfe2RfVINihtW9X8AdEL4rB4lZ8mjs6oEi2BE6fZetw8qzG7zdEX6aK4KTOd3055_bSBvNYe5vqv0DUJ3ayLy3A", "width": 3264}], "place_id": "ChIJE5hB0GvMQw0RqF9q_zv0TuU", "plus_code": {"compound_code": "JFQJ+3W Fuente el Saz de Jarama, Spain", "global_code": "8CGRJFQJ+3W"}, "rating": 4.2, "reference": "ChIJE5hB0GvMQw0RqF9q_zv0TuU", "scope": "GOOGLE", "types": ["point_of_interest", "establishment"], "user_ratings_total": 54, "vicinity": "Camino de las Bodegas, 4, Fuente el Saz de Jarama"}, {"business_status": "OPERATIONAL", "geometry": {"location": {"lat": 40.58849339999999, "lng": -3.5454932}, "viewport": {"northeast": {"lat": 40.58969743029149, "lng": -3.544063219708498}, "southwest": {"lat": 40.5869994697085, "lng": -3.546761180291501}}}, "icon": "https://maps.gstatic.com/mapfiles/place_api/icons/v1/png_71/generic_business-71.png", "icon_background_color": "#7B9EB0", "icon_mask_base_uri": "https://maps.gstatic.com/mapfiles/place_api/icons/v2/generic_pinlet", "international_phone_number": "+34 916 28 14 28", "name": "BARIN Aspiración y Filtración Industrial", "opening_hours": {"open_now": false}, "photos": [{"height": 450, "html_attributions": ["<a href=\"https://maps.google.com/maps/contrib/110515226858673468577\">BARIN Aspiración y Filtración Industrial</a>"], "photo_reference": "AWn5SU6OQyVFnp3jNWmRdV_2zQrpLyFqJOBhSyoS9E6RgGGAmxzy15Sr2yQcMNYiJFhtzQq8_wnHfqRFvuwoc9KRpAdzvnYIvvltSffNpgJbSUOzubFha19XK9uQ0-w13PqAIk7riK1mhPVRGrf3Oyq2XbUs66WzTSuWJwWzQKrlOaUwYhVGWvedmsFdcvbDaF2_ewO65wegWZXFlaFB53smDVHsOAv3BB3ImrVh9a1OnmqXijaryP7J6KgwkNGBqJWTNHwSaB03HpO3M6iale_YKG0kBcRf6yqaEKIzzIhiSVcF1-oTHVox6N88kCNBY3BNVgONj3Gp9m8", "width": 450}], "place_id": "ChIJK9l3uijNQw0RkvJdC70ag_c", "plus_code": {"compound_code": "HFQ3+9R Algete, Spain", "global_code": "8CGRHFQ3+9R"}, "rating": 5, "reference": "ChIJK9l3uijNQw0RkvJdC70ag_c", "scope": "GOOGLE", "types": ["point_of_interest", "establishment"], "user_ratings_total": 2, "vicinity": "Calle Cañamarejo, 1, Algete"}, {"business_status": "OPERATIONAL", "geometry": {"location": {"lat": 40.5976383, "lng": -3.502911699999999}, "viewport": {"northeast": {"lat": 40.59895933029151, "lng": -3.501414069708498}, "southwest": {"lat": 40.59626136970851, "lng": -3.504112030291502}}}, "icon": "https://maps.gstatic.com/mapfiles/place_api/icons/v1/png_71/civic_building-71.png", "icon_background_color": "#7B9EB0", "icon_mask_base_uri": "https://maps.gstatic.com/mapfiles/place_api/icons/v2/civic-bldg_pinlet", "international_phone_number": "+34 916 28 22 86", "name": "Algete Health Center", "opening_hours": {"open_now": false}, "photos": [{"height": 3036, "html_attributions": ["<a href=\"https://maps.google.com/maps/contrib/112586997308813566937\">Paolo Álvarez</a>"], "photo_reference": "AWn5SU43vgylmBKxGdKgTrncNGGLlE_2jvHKWzKb33oOz9r_Od-c2q6cdf7A72zqMJw4rRrgCGdEOyf6NhS37PhDDtqJfj__JW7aSbKFy-ZvcuX_C3uMft8SluSIr8jxTdaI_pIc8VQUQHHjTqj5tsu5jJ0G64v_p_sQON2KmA2RfH-9HSQ-0o_1n14XKBaPxa7i_gw4meOdNVgqKF5SQkFpyLqDZC_t3mU_ZbRCEHqGRHAsLmak5FUydlMVzIXWRAkGn-haAGe0LkoHwudmV0-qACQEZyTXHaZNszJlrsXfbcHsd8mu9emvIX4UQnGkK9EzYo7LfqfoPfhVyfacBhFBLA7oloz9wHUALAwYZMo52BOPQ44YKBrOfVjWZXxzdBrfxkJjKrQ2e5HlKm5xMtyEKndfr6qjbRdD_Zde6rALLtP5UcI3bULp_lqRB0oi28qqcmoLJ4jXEaY0GlM1PwSkpZKFSsveAzeeM_L7P-VNxJcUV2_4UnBZEk-hOVrmI-9kULLj6SscYXihquHwPf_O6J3AwvSdwqVXo3uucXy6yJkFSDi1Jv8Cc5ECo2M4KjTd9Wzr0qDzTnYCZffCM42w8jCTZ8-KQQvoRm9RRo4N0ym6T4kU2VPBmxPbBnRiKDVMVLYl8Q", "width": 4048}], "place_id": "ChIJIR8BPqHMQw0RRjc5cDgrCSw", "plus_code": {"compound_code": "HFXW+3R Algete, Spain", "global_code": "8CGRHFXW+3R"}, "rating": 2.1, "reference": "ChIJIR8BPqHMQw0RRjc5cDgrCSw", "scope": "GOOGLE", "types": ["health", "point_of_interest", "establishment"], "user_ratings_total": 195, "vicinity": "Calle de Valdeamor, 1, Algete"}, {"business_status": "OPERATIONAL", "geometry": {"location": {"lat": 40.6000244, "lng": -3.499456}, "viewport": {"northeast": {"lat": 40.6013894302915, "lng": -3.498072769708498}, "southwest": {"lat": 40.5986914697085, "lng": -3.500770730291502}}}, "icon": "https://maps.gstatic.com/mapfiles/place_api/icons/v1/png_71/generic_business-71.png", "icon_background_color": "#7B9EB0", "icon_mask_base_uri": "https://maps.gstatic.com/mapfiles/place_api/icons/v2/generic_pinlet", "international_phone_number": "+34 916 29 25 11", "name": "GESA Asesoría Fiscal en la Zona Norte de Madrid (Algete)", "opening_hours": {"open_now": false}, "place_id": "ChIJY-qtm1_LQw0R8Mzgk7XF9_A", "plus_code": {"compound_code": "JG22+26 Algete, Spain", "global_code": "8CGRJG22+26"}, "rating": 1, "reference": "ChIJY-qtm1_LQw0R8Mzgk7XF9_A", "scope": "GOOGLE", "types": ["accounting", "finance", "point_of_interest", "establishment"], "user_ratings_total": 1, "vicinity": "Calle Limón Verde, 49, Algete"}, {"business_status": "OPERATIONAL", "geometry": {"location": {"lat": 40.58879509999999, "lng": -3.542122}, "viewport": {"northeast": {"lat": 40.5901230302915, "lng": -3.540754019708498}, "southwest": {"lat": 40.5874250697085, "lng": -3.543451980291502}}}, "icon": "https://maps.gstatic.com/mapfiles/place_api/icons/v1/png_71/shopping-71.png", "icon_background_color": "#4B96F3", "icon_mask_base_uri": "https://maps.gstatic.com/mapfiles/place_api/icons/v2/shopping_pinlet", "international_phone_number": "+34 913 35 19 00", "name": "BMW BYmyCAR Madrid - Algete", "opening_hours": {"open_now": false}, "photos": [{"height": 894, "html_attributions": ["<a href=\"https://maps.google.com/maps/contrib/113397039444032694961\">BMW BYmyCAR Madrid - Algete</a>"], "photo_reference": "AWn5SU4CqAqgLlPIIMuWmI42VanV0rgQB6ilmgU9GrzxHRNDsDQgJSB0wCMjUtTycIN7EtHAzhv9HlXDLnd5NlyssEne01Vf_drgBmBii37uLx5tfWbtCpZoi-NLmnQD1OZeXuK3zCi9N5NgXAFWyHgzWXWk9ehZRpDfvarmapwt1t5jEYOetkGYn2S-8A5_-MflMxV7I_OQ_RlH6ZhfT8siKA8LO4dXu2tKc9sNEdaDFOtawGQiRkRZk1BzM5uI6wxf_JVM7N3hxw_HLjQEDaOqz3vPD9_RrnweC4fHwLz45ZXls1WfqmM5dzKaWFJUpsfbrYzAbd6AF64", "width": 1589}], "place_id": "ChIJxfRHjYxJQg0ROXg7ksOpM7c", "plus_code": {"compound_code": "HFQ5+G5 Prado Norte, Spain", "global_code": "8CGRHFQ5+G5"}, "rating": 4.1, "reference": "ChIJxfRHjYxJQg0ROXg7ksOpM7c", "scope": "GOOGLE", "types": ["car_dealer", "car_repair", "point_of_interest", "store", "establishment"], "user_ratings_total": 1205, "vicinity": "Pol. Industrial Río de Janeiro, C/ de la Tejera, 2, Algete"}, {"business_status": "OPERATIONAL", "geometry": {"location": {"lat": 40.5434203, "lng": -3.4584458}, "viewport": {"northeast": {"lat": 40.5447694802915, "lng": -3.456998369708498}, "southwest": {"lat": 40.5420715197085, "lng": -3.459696330291502}}}, "icon": "https://maps.gstatic.com/mapfiles/place_api/icons/v1/png_71/bank-71.png", "icon_background_color": "#909CE1", "icon_mask_base_uri": "https://maps.gstatic.com/mapfiles/place_api/icons/v2/bank-intl_pinlet", "international_phone_number": "+34 918 78 23 00", "name": "BBVA", "opening_hours": {"open_now": false}, "photos": [{"height": 720, "html_attributions": ["<a href=\"https://maps.google.com/maps/contrib/112837948615594447003\">BBVA</a>"], "photo_reference": "AWn5SU7j2cmBOywm_bcY_3gvQW5AXaMxZaVSxehQZYduFmSUzgjmztS7dkTT_TwAwBzgWomksylma6FdL3c1KXWAaLJeUM5d70Q_PPcZk_9DGQ3rI-dKKrK9acoO-jz7XO_q-khF-CGxLoyCRPf1nw_WF-b6h34ifpnKIVEH9GBUDoY5_1FbTmu1Axqa2JpNt45OU02gqrQjSYO5Vizto-JWUCQBkZaMObevmipPZQm6q4yAY3ya5a7yseRPFLAq1EDV12VFzfA-uEvUlYnVillQrGmTDkZuxDEHD_N_LY1XK3ST4DZZ90l1Bfnot7t9Tj0Ky-BSPmhN", "width": 1280}], "place_id": "ChIJBa3ScQA1Qg0RmEjiQiOpbi4", "plus_code": {"compound_code": "GGVR+9J Daganzo de Arriba, Spain", "global_code": "8CGRGGVR+9J"}, "rating": 3.2, "reference": "ChIJBa3ScQA1Qg0RmEjiQiOpbi4", "scope": "GOOGLE", "types": ["bank", "atm", "accounting", "finance", "point_of_interest", "establishment"], "user_ratings_total": 23, "vicinity": "Glorieta de Alcala, 2, Daganzo de Arriba"}, {"business_status": "OPERATIONAL", "geometry": {"location": {"lat": 40.6269195, "lng": -3.4721832}, "viewport": {"northeast": {"lat": 40.6281078302915, "lng": -3.471322969708498}, "southwest": {"lat": 40.6254098697085, "lng": -3.474020930291501}}}, "icon": "https://maps.gstatic.com/mapfiles/place_api/icons/v1/png_71/school-71.png", "icon_background_color": "#7B9EB0", "icon_mask_base_uri": "https://maps.gstatic.com/mapfiles/place_api/icons/v2/school_pinlet", "international_phone_number": "+34 916 20 51 98", "name": "Colegio Árula", "opening_hours": {"open_now": false}, "photos": [{"height": 1058, "html_attributions": ["<a href=\"https://maps.google.com/maps/contrib/112551556988924520792\">Colegio Árula</a>"], "photo_reference": "AWn5SU5N84HSgVP9nfzFsjyw5vOsAmYsTiA11gpjBLVtRgRVUbv96qwjJo4YJQW0NTsos9tfC9Bv0ENGYT4mVY5lN-2rQMOxa66B5mkQdEGAPu2PHJl4DCTXdG7MOY5TzrlzMGIs883VBldNH9e9gIEWPvj7YC2hpscTAxjy2jS3qC4ASCzppJfqeTxPFX3OqJPX_99Te1RMVPErPsf9vzZgNsH6F-v5_LBl6fb098JWr_oLLuYcbQSu8kgd4Y8VzuP0hsD3-DTf4F8ZAEFWr1-oO8rucvuQmIusw8yi6C4XvMEtTd3LzT4bpIunglbrcqvOKfPPIT3S", "width": 2973}], "place_id": "ChIJE9Ilm07KQw0R0GiT3ixoJHw", "plus_code": {"compound_code": "JGGH+Q4 Alalpardo, Spain", "global_code": "8CGRJGGH+Q4"}, "reference": "ChIJE9Ilm07KQw0R0GiT3ixoJHw", "scope": "GOOGLE", "types": ["school", "point_of_interest", "establishment"], "vicinity": "Calle de Alcalá, 23, Alalpardo"}, {"business_status": "OPERATIONAL", "geometry": {"location": {"lat": 40.5841903, "lng": -3.5601663}, "viewport": {"northeast": {"lat": 40.5855032802915, "lng": -3.558704469708498}, "southwest": {"lat": 40.5828053197085, "lng": -3.561402430291502}}}, "icon": "https://maps.gstatic.com/mapfiles/place_api/icons/v1/png_71/shopping-71.png", "icon_background_color": "#4B96F3", "icon_mask_base_uri": "https://maps.gstatic.com/mapfiles/place_api/icons/v2/shopping_pinlet", "international_phone_number": "+34 638 94 31 20", "name": "Vidal Mobile S.L.", "opening_hours": {"open_now": false}, "photos": [{"height": 3456, "html_attributions": ["<a href=\"https://maps.google.com/maps/contrib/101822343582207884234\">Vidal Móvil S.L.</a>"], "photo_reference": "AWn5SU58K_pARx7l9p0ZNeERHvHKHRgtRh4msHlUQNnrbHPEU1ZQLps2_8CtKyg7UzRTtwlE8aKZZee17CjWPlZjndnqqmKo9dKGNLh9qYsELafb-g4Y3c049_4zias_7jYU2GYYbl_IsQM_tNOCZtYWagEdyYCpBSl38eukSkoqwWcVzzMEXR7QX9O_SIqa-7UFDp_LINrDOCZfI5dOQdwJSfjLDP3GRi-hikyRExb0txPRdozkcBCOSIXwrQO2U1jzKO_QL4sBWExWmJ3zBXl26Q5n0xCYuT9tR0cSpzwh6Pmo3DBYyRmVnZ68C26dy6NNQt5e0mTL5lY", "width": 4608}], "place_id": "ChIJrVVTjLjSQw0RvApu27aJoVw", "plus_code": {"compound_code": "HCMQ+MW Fuente del Fresno, Spain", "global_code": "8CGRHCMQ+MW"}, "rating": 4.4, "reference": "ChIJrVVTjLjSQw0RvApu27aJoVw", "scope": "GOOGLE", "types": ["car_dealer", "point_of_interest", "store", "establishment"], "user_ratings_total": 234, "vicinity": "AUTOVIA A-1 DIRECCION BURGOS SALIDA 23, 3ªGLORIETA DIRECCION ALGETE, San Sebastián de los Reyes"}, {"business_status": "OPERATIONAL", "geometry": {"location": {"lat": 40.56214, "lng": -3.49817}, "viewport": {"northeast": {"lat": 40.56357903029149, "lng": -3.497013669708498}, "southwest": {"lat": 40.56088106970849, "lng": -3.499711630291502}}}, "icon": "https://maps.gstatic.com/mapfiles/place_api/icons/v1/png_71/generic_business-71.png", "icon_background_color": "#7B9EB0", "icon_mask_base_uri": "https://maps.gstatic.com/mapfiles/place_api/icons/v2/generic_pinlet", "international_phone_number": "+34 918 25 90 55", "name": "Vagspeed", "opening_hours": {"open_now": false}, "photos": [{"height": 1080, "html_attributions": ["<a href=\"https://maps.google.com/maps/contrib/109470573917118261973\">Vagspeed</a>"], "photo_reference": "AWn5SU4Z40UXF9svuzhFA_IgaifTezcfK1Ddjl4J0lx0Jm3K_h0kSjXS6if2Ob5VLX0R7BXe412ibiDDWFLeTXkARIG5-O7yWQv7oqrW0MsgWJc4Gwo0LOF5YXnWJkZ_CZGUXRYybtSjavkgMMhcYwyjiKqLZQCqzZ35N3NlZ1mYSiZ1WDCzE3aKgGHukGtACgFMWESt8VglUwYOFToFKLyi4z5YhWPZdweipgNl0c_vaNo3JI2Yp0LaqDqJKE0Rj3GYWnDKRHsu92-3cF5wp6kyjov29I_pNX65LWr_cNO2u3J7VZRrJWimoZFhw_l0mnrqScnOJ-52bcs", "width": 1920}], "place_id": "ChIJpbTILqA0Qg0RJBU_fTH99dA", "plus_code": {"compound_code": "HG62+VP Cobeña, Spain", "global_code": "8CGRHG62+VP"}, "rating": 4.5, "reference": "ChIJpbTILqA0Qg0RJBU_fTH99dA", "scope": "GOOGLE", "types": ["car_repair", "point_of_interest", "establishment"], "user_ratings_total": 371, "vicinity": "Campo Nuevo, Calle Bronce, 5, Nave - Pol. Ind, Campo Nuevo"}, {"business_status": "OPERATIONAL", "geometry": {"location": {"lat": 40.5678558, "lng": -3.504943399999999}, "viewport": {"northeast": {"lat": 40.5691721802915, "lng": -3.503666969708497}, "southwest": {"lat": 40.5664742197085, "lng": -3.506364930291501}}}, "icon": "https://maps.gstatic.com/mapfiles/place_api/icons/v1/png_71/civic_building-71.png", "icon_background_color": "#7B9EB0", "icon_mask_base_uri": "https://maps.gstatic.com/mapfiles/place_api/icons/v2/civic-bldg_pinlet", "international_phone_number": "+34 916 20 81 32", "name": "Cobeña Town Hall", "opening_hours": {"open_now": false}, "photos": [{"height": 3456, "html_attributions": ["<a href=\"https://maps.google.com/maps/contrib/103122536312653213998\">Yuan Zhehai</a>"], "photo_reference": "AWn5SU4Ytg-WqIw7OI-Hn5dAPuUMZeSeg3wLEa90mGCJTlY7c1n9_dLYQbmdoJ3c1b2cC6mOAHLV20UfigVhZzsuDQwU2DjZOvldRKDAlndUTYI-VmjZcnZWBTHuOcfUhehGEduYw6f92oiX-P1u5DwTEgtQ74GMjbEyB9XSFgy71Z7L4fH5NFpX4nhq90Q9OUvEANF2cQrLYrLcX17HmZzPI_76FuFN5UGEdBtkDxT-RZu4fUN3bi8DCu5wSG3eDL-m5XG1qxYGkuV2JRoAgp4m3Vh2jTfcj5hSm1pce6hSvJrewA920JBYZi-MwbWWZ9MnJEFzbnJPKDA6d7er8-Pw0EY4H38zVkprOk5Ncn8bDcS1_X1pXlERvqk6JjhZ4iKmmumyJ-kJOUOnnRWaWtsgYHXpPMfdkVF3U7sMqBUTxTB6vOMQdZ3wzoxT1tGZlzjyBQh6ZJosL0gJYU6kFBgE5qsIF-tI5whVA4Rn9ecIQGbDvaOjSkVeylDoLLKWT5jP9JP2fmqABCUZ4dGBOOiGqr7YptwSpXn87HcALtL-1Ba8_CrngLATDpocG3CUiBM4_scGY4Dy9jchmLuxWX0i305kzaySMxdyxtRG2BKkpmaPHc8EOYVRqH4x7C3XdynH", "width": 4608}], "place_id": "ChIJHz9wZ1kzQg0R5zMXVfSbr-M", "plus_code": {"compound_code": "HF9W+42 Cobeña, Spain", "global_code": "8CGRHF9W+42"}, "rating": 4.1, "reference": "ChIJHz9wZ1kzQg0R5zMXVfSbr-M", "scope": "GOOGLE", "types": ["city_hall", "local_government_office", "point_of_interest", "establishment"], "user_ratings_total": 236, "vicinity": "Plaza de la Villa, 1, Cobeña"}, {"business_status": "OPERATIONAL", "geometry": {"location": {"lat": 40.6054044, "lng": -3.5342689}, "viewport": {"northeast": {"lat": 40.6067157302915, "lng": -3.532935919708498}, "southwest": {"lat": 40.60401776970851, "lng": -3.535633880291502}}}, "icon": "https://maps.gstatic.com/mapfiles/place_api/icons/v1/png_71/generic_business-71.png", "icon_background_color": "#7B9EB0", "icon_mask_base_uri": "https://maps.gstatic.com/mapfiles/place_api/icons/v2/generic_pinlet", "international_phone_number": "+34 699 81 25 38", "name": "Centro Canino Prado Norte", "opening_hours": {"open_now": false}, "place_id": "ChIJj9D4lubMQw0R_RcCW5AzLQk", "plus_code": {"compound_code": "JF48+57 Algete, Spain", "global_code": "8CGRJF48+57"}, "rating": 4.6, "reference": "ChIJj9D4lubMQw0R_RcCW5AzLQk", "scope": "GOOGLE", "types": ["point_of_interest", "establishment"], "user_ratings_total": 24, "vicinity": "Camino del Espinar, Algete"}, {"business_status": "OPERATIONAL", "geometry": {"location": {"lat": 40.59059299999999, "lng": -3.5436594}, "viewport": {"northeast": {"lat": 40.5918907802915, "lng": -3.542312769708498}, "southwest": {"lat": 40.5891928197085, "lng": -3.545010730291502}}}, "icon": "https://maps.gstatic.com/mapfiles/place_api/icons/v1/png_71/shopping-71.png", "icon_background_color": "#4B96F3", "icon_mask_base_uri": "https://maps.gstatic.com/mapfiles/place_api/icons/v2/shopping_pinlet", "international_phone_number": "+34 916 29 36 70", "name": "RAS Bisutería", "opening_hours": {"open_now": false}, "photos": [{"height": 1080, "html_attributions": ["<a href=\"https://maps.google.com/maps/contrib/107651079754192220547\">RAS Bisutería</a>"], "photo_reference": "AWn5SU6UklLtYNH-FEiDY0-H4kjSjm-6A5dN79OI-sR75ely-RbXKafz-9AOdpeJQfcS3m3fLCoFv_03woFc380S73xxcdRoERsgT9O2pOP4Lun27LXS7L7bwJZhvkQazeElVDWFnNEteHwQJeahziEsetvRVfGb8n6hmLwHhKjeXWhWL1xmZxe1SCsOs-HHHg3Lkmw0fKM15X0p7rt0YlCU57DioKEHKP0HFCXEaCt_Lft2UQ_ryQtjXB6ezfHF6n9kJSIS0xumg6WvyBAt-v1yOSUE-SgkS6lQUJ8tszh5SnOX3R5bYcFtznFZsUNvukalqJB-K1-SVG8", "width": 1080}], "place_id": "ChIJjYnRgijNQw0RVZ802dcYbp4", "plus_code": {"compound_code": "HFR4+6G Algete, Spain", "global_code": "8CGRHFR4+6G"}, "rating": 4.3, "reference": "ChIJjYnRgijNQw0RVZ802dcYbp4", "scope": "GOOGLE", "types": ["jewelry_store", "point_of_interest", "store", "establishment"], "user_ratings_total": 18, "vicinity": "Calle de La Torrecilla, 8, Algete"}, {"business_status": "OPERATIONAL", "geometry": {"location": {"lat": 40.5887718, "lng": -3.543141599999999}, "viewport": {"northeast": {"lat": 40.5901878302915, "lng": -3.541566619708498}, "southwest": {"lat": 40.5874898697085, "lng": -3.544264580291501}}}, "icon": "https://maps.gstatic.com/mapfiles/place_api/icons/v1/png_71/shopping-71.png", "icon_background_color": "#4B96F3", "icon_mask_base_uri": "https://maps.gstatic.com/mapfiles/place_api/icons/v2/shopping_pinlet", "international_phone_number": "+34 916 29 08 10", "name": "Parque Mueble | Tienda de muebles Madrid", "opening_hours": {"open_now": false}, "photos": [{"height": 400, "html_attributions": ["<a href=\"https://maps.google.com/maps/contrib/101856617882782913012\">Parque Mueble | Tienda de muebles Madrid</a>"], "photo_reference": "AWn5SU4SHPfWJSH4ybVU9sWqAZnvM9pnPH9yz31vj-8c60ydKJm-cbUmhQRJXS3xnG5dFxsnmyrYqplQYcN7FCc8kacg8pyIoj7OfwZUyme_8lKcpQMB8ljejzsl5h8S3cghLcBM-BbbnzyVJ4wqYVPQkskBHM-lj7AzwwMCoWcfKbm5_SuxZBfwgJYMuWkuOPSZ1uiJIIWoHmagqR6U1dpEguxdj6pxG22zM12uwtQJo5ELpsIg2uJid8O4BXifjOPuIB2X8mmSjCxGqurwYsAVMQ3W_R1ZR-B0hEO062iGWdXDShZDrYa43a2gP6m28yOaO5hbVKwNOSE", "width": 500}], "place_id": "ChIJ5Q8TYyjNQw0R1U89r3C7VjU", "plus_code": {"compound_code": "HFQ4+GP Algete, Spain", "global_code": "8CGRHFQ4+GP"}, "rating": 4.6, "reference": "ChIJ5Q8TYyjNQw0R1U89r3C7VjU", "scope": "GOOGLE", "types": ["furniture_store", "home_goods_store", "point_of_interest", "store", "establishment"], "user_ratings_total": 62, "vicinity": "Calle de la Pelaya, 2, Algete"}, {"business_status": "OPERATIONAL", "geometry": {"location": {"lat": 40.5670656, "lng": -3.502549399999999}, "viewport": {"northeast": {"lat": 40.5684295302915, "lng": -3.501269869708498}, "southwest": {"lat": 40.5657315697085, "lng": -3.503967830291502}}}, "icon": "https://maps.gstatic.com/mapfiles/place_api/icons/v1/png_71/civic_building-71.png", "icon_background_color": "#7B9EB0", "icon_mask_base_uri": "https://maps.gstatic.com/mapfiles/place_api/icons/v2/civic-bldg_pinlet", "international_phone_number": "+34 916 20 72 59", "name": "Oficina de Correos", "opening_hours": {"open_now": false}, "photos": [{"height": 900, "html_attributions": ["<a href=\"https://maps.google.com/maps/contrib/103814941439737710677\">Oficina de Correos</a>"], "photo_reference": "AWn5SU4ojclhFQMMT2FrSITwmnM1F9BcvuXejOUfl0FEuUCuBicRFBvqcYU70ZddVHQKzdWkZR1-I5szQB3AQYCgnNFTi2r-ypso56Q8tNt9pRBe40K3DpF35hQmTV8bDGSxLy00lik5ofwEWi2XpnhVlDtlnfcugya0hKVE8cmm_E0nf3wWzLxicL5iSzZ990BKHhCg0quP6aUhTNFu4NTId_t_2lESloQr092yjm62QW9Al7h9XjZXmObUko3Bp2DaOvl10-ImoIdY5_LLaYBguJWCmZzinvFmAPzzu2M3VguJ5hR-Vee0BCPiY4As0IklSLMpNpHJp08", "width": 1600}], "place_id": "ChIJqePu2VgzQg0RGno-o-w0cqM", "plus_code": {"compound_code": "HF8W+RX Cobeña, Spain", "global_code": "8CGRHF8W+RX"}, "rating": 3.2, "reference": "ChIJqePu2VgzQg0RGno-o-w0cqM", "scope": "GOOGLE", "types": ["post_office", "finance", "point_of_interest", "establishment"], "user_ratings_total": 58, "vicinity": "Avenida de Guadalajara, 20, Cobeña"}, {"geometry": {"location": {"lat": 40.54502979999999, "lng": -3.4574079}, "viewport": {"northeast": {"lat": 40.55489076152302, "lng": -3.448311239504362}, "southwest": {"lat": 40.54049597820279, "lng": -3.467545043832218}}}, "icon": "https://maps.gstatic.com/mapfiles/place_api/icons/v1/png_71/geocode-71.png", "icon_background_color": "#7B9EB0", "icon_mask_base_uri": "https://maps.gstatic.com/mapfiles/place_api/icons/v2/generic_pinlet", "name": "Daganzo de Arriba", "photos": [{"height": 2448, "html_attributions": ["<a href=\"https://maps.google.com/maps/contrib/114573754530632149142\">Juan Jose Pablos</a>"], "photo_reference": "AWn5SU5BN9vOCupwbYE3kf9fcfsokj2OKohd5FeJu6cSMEu21rU3Bko6CQlYFUcrdDHhm48Swpyuz-i_aY0Q2HW3E7HbofSTYLBDdrw5TtuKdbZqhs8eltRPKV85wv9fTrIuWeeeaLBb2SOBUa6KVQng2GSWdEd0ZkfNgOWr9b-GHBCCUApXjIQmnbmkyKkTw2o7eKqE9Fu2KEOqWMHGzGAlzo5NCywjLGr7Bu5lnQjUM81J6zfV-uqKu9mpsmGPHpubNOTCYCWPehvYLW48Rtg4XTikF34aKP3rTbo8-WrzpjJD0HlS31p34TNWW8_8E4QEh2dWMWPCHON2augBXHWtH5ryJflKegwRAB0Fr6moCPUA0Z137dBEXebD7NAOwmAf7cHKudxar71goylmK3nVn6bkBQ6vQLOhQ-wU2wrZXnXLDavMCoiHBmoAFB7nK4NCVtDePAp19GcwnVlWSQZN7x6GmEg6GxcHUf-6ibYvlycYflq4JHABXuRPG5aqXWiYeZU3CJOMWj0G5RCB3dmGG5WwKvI8npurIyAemVDg2qmNgkaL9QI8goFve8o36nV1vznElvKz-7FhHAWT2Kgkn5-Ec20EseIRsZixZmsPpSXwb370hkJbvukcBc4UGSi6e8CRixB2", "width": 3264}], "place_id": "ChIJxU4G-f00Qg0RqZUXbdRRBVk", "reference": "ChIJxU4G-f00Qg0RqZUXbdRRBVk", "scope": "GOOGLE", "types": ["locality", "political"], "vicinity": "Daganzo de Arriba"}]