[{"business_status": "OPERATIONAL", "geometry": {"location": {"lat": 40.2129607, "lng": -3.8522187}, "viewport": {"northeast": {"lat": 40.2143651802915, "lng": -3.850859569708498}, "southwest": {"lat": 40.2116672197085, "lng": -3.853557530291502}}}, "icon": "https://maps.gstatic.com/mapfiles/place_api/icons/v1/png_71/bank-71.png", "icon_background_color": "#909CE1", "icon_mask_base_uri": "https://maps.gstatic.com/mapfiles/place_api/icons/v2/bank-intl_pinlet", "international_phone_number": "+34 918 10 31 36", "name": "BBVA", "opening_hours": {"open_now": false}, "photos": [{"height": 720, "html_attributions": ["<a href=\"https://maps.google.com/maps/contrib/103230076870059651596\">BBVA</a>"], "photo_reference": "AWn5SU6M3Ur-TwFNbGC7ErieQfbpTipm4VWxgV_-VjiREKRh6oBAw8d72BITPGTEJM24e0cNd_y4vM6pG3ucBF_ihzp5hI-AlpUjiLC4iBhuKKLSo-QyQeJ7jpWeVSl8-p6Nb0MTAteTH-qRa1_B-CtKAosFFjRq7ReKWA_YKJBekHkYvz8_rBz2PeEd5z-_XXsSw0Q3n53GibMd14Fd8CEeCd35CvrA3M8obq9Jrz4BAzrBabi4slENqb0V9Rpil8q54UHzqrUx6NjRa3itiw__ZtEFnec7_XWbYMuJNTGftK3ine6dcgBLa6F0PttVV9dt8lnVSJfnYxE", "width": 1280}], "place_id": "ChIJ91WuNA7zQQ0R53gcDRGm-n4", "plus_code": {"compound_code": "647X+54 Griñón, Spain", "global_code": "8CGR647X+54"}, "rating": 1.8, "reference": "ChIJ91WuNA7zQQ0R53gcDRGm-n4", "scope": "GOOGLE", "types": ["bank", "atm", "accounting", "finance", "point_of_interest", "establishment"], "user_ratings_total": 44, "vicinity": "Calle Mayor, 55, Griñón"}, {"business_status": "OPERATIONAL", "geometry": {"location": {"lat": 40.2398607, "lng": -3.7655906}, "viewport": {"northeast": {"lat": 40.2412291802915, "lng": -3.764313119708497}, "southwest": {"lat": 40.23853121970851, "lng": -3.767011080291502}}}, "icon": "https://maps.gstatic.com/mapfiles/place_api/icons/v1/png_71/bank-71.png", "icon_background_color": "#909CE1", "icon_mask_base_uri": "https://maps.gstatic.com/mapfiles/place_api/icons/v2/bank-intl_pinlet", "international_phone_number": "+34 916 99 53 96", "name": "Unicaja Banco", "opening_hours": {"open_now": false}, "place_id": "ChIJqbkasTf1QQ0RDAlyKt9kW5w", "plus_code": {"compound_code": "66QM+WQ Parla, Spain", "global_code": "8CGR66QM+WQ"}, "rating": 1.3, "reference": "ChIJqbkasTf1QQ0RDAlyKt9kW5w", "scope": "GOOGLE", "types": ["bank", "finance", "point_of_interest", "establishment"], "user_ratings_total": 30, "vicinity": "Calle de Cuenca, 1, Posterior, Parla"}, {"business_status": "OPERATIONAL", "geometry": {"location": {"lat": 40.2006841, "lng": -3.7990644}, "viewport": {"northeast": {"lat": 40.2018927302915, "lng": -3.797757069708497}, "southwest": {"lat": 40.1991947697085, "lng": -3.800455030291502}}}, "icon": "https://maps.gstatic.com/mapfiles/place_api/icons/v1/png_71/bank-71.png", "icon_background_color": "#909CE1", "icon_mask_base_uri": "https://maps.gstatic.com/mapfiles/place_api/icons/v2/bank-intl_pinlet", "international_phone_number": "+34 918 10 62 12", "name": "BBVA", "opening_hours": {"open_now": false}, "photos": [{"height": 720, "html_attributions": ["<a href=\"https://maps.google.com/maps/contrib/117165492132688620275\">BBVA</a>"], "photo_reference": "AWn5SU6WEqXdKLJQlR4-h03UH6qf99rJKhgq9JtlDTqgRUpikXYNaQVmRwfp7PAtp7JaQyra0DCc2AH-mJnUUTaASMUPI6CACdcFNkQXYWm7p4frBTJ1KAzNVK4quoa0UGR5dlUbq3URFeo16sDJh06ZCo3GCZyidnd213G4IcoOlKMVGDhBB9_uQPukTJxFO6oWvqOvbgTzS_zjbzRCIkpKYo8VEd15FF4eq3aIp2zdHl9P0XZUU7Ucc5DAvDNbuVkvgJR8OPrYOJPAVDMKKt_SP6NLMMstScuYw9K8CL6hTJ4OY_17G7HYIkbjybnEIHhV4hUjIFHOQDo", "width": 1280}], "place_id": "ChIJPcmC-1v0QQ0RRpk2HbBZthA", "plus_code": {"compound_code": "6622+79 Torrejón de la Calzada, Spain", "global_code": "8CGR6622+79"}, "rating": 3.3, "reference": "ChIJPcmC-1v0QQ0RRpk2HbBZthA", "scope": "GOOGLE", "types": ["bank", "atm", "accounting", "finance", "point_of_interest", "establishment"], "user_ratings_total": 19, "vicinity": "Plaza de España, 5, Torrejón de la Calzada"}, {"business_status": "OPERATIONAL", "geometry": {"location": {"lat": 40.2129753, "lng": -3.8502983}, "viewport": {"northeast": {"lat": 40.2143591802915, "lng": -3.848872719708499}, "southwest": {"lat": 40.2116612197085, "lng": -3.851570680291503}}}, "icon": "https://maps.gstatic.com/mapfiles/place_api/icons/v1/png_71/bank-71.png", "icon_background_color": "#909CE1", "icon_mask_base_uri": "https://maps.gstatic.com/mapfiles/place_api/icons/v2/bank-intl_pinlet", "international_phone_number": "+34 918 10 34 26", "name": "Bankinter", "opening_hours": {"open_now": false}, "photos": [{"height": 720, "html_attributions": ["<a href=\"https://maps.google.com/maps/contrib/104465399990123804770\">Bankinter</a>"], "photo_reference": "AWn5SU4Olp4h_aQJw6qxI9jlS2C6-EXOYJbABrpKuMReup9kfjDJKOuSCNNtEvgn6TYiyS_Zk-wqyLrTyVo1IzIfyw8bpFovUkw5G1zVBHBX1KtR-fDTX15Rvg0eftpXtjujd0_qYLDI-xilWcDNDg-OeY47YSat0CaQ2PAkwoydJnvDX7zOLtdHTjsPJR4BvEaNRL_KImeO3aSPTADtysE4Cvme6HFJxJN6myQlDcW0Va5cGS_tTp-O7QgQwUVnqJDuBLdoVzwe892fSrEfMtsyutCRKurVF-3pdDGJIhaNHr9SWkn-ulNFs2m7N8v86rEIqbz-g4Vth0Y", "width": 720}], "place_id": "ChIJ2T6DdQ7zQQ0RCBv6-P-tUPI", "plus_code": {"compound_code": "647X+5V Griñón, Spain", "global_code": "8CGR647X+5V"}, "rating": 1.8, "reference": "ChIJ2T6DdQ7zQQ0RCBv6-P-tUPI", "scope": "GOOGLE", "types": ["bank", "atm", "finance", "point_of_interest", "establishment"], "user_ratings_total": 15, "vicinity": "Plaza de la Fragua, 7, Griñón"}, {"business_status": "OPERATIONAL", "geometry": {"location": {"lat": 40.23679999999999, "lng": -3.769599999999999}, "viewport": {"northeast": {"lat": 40.23811108029149, "lng": -3.768261619708497}, "southwest": {"lat": 40.23541311970849, "lng": -3.770959580291502}}}, "icon": "https://maps.gstatic.com/mapfiles/place_api/icons/v1/png_71/generic_business-71.png", "icon_background_color": "#7B9EB0", "icon_mask_base_uri": "https://maps.gstatic.com/mapfiles/place_api/icons/v2/generic_pinlet", "international_phone_number": "+34 912 49 43 20", "name": "Asesoría Gales", "opening_hours": {"open_now": false}, "photos": [{"height": 924, "html_attributions": ["<a href=\"https://maps.google.com/maps/contrib/113146431108341665937\">Asesoría Gales</a>"], "photo_reference": "AWn5SU71EXkcrjOTqMSCTfbF91Vd_pZuUvEdlA5GnOxfcOngjYjZWIznzVGwDXEnjMgnyzMsZKK5v81g8p6sxLuGS-NR_Pn1dba_KSY6F55oEy_13lxdgxrIxpKS4JBXtWRPB8UsC8ePAX0pJpgt6kyjZGjCZFGeO_3clWNisTy2SuupD79bdeledSJ332GQviGHil9vcMrNhn2ODQ3SpgjKwO2VbHqvWxBOHRoyPO_CvBW-jrX5xOxf3dD3bLDR5M-EXpUfDaQMfBBB5DmXTAOre5N_boyQUpho72p0u0gnzQAiytMSZa39ObhqVd98VnNrG3H9xOYnZVY", "width": 1640}], "place_id": "ChIJO7hYBTr1QQ0RvCnqESJdC3w", "plus_code": {"compound_code": "66PJ+P5 Parla, Spain", "global_code": "8CGR66PJ+P5"}, "rating": 4.8, "reference": "ChIJO7hYBTr1QQ0RvCnqESJdC3w", "scope": "GOOGLE", "types": ["accounting", "bank", "lawyer", "insurance_agency", "finance", "point_of_interest", "establishment"], "user_ratings_total": 508, "vicinity": "Calle San Antón, 13, Parla"}, {"business_status": "OPERATIONAL", "geometry": {"location": {"lat": 40.2001223, "lng": -3.7978662}, "viewport": {"northeast": {"lat": 40.20142483029149, "lng": -3.796535869708498}, "southwest": {"lat": 40.1987268697085, "lng": -3.799233830291503}}}, "icon": "https://maps.gstatic.com/mapfiles/place_api/icons/v1/png_71/bank-71.png", "icon_background_color": "#909CE1", "icon_mask_base_uri": "https://maps.gstatic.com/mapfiles/place_api/icons/v2/bank-intl_pinlet", "international_phone_number": "+34 918 46 02 96", "name": "Eurocaja Rural", "opening_hours": {"open_now": false}, "photos": [{"height": 1080, "html_attributions": ["<a href=\"https://maps.google.com/maps/contrib/104597042525257801750\">Eurocaja Rural</a>"], "photo_reference": "AWn5SU5gOyFNO6eEM3KggDsMuFlkOQshk4snQTcN0Zjsqv13U94L_Zn0wjNPODZ0vIwcDSaZznTmpaxOYtWW3636qdqlZGxuxo0wmPH87qofMgx5K9876HclxyX1pxv-B-wwHeOME4S47Tii4_pNE39bL3cXv-ms8AZ9VY_ie11y8j-xL9vogK9CNq9PJPVCjYWKrEOwjzRLM7D_RYfXMBELs9n9Qw_WJR3VIPBlnrbGuu-DXfM0MX7PvMGphVaaD2oEfVKKc9V7IrlEzjzv4mxI-8DivrSm0Q68N76BoYv3XYYGevYGSZRxu_82dY2qHAGvcdDAlUbhhh8", "width": 1920}], "place_id": "ChIJH1FBw1v0QQ0ROJW29zGGueg", "plus_code": {"compound_code": "6622+2V Torrejón de la Calzada, Spain", "global_code": "8CGR6622+2V"}, "rating": 4.1, "reference": "ChIJH1FBw1v0QQ0ROJW29zGGueg", "scope": "GOOGLE", "types": ["bank", "atm", "finance", "point_of_interest", "establishment"], "user_ratings_total": 14, "vicinity": "Calle de 12 de Octubre, 21, Torrejón de la Calzada"}, {"business_status": "OPERATIONAL", "geometry": {"location": {"lat": 40.18662219999999, "lng": -3.777686899999999}, "viewport": {"northeast": {"lat": 40.1880413302915, "lng": -3.776343369708498}, "southwest": {"lat": 40.18534336970851, "lng": -3.779041330291503}}}, "icon": "https://maps.gstatic.com/mapfiles/place_api/icons/v1/png_71/bank-71.png", "icon_background_color": "#909CE1", "icon_mask_base_uri": "https://maps.gstatic.com/mapfiles/place_api/icons/v2/bank-intl_pinlet", "international_phone_number": "+34 910 52 65 02", "name": "Banco Santander Agentes", "opening_hours": {"open_now": false}, "photos": [{"height": 720, "html_attributions": ["<a href=\"https://maps.google.com/maps/contrib/116527904708829712328\">Banco Santander Agentes</a>"], "photo_reference": "AWn5SU7wvceoqEJnNdLrT4sme-ki2woS8IszvQ-l_emkipmnonFmqPouZILuNx1KoIJMJshN2praWDWhk-WL4Kfb4uRwywH0HS5FeWpgGC2m7Evb5cwkJCHrWHZEMus1Docv-AV0ox6pUJbXrIOtlZfwrDf3Q0MEb7SmKRTOfQAg4DQL_XxhGXRYFv0pUITz1yB4558ho3vLbmyRwFsMQXsSsg3aCaoBk0XYB6PYtq-aWv8LBAQd137A2L7yerPgkXKvfdMeDu-DWfpbs4Kr-TkReKwgCxJRgdFnT9nf7XVwqlkx-lBpEOjLsaTjN2hk6cdn2zxoF8rdLJU", "width": 1280}], "place_id": "ChIJp4iPIrb1QQ0RPe1bDJL-jrc", "plus_code": {"compound_code": "56PC+JW Torrejón de Velasco, Spain", "global_code": "8CGR56PC+JW"}, "rating": 3.9, "reference": "ChIJp4iPIrb1QQ0RPe1bDJL-jrc", "scope": "GOOGLE", "types": ["bank", "atm", "finance", "point_of_interest", "establishment"], "user_ratings_total": 7, "vicinity": "Plaza de España, 18, Torrejón de Velasco"}, {"business_status": "OPERATIONAL", "geometry": {"location": {"lat": 40.23699519999999, "lng": -3.768251799999999}, "viewport": {"northeast": {"lat": 40.23839808029149, "lng": -3.766888619708498}, "southwest": {"lat": 40.2357001197085, "lng": -3.769586580291502}}}, "icon": "https://maps.gstatic.com/mapfiles/place_api/icons/v1/png_71/bank-71.png", "icon_background_color": "#909CE1", "icon_mask_base_uri": "https://maps.gstatic.com/mapfiles/place_api/icons/v2/bank-intl_pinlet", "international_phone_number": "+34 916 98 92 35", "name": "Kutxabank", "opening_hours": {"open_now": false}, "photos": [{"height": 2458, "html_attributions": ["<a href=\"https://maps.google.com/maps/contrib/109314065795211065870\">Alia Att</a>"], "photo_reference": "AWn5SU5VHTRlUA-OMOpbI79HErHNyv-hVxcSlZWWekqrbMDPH58gAu_iy5-wMftwGwlHpN8GbX1B-963QnB2j6N9mbQCwDPsZGnBP5k10Wr0HenKvuarC-KfnrxKyBWK7StzmD0YwbuZwmH2N8JOfCTyLdMJm1acLsPJ4kteotdSo3ZnwxC1Dt_8M-MHR-9Q_UKc-ZjpydbsZ31xc9YHDr3xAaaH20MeBNwuURId8DDz2igR9rRYc01MQbpy6GI23Vg-bk1XzJDUW6CHZeqE5qw4w17ZVD7gPvHEv-22_Z5iAJPe1qMKfK4wEskhwNvNa4MRZGF8J24iRJbbibAAcxlbN8fUppZBwcEK9ijrKKZZm0tlyuO2y0azfup3tNqd2gLSSq2s3EpGELFUUzadt605yepqBGNKp5wk1913wWu3KmVLC1H-4lFOYJr7Scl2wvFBfgqUAJH37Vs-AHAOECUpFnyE1LZI0bHwYGEMQC_MQAQ5LJqGAfNgn_vj_wxSGhCK4d3-14X15S2OjPUrJHKE7DqIPyH9dQrDR-47xSAsAwoREol7FuwjXB9M5N4z21c_4BtXG2TOd1_q6-F0oWiQuobI60yMETjrl_VrWEC8UBbx-W9oxiF2IURVwWX16Aov9wK1MQ", "width": 4090}], "place_id": "ChIJ9V9QTjH1QQ0RGyjJspA6o2o", "plus_code": {"compound_code": "66PJ+QM Parla, Spain", "global_code": "8CGR66PJ+QM"}, "rating": 4.9, "reference": "ChIJ9V9QTjH1QQ0RGyjJspA6o2o", "scope": "GOOGLE", "types": ["bank", "atm", "accounting", "finance", "point_of_interest", "establishment"], "user_ratings_total": 413, "vicinity": "Calle Carolina Coronado, 16, 4 BAJO, Parla"}, {"business_status": "OPERATIONAL", "geometry": {"location": {"lat": 40.2392551, "lng": -3.7689119}, "viewport": {"northeast": {"lat": 40.24059028029151, "lng": -3.767423219708498}, "southwest": {"lat": 40.23789231970851, "lng": -3.770121180291502}}}, "icon": "https://maps.gstatic.com/mapfiles/place_api/icons/v1/png_71/bank-71.png", "icon_background_color": "#909CE1", "icon_mask_base_uri": "https://maps.gstatic.com/mapfiles/place_api/icons/v2/bank-intl_pinlet", "international_phone_number": "+34 916 99 15 13", "name": "Banco Santander - Smart Red", "opening_hours": {"open_now": false}, "photos": [{"height": 720, "html_attributions": ["<a href=\"https://maps.google.com/maps/contrib/108538666410529087438\">Banco Santander - Smart Red</a>"], "photo_reference": "AWn5SU6YAK3atwdSv2V4Y6Aj0CWNV4dUa6pv7hJ4Hk9x6cRxPQJ1NfGraFfkQrdd2wwDnf9o3Zbbkh0-i70ye3RqIPz7oaLMBZKsxbMaTg8YXF09AIqp-KaE3s_4aOno2EEjcI39KmzvqwO52y_SVdCSr8fjFQsrBCJTONfhmbd_G83fHxpnB_VaaQ8eB985azxAYmssproutgupodSZ3WgTui_qszM0WtwkD2jdUDaVSh2XyvAXsOM6IpqXe1DH1tskVZAXMJ6NMC0jmqQ1dcP3qa_IHe_LLka8YqnFsRBaFAu_KQ7NVxme5TYyT9dIIuhSzEvozGVQv2M", "width": 1280}], "place_id": "ChIJV30nMzf1QQ0RHD0JdTUbSBE", "plus_code": {"compound_code": "66QJ+PC Parla, Spain", "global_code": "8CGR66QJ+PC"}, "rating": 2, "reference": "ChIJV30nMzf1QQ0RHD0JdTUbSBE", "scope": "GOOGLE", "types": ["bank", "atm", "finance", "point_of_interest", "establishment"], "user_ratings_total": 46, "vicinity": "Calle de la Paloma, 2, Parla"}, {"business_status": "OPERATIONAL", "geometry": {"location": {"lat": 40.2353886, "lng": -3.772534700000001}, "viewport": {"northeast": {"lat": 40.23677233029149, "lng": -3.771253919708498}, "southwest": {"lat": 40.23407436970849, "lng": -3.773951880291503}}}, "icon": "https://maps.gstatic.com/mapfiles/place_api/icons/v1/png_71/bank-71.png", "icon_background_color": "#909CE1", "icon_mask_base_uri": "https://maps.gstatic.com/mapfiles/place_api/icons/v2/bank-intl_pinlet", "international_phone_number": "+34 916 98 61 15", "name": "Ibercaja", "opening_hours": {"open_now": false}, "photos": [{"height": 900, "html_attributions": ["<a href=\"https://maps.google.com/maps/contrib/100333136668278782781\">Ibercaja Banco</a>"], "photo_reference": "AWn5SU71ANIHo-tJXWFuAUu82d-uMxPyAHxnfZSorF2wkx63cXQuzZLTW8Edx_pBH4hDhV5Xme1MOxOFj4tH9QoHWWX05qaOSx7Nf_3TIMUh_a7xZzy2BdsQu08I6f137UHQs64fNOViOiuvZO_XKNGrGlUawYtfLZW6hWWi93KfmjBb85weZre-qAiItRmfFpxbEugAKFStlu8lIeVET36pVFtrI4VO8YgilKHwc-n6KjthtL_S4eCVAMrNaTXZSBRE56Gp9-95HfA_Zl2HknXpyAHa4SWWmmiVWrjvxkkn0t3x84pD7YOP84ZP7_W0ADpTRdQXW2vBm3M", "width": 1600}], "place_id": "ChIJnbiW3Tr1QQ0R_nmQkv3s1AU", "plus_code": {"compound_code": "66PG+5X Parla, Spain", "global_code": "8CGR66PG+5X"}, "rating": 2.7, "reference": "ChIJnbiW3Tr1QQ0R_nmQkv3s1AU", "scope": "GOOGLE", "types": ["bank", "atm", "accounting", "finance", "point_of_interest", "establishment"], "user_ratings_total": 14, "vicinity": "Calle Real ESQUINA, Calle Severo Ochoa, S/N, Parla"}, {"business_status": "OPERATIONAL", "geometry": {"location": {"lat": 40.2116631, "lng": -3.8496609}, "viewport": {"northeast": {"lat": 40.2131073302915, "lng": -3.848248719708498}, "southwest": {"lat": 40.2104093697085, "lng": -3.850946680291502}}}, "icon": "https://maps.gstatic.com/mapfiles/place_api/icons/v1/png_71/bank-71.png", "icon_background_color": "#909CE1", "icon_mask_base_uri": "https://maps.gstatic.com/mapfiles/place_api/icons/v2/bank-intl_pinlet", "international_phone_number": "+34 918 14 00 51", "name": "Banco Santander", "opening_hours": {"open_now": false}, "photos": [{"height": 720, "html_attributions": ["<a href=\"https://maps.google.com/maps/contrib/108002467892535181635\">Banco Santander</a>"], "photo_reference": "AWn5SU5MCjnx6_stSYM1a_mR_r0NokNXtgt4pSUX0g981YolF4D8v91suJqhd-pbyhP_boQKV8ci-HEsrfgeTRIgWI7NvTLDSy-FB__K8waIf_57lJrhsD0eBNd2QgDmx073SAr0ZNDFU-MvNeUm0oliks_6mE01FsUz42MjySTXa8ckF8RXTzpmO3ya6WPWeLBrJ2OeDyluI9c_v04CWQI8zVfHwLYjjMFBgv-LcW6ikpRlr85cA9sSiIwjkfA9gZufJfsi14QQpVxUUt_aEMP-w3MKyOBwW-dZwDgMTwxy80clT1CFXaFZ-Gml_s_CFBKNfndsmTveKHE", "width": 1280}], "place_id": "ChIJ86-wXruIb0ARTl0avVMPiCo", "plus_code": {"compound_code": "6562+M4 Griñón, Spain", "global_code": "8CGR6562+M4"}, "rating": 2.5, "reference": "ChIJ86-wXruIb0ARTl0avVMPiCo", "scope": "GOOGLE", "types": ["bank", "atm", "finance", "point_of_interest", "establishment"], "user_ratings_total": 22, "vicinity": "Calle de la Grama, 4, Griñón"}, {"business_status": "OPERATIONAL", "geometry": {"location": {"lat": 40.235825, "lng": -3.771575699999999}, "viewport": {"northeast": {"lat": 40.2369935302915, "lng": -3.770305969708497}, "southwest": {"lat": 40.2342955697085, "lng": -3.773003930291502}}}, "icon": "https://maps.gstatic.com/mapfiles/place_api/icons/v1/png_71/bank-71.png", "icon_background_color": "#909CE1", "icon_mask_base_uri": "https://maps.gstatic.com/mapfiles/place_api/icons/v2/bank-intl_pinlet", "international_phone_number": "+34 600 40 40 90", "name": "CaixaBank Store", "opening_hours": {"open_now": false}, "photos": [{"height": 1192, "html_attributions": ["<a href=\"https://maps.google.com/maps/contrib/113650137977378753990\">CaixaBank Store</a>"], "photo_reference": "AWn5SU5Q3KRcSSF5h6CooodPVUhSwy4bWp0gAdKXZpzAyNTCRoXRvAPNqUC-VIuxAdSNoYirdHerpjVG6VBpQG4MLGEiLjns5BVZSdJq4-j_ldxMNlhsWIWNYbLyBBb1_bEiYrXSTtA6q7bD6cyA1-5L4hzr3qElEJvf-dzQmetNcfklMo7J5v4X9wDiS-K6_X1RHtxLHooDM0vpB10vYHqRrRg8Oh_aRKTH5I0vulCS4OH8UkrHl-846d6wAhcuDVTgrI85u_2xuDvl9B9_qBNmVkYcnG-WxAZU21NiVZniHNLsrXLcxIDcUbcYAIgASJSTg3E5d0hM7_s", "width": 2120}], "place_id": "ChIJ5UrQ9Tr1QQ0R7xXbDy3K-3A", "plus_code": {"compound_code": "66PH+89 Parla, Spain", "global_code": "8CGR66PH+89"}, "rating": 1.6, "reference": "ChIJ5UrQ9Tr1QQ0R7xXbDy3K-3A", "scope": "GOOGLE", "types": ["bank", "finance", "point_of_interest", "establishment"], "user_ratings_total": 72, "vicinity": "Calle Real, 2, Parla"}, {"business_status": "OPERATIONAL", "geometry": {"location": {"lat": 40.21254319999999, "lng": -3.8512409}, "viewport": {"northeast": {"lat": 40.2139028302915, "lng": -3.849910769708498}, "southwest": {"lat": 40.2112048697085, "lng": -3.852608730291502}}}, "icon": "https://maps.gstatic.com/mapfiles/place_api/icons/v1/png_71/bank-71.png", "icon_background_color": "#909CE1", "icon_mask_base_uri": "https://maps.gstatic.com/mapfiles/place_api/icons/v2/bank-intl_pinlet", "international_phone_number": "+34 918 10 33 90", "name": "Ibercaja Banco", "opening_hours": {"open_now": false}, "photos": [{"height": 900, "html_attributions": ["<a href=\"https://maps.google.com/maps/contrib/118377960658711507394\">Ibercaja Banco</a>"], "photo_reference": "AWn5SU6lBejG3he9iUmotqLNsuSzRBmlW84kUfQPP3EPVlSAXL6UZMlF750yZ-gxqYNCpn0wnNxnIoY7LAvQst47NyYOrjwNwCIpLI_mfs27imANRqXUBFz6sSo_rO2Ioy0nYaJqoeZC2wtfcIj9F_e_w9yA7jgHtUh7XzS5m6H78XjkY6YJTC1NL6HTKoI-T5czW3Qu2DUC3IEScfOHAZkI9XDE5atYiwnDZqBT97VrD7l34QLvj2V1L3UtMXPQogUln7006oO1_YfUIweUTPmbovmIyW8lFepJhYDdJQ4YWb7DGtPm0QD9Z0cxwXv6leMUe0OsvrSV2Ug", "width": 1600}], "place_id": "ChIJC0_RaA7zQQ0RJi-J5c5AQfE", "plus_code": {"compound_code": "647X+2G Griñón, Spain", "global_code": "8CGR647X+2G"}, "rating": 2.4, "reference": "ChIJC0_RaA7zQQ0RJi-J5c5AQfE", "scope": "GOOGLE", "types": ["bank", "atm", "accounting", "finance", "point_of_interest", "establishment"], "user_ratings_total": 10, "vicinity": "Calle del Palo, 1, Griñón"}, {"business_status": "OPERATIONAL", "geometry": {"location": {"lat": 40.2041201, "lng": -3.8590322}, "viewport": {"northeast": {"lat": 40.20549678029149, "lng": -3.857740069708497}, "southwest": {"lat": 40.20279881970849, "lng": -3.860438030291502}}}, "icon": "https://maps.gstatic.com/mapfiles/place_api/icons/v1/png_71/bank-71.png", "icon_background_color": "#909CE1", "icon_mask_base_uri": "https://maps.gstatic.com/mapfiles/place_api/icons/v2/bank-intl_pinlet", "international_phone_number": "+34 918 10 32 10", "name": "Banco Sabadell", "opening_hours": {"open_now": false}, "photos": [{"height": 1080, "html_attributions": ["<a href=\"https://maps.google.com/maps/contrib/105348047079285848088\">Banco Sabadell</a>"], "photo_reference": "AWn5SU4jw0XRsR7OfL6xRKqaEfSw_RhNLPWWQkzCxHwoF50uZK1vDYTvce_IFxbK2AepV1EL09oTe0wLysRA6fzC3nZD0Zv7WWbgBOQnq1-Fgf3vjY44sW0Cn23aYxDI-0akXELmLaN3XITZRjpeKndrp2HJ1JWUsQYzvPwZIGz86jeqFvz2ZbRwhBtAGCjoSDn_ab3WOpjKzi1L8xQsyUfZ5AaRnLbtyk_uplZQxICPtiZAlpX2Wojyx0NQOHe756ZxPMrw4iKtHQbL9IzuX0RfJYCe7Le2-xX6hUfa4Pji0n8KKV1zeaM3vWE3Fym43pRnkft4xDhtopI", "width": 1920}], "place_id": "ChIJq6qqahvzQQ0RUBrob9vvjYc", "plus_code": {"compound_code": "643R+J9 Griñón, Spain", "global_code": "8CGR643R+J9"}, "rating": 3.3, "reference": "ChIJq6qqahvzQQ0RUBrob9vvjYc", "scope": "GOOGLE", "types": ["bank", "atm", "accounting", "finance", "point_of_interest", "establishment"], "user_ratings_total": 15, "vicinity": "Calle Francia, s/n, Griñón"}, {"business_status": "OPERATIONAL", "geometry": {"location": {"lat": 40.23997789999999, "lng": -3.769858499999999}, "viewport": {"northeast": {"lat": 40.2415351302915, "lng": -3.768569619708498}, "southwest": {"lat": 40.2388371697085, "lng": -3.771267580291502}}}, "icon": "https://maps.gstatic.com/mapfiles/place_api/icons/v1/png_71/bank-71.png", "icon_background_color": "#909CE1", "icon_mask_base_uri": "https://maps.gstatic.com/mapfiles/place_api/icons/v2/bank-intl_pinlet", "international_phone_number": "+34 916 99 74 48", "name": "BBVA", "opening_hours": {"open_now": false}, "photos": [{"height": 720, "html_attributions": ["<a href=\"https://maps.google.com/maps/contrib/101122948987179789617\">BBVA</a>"], "photo_reference": "AWn5SU4kgf98SjcXYzRMOX_nz5opNvUGP-p6eZMSFxYhJsXcR417Lw96XC4GM7TfL8D3KuVLNeZ-FNFB-sjUDTxSu7WSy9YGXQZlswoYboh4Zc-BmZS_aU_zvV2iLhN8cm8RDjX2gJzLZeKsa7CqqmBCGD31SKbKpmbsPSyojb1TIvqfxANRx7_Kx1QG39t-vGinj2r3792MMkDs5ibInhwB7H5rYFEllSMz2iikqtCAbr8a3RLO1sOi2r7hDzk6b0DUXBNvv8lnS2PN0q9BtuoIHJBSPREUnrF2bOJOVYO0B9Uc3IptlGo9v56Io7N7B3ib5uUmQua9-sg", "width": 1280}], "place_id": "ChIJCwyWTjH1QQ0Rw7QbqxknytE", "plus_code": {"compound_code": "66QJ+X3 Parla, Spain", "global_code": "8CGR66QJ+X3"}, "rating": 1.7, "reference": "ChIJCwyWTjH1QQ0Rw7QbqxknytE", "scope": "GOOGLE", "types": ["bank", "atm", "accounting", "finance", "point_of_interest", "establishment"], "user_ratings_total": 132, "vicinity": "Calle Real, 73, Parla"}, {"business_status": "OPERATIONAL", "geometry": {"location": {"lat": 40.22806999999999, "lng": -3.75167}, "viewport": {"northeast": {"lat": 40.22944693029149, "lng": -3.750232469708498}, "southwest": {"lat": 40.22674896970849, "lng": -3.752930430291503}}}, "icon": "https://maps.gstatic.com/mapfiles/place_api/icons/v1/png_71/bank-71.png", "icon_background_color": "#909CE1", "icon_mask_base_uri": "https://maps.gstatic.com/mapfiles/place_api/icons/v2/bank-intl_pinlet", "international_phone_number": "+34 600 40 40 90", "name": "CaixaBank", "opening_hours": {"open_now": false}, "photos": [{"height": 1192, "html_attributions": ["<a href=\"https://maps.google.com/maps/contrib/102247324062614616388\">CaixaBank</a>"], "photo_reference": "AWn5SU6exLw7PMm7emRg7R5MQrEvfPsJL_vHv1z-ERx7efXg2FYmJUyUS5yGWLthPW6v6Vz2mQ6N6hfoFGM31dGtIrHG4o95VwQc6gMTS15WNIvYaRB9J2jMF-pB5dlEauwwWegc_c4WI6dQaxzb8-ozCwivOF6LJY1rZheaIqSr2IjlxO6SX5W5mNMYvORaLsYT2_9QwEg1iy7d4MY0xrWwQkckFd6W2xJoLH3LFA_0FGKKD2zLwvGNtmAJlf__6lt8ZW42IPONDFZlnLoOOzFg35yhLzmSkECU_YUkCSeomxzb_OtOQcxWj7lGuE_FjcyCo1Sj8owIAIo", "width": 2120}], "place_id": "ChIJ_VeUfF31QQ0R_bfB2CdM4kg", "plus_code": {"compound_code": "66HX+68 Parla, Spain", "global_code": "8CGR66HX+68"}, "rating": 1.7, "reference": "ChIJ_VeUfF31QQ0R_bfB2CdM4kg", "scope": "GOOGLE", "types": ["bank", "finance", "point_of_interest", "establishment"], "user_ratings_total": 79, "vicinity": "Avenida de las Estrellas, 43, Parla"}, {"business_status": "OPERATIONAL", "geometry": {"location": {"lat": 40.2302221, "lng": -3.752805399999999}, "viewport": {"northeast": {"lat": 40.2314868302915, "lng": -3.751393369708497}, "southwest": {"lat": 40.2287888697085, "lng": -3.754091330291502}}}, "icon": "https://maps.gstatic.com/mapfiles/place_api/icons/v1/png_71/bank-71.png", "icon_background_color": "#909CE1", "icon_mask_base_uri": "https://maps.gstatic.com/mapfiles/place_api/icons/v2/bank-intl_pinlet", "international_phone_number": "+34 914 24 10 87", "name": "BBVA", "opening_hours": {"open_now": false}, "photos": [{"height": 720, "html_attributions": ["<a href=\"https://maps.google.com/maps/contrib/106213809494967949207\">BBVA</a>"], "photo_reference": "AWn5SU7gADHfxz03cLyZDw4GClMQd3-wo4n9tzMgT12D_HpWxDtw-h69SBQ0YJOxXBSK7sLXH9DT2dEKeQEDPV-rbMjUEE_2L1ckCf37qxymJfBmgieH4JfRINNCX0PTgWGSr3kjknMs3rgBYdFUOHqsAxXHz2Yldn94IF9aofGshJDPujz4I7F_PuHGrWgxmPrHT_v0VDX8og-pxExR-acIbK98nNTTyYDzi53XZNgkZFWIeCvl-9NyDmDzadtmASpyLvK5Jy2tLVxrNT5U6DWbL4JvjQIRBx2FzCH9L8TG1xBYqIGsUt6tWKgoKszCgidfXyspQRDESAI", "width": 1280}], "place_id": "ChIJ2YHfxkP1QQ0RBhbejANATzw", "plus_code": {"compound_code": "66JW+3V Parla, Spain", "global_code": "8CGR66JW+3V"}, "rating": 1.5, "reference": "ChIJ2YHfxkP1QQ0RBhbejANATzw", "scope": "GOOGLE", "types": ["bank", "atm", "accounting", "finance", "point_of_interest", "establishment"], "user_ratings_total": 61, "vicinity": "Calle Estrella Polar, 7, y 9, Parla"}, {"business_status": "OPERATIONAL", "geometry": {"location": {"lat": 40.23958699999999, "lng": -3.764577}, "viewport": {"northeast": {"lat": 40.2409156302915, "lng": -3.763210219708498}, "southwest": {"lat": 40.2382176697085, "lng": -3.765908180291502}}}, "icon": "https://maps.gstatic.com/mapfiles/place_api/icons/v1/png_71/bank-71.png", "icon_background_color": "#909CE1", "icon_mask_base_uri": "https://maps.gstatic.com/mapfiles/place_api/icons/v2/bank-intl_pinlet", "international_phone_number": "+34 916 64 40 56", "name": "Cajamar Caja Rural", "opening_hours": {"open_now": false}, "photos": [{"height": 608, "html_attributions": ["<a href=\"https://maps.google.com/maps/contrib/106670636511796801153\">Cajamar Caja Rural</a>"], "photo_reference": "AWn5SU5VXU6MiF2F8CK1_Yb9KHL2Wd9SmrQ-_tTSYnj11CdyABOznRD3MIrh5QPTHW2pcQd6uyngkMagCeHG4excYNVQsL6YrJGQKJ28QuNGKZ40xxsR_nG2sKvRRlOjaMe5rwPPKVKmzu9FqLpnmns4J48b3w_JfR-7ILd80a7czwUxoZOjlOwbt8E9fx9N9605dY5SDE8H6Xs6gUstBUVx9mIjfvC0ZmN-1XwZTzE8Xeo9ih3FH74LpSZLUYdByb3Ku31E2CByfVirWla5JqSiUo-J2OHt8r6OKkbXOuPfpuwOfqMkeEm4--lagBhvqNOm884eP5JHAU0", "width": 1080}], "place_id": "ChIJTVmr0Df1QQ0RAaMJG6gbgEQ", "plus_code": {"compound_code": "66QP+R5 Parla, Spain", "global_code": "8CGR66QP+R5"}, "rating": 2, "reference": "ChIJTVmr0Df1QQ0RAaMJG6gbgEQ", "scope": "GOOGLE", "types": ["bank", "atm", "insurance_agency", "finance", "point_of_interest", "establishment"], "user_ratings_total": 18, "vicinity": "Calle de Pinto, 51, Parla"}, {"business_status": "OPERATIONAL", "geometry": {"location": {"lat": 40.2421555, "lng": -3.768487600000001}, "viewport": {"northeast": {"lat": 40.2435202802915, "lng": -3.767214069708499}, "southwest": {"lat": 40.2408223197085, "lng": -3.769912030291503}}}, "icon": "https://maps.gstatic.com/mapfiles/place_api/icons/v1/png_71/bank-71.png", "icon_background_color": "#909CE1", "icon_mask_base_uri": "https://maps.gstatic.com/mapfiles/place_api/icons/v2/bank-intl_pinlet", "international_phone_number": "+34 916 05 23 46", "name": "Ibercaja Banco", "opening_hours": {"open_now": false}, "photos": [{"height": 900, "html_attributions": ["<a href=\"https://maps.google.com/maps/contrib/113064974928184336860\">Ibercaja Banco</a>"], "photo_reference": "AWn5SU7uup72U3otJbwmcyQ32f_1VasRvbLwLXr4Ps2SdBNDc-oxGt6eSDe6sGbN5sRfg1XlCrO9avJgOmAZ_aEF7sG480XPYN73D0LhyVXt71-2VV4IgF2V-kDnhKAByGfFTatCwxMj71MnlmXmqHHCNgFfoez-PTQPV82aJNp9_R7pfbbpsZaV3YXbv4MxWOQ8Orgc-7YLq9j8VS7kS6BYGshiLOJ_wvHn1uaGI45CFtViB2qWJH98jdN2ThBEYlIsXJbWrhxW0ofr20CbqGafhiHGD-oWnrfnwJt0XC3Odbt47RiD7__l67DtaT3DI5oxUEl5D6Ppiss", "width": 1600}], "place_id": "ChIJbeIerDb1QQ0RxIxUyzseZkI", "plus_code": {"compound_code": "66RJ+VJ Parla, Spain", "global_code": "8CGR66RJ+VJ"}, "rating": 2.5, "reference": "ChIJbeIerDb1QQ0RxIxUyzseZkI", "scope": "GOOGLE", "types": ["bank", "atm", "accounting", "finance", "point_of_interest", "establishment"], "user_ratings_total": 17, "vicinity": "Calle Real, 86, Parla"}, {"business_status": "OPERATIONAL", "geometry": {"location": {"lat": 40.2529324, "lng": -3.8279589}, "viewport": {"northeast": {"lat": 40.2544453302915, "lng": -3.826400919708497}, "southwest": {"lat": 40.2517473697085, "lng": -3.829098880291502}}}, "icon": "https://maps.gstatic.com/mapfiles/place_api/icons/v1/png_71/bank-71.png", "icon_background_color": "#909CE1", "icon_mask_base_uri": "https://maps.gstatic.com/mapfiles/place_api/icons/v2/bank-intl_pinlet", "international_phone_number": "+34 600 40 40 90", "name": "CaixaBank", "opening_hours": {"open_now": false}, "photos": [{"height": 1192, "html_attributions": ["<a href=\"https://maps.google.com/maps/contrib/110084563992138982288\">CaixaBank</a>"], "photo_reference": "AWn5SU5hg_zlfM1D-WEg4CTFwgf8ZNlcBfESKHaYUAPf-98yfd4DQdVs2AUP4MFjoegAkWctF_CJcL9pWiQaqmd4rqoeblyPJVd4MEdeYuqcs_J1zr69srQJLhd0NTgcmDF8GqIknaKi_x_yQvS5HvIIo2DZRjch-I_czsE5AD7ALZmFZyUqueI1nOKswinCiAI0GL0iDwbHVYuh235Y-HEj7dtuPoIZGh7Hg_GN8xjKnDdCf2tnjIf3D8jTKzJ8zw2shLi3Hi2XgRxOOu8NdtqbpU8d1XC8nrifPXU229EDK2j-nNw7GDBIJzOAKTdPWZR69M6GBDtisyQ", "width": 2120}], "place_id": "ChIJMY6jPqmMQQ0RSGoRVZbqvnI", "plus_code": {"compound_code": "753C+5R Humanes de Madrid, Spain", "global_code": "8CGR753C+5R"}, "rating": 1.7, "reference": "ChIJMY6jPqmMQQ0RSGoRVZbqvnI", "scope": "GOOGLE", "types": ["bank", "finance", "point_of_interest", "establishment"], "user_ratings_total": 47, "vicinity": "Avenida del Mediterraneo, 2, Humanes de Madrid"}]