[{"business_status": "OPERATIONAL", "geometry": {"location": {"lat": 40.57503659999999, "lng": -3.99987}, "viewport": {"northeast": {"lat": 40.5763051302915, "lng": -3.998545569708498}, "southwest": {"lat": 40.5736071697085, "lng": -4.001243530291502}}}, "icon": "https://maps.gstatic.com/mapfiles/place_api/icons/v1/png_71/parking-71.png", "icon_background_color": "#7B9EB0", "icon_mask_base_uri": "https://maps.gstatic.com/mapfiles/place_api/icons/v2/parking_pinlet", "name": "Parking Galapagar", "photos": [{"height": 4608, "html_attributions": ["<a href=\"https://maps.google.com/maps/contrib/116239654047969124813\">Jose Luis Figueira Massa</a>"], "photo_reference": "AWn5SU5gkq02922CRSKfp_d-GvmI1CCyziRHooRlUXJ13dO00ZtIBniH-nwi4g6RiCVeurVj1T6s2goWQT51n77YhCJOOb5We0Xcpgk77MHlVX8k_4ijqdWbglVpjue3gbLN6Goh6TwE9gGJ6Kh-eYvpnNEYGKG6Qsqqk0yzawvLNZcYJJitjgzmEMctkqp50_z_CZABfc8izI_WXtP17TPIJ7dATwIlZiLh3NmB_bY8uLBJL7Wi_DZNlPKpgcv64vPoPXrcRFVnxfmq8HQJ5G8R6_XQGzCCwxkniON2DNg_sxkHrkab27JHrlZwFsKwUPCSLP17Mjk3BKN9uZyAaFEiUCLCtWH7-zgWtUd038c_9UknMEAZ552TIn9hMRJ27xUNbBT88EK81ZKw33pe0g9WE-Iwf-2cKPC3NqqhQEbBT9UY5dEnI8WJfrkfUE9n-S8O-9pjdZF1SD3cJ3ahgzBUdfNeku73Nr5Ea-DNSm3821_0rQeGbeVGKxwUyf3b1msYe9vt4Ouwbafy53MxzUFFam53RPfyQuFPN01FSPwzDGezjQs0BVeuDh3UF5lED6r-Ngs0OYoKp7gaRedKv1t4NJaMAeIebYTp5qVPb-mCALfqUw9xxKOCCBNlDbpwwQthazF1ng", "width": 2592}], "place_id": "ChIJZ5OMPPB1QQ0RXJBTn5FA-JY", "plus_code": {"compound_code": "H2G2+23 Galapagar, Spain", "global_code": "8CGRH2G2+23"}, "rating": 3.5, "reference": "ChIJZ5OMPPB1QQ0RXJBTn5FA-JY", "scope": "GOOGLE", "types": ["parking", "point_of_interest", "establishment"], "user_ratings_total": 32, "vicinity": "Avenida de los Voluntarios, 77, Galapagar"}, {"business_status": "OPERATIONAL", "geometry": {"location": {"lat": 40.55842759999999, "lng": -4.014723099999999}, "viewport": {"northeast": {"lat": 40.5597557802915, "lng": -4.013441719708498}, "southwest": {"lat": 40.5570578197085, "lng": -4.016139680291502}}}, "icon": "https://maps.gstatic.com/mapfiles/place_api/icons/v1/png_71/parking-71.png", "icon_background_color": "#7B9EB0", "icon_mask_base_uri": "https://maps.gstatic.com/mapfiles/place_api/icons/v2/parking_pinlet", "name": "Parking Gratuito", "opening_hours": {"open_now": true}, "photos": [{"height": 3120, "html_attributions": ["<a href=\"https://maps.google.com/maps/contrib/113276950381716230902\">Víctor Sánchez</a>"], "photo_reference": "AWn5SU6ZgKC7PgOtnu-cBR3X_Rp845kP1rNgZ2ogovzwggjEEeL6eI94dskvv_TTsi3DO30AVDT4g0YzE89bi6W1dr_s-hPLEgWCI8vS4r0Ti2ow0VmXhikfVNMCGU9QhP0_HtXkxsjSHGXyjU_SbcYepF_Mg3mDDnsr_zK1k-f3htmQTrDKd_0W-7mMhCJ2ltzeW9fBt4O0QuTYQuEcfcv9frZW51f2LkZjHeodOwlTLXZsKcQY3lfdxNFHMJ0BHJ580DnMuZjAeOFZGaOcw4KVysg2uwbU3m6ezniFczbD1hVRLfGo33_SR0dDgRyRI8YfBEo9Hn9uSq9KOTpDQ_xRPSufgsZlD9Gs8P9LdWv0muFQ_TTSi7UhnWNhDEsRHbCkLqB1pZiar0Gmr085sBhzQljmwDknwXqy772nPr8HIS_rq4gOqBu1MVCCwEY3Gj_mv-2pKvsKZXRl2_OVNMn2peGeQ3bIAd5Cfkxp3cQ6m966VbABH6OTm6q9NXJKftxnyBTKWpbWbBqH_QV1_lo4C6Bjt30-fcD5h5prwZEhLAflDzPaiOwc8MokRVbYaOgiuh3ss5lkZQ7b3Tvl9iTh3JfobVod7pWVgGYa05JcFdPik-L4YLvGoKQVLDg8KlYpy714gw", "width": 4160}], "place_id": "ChIJt1WkUbGfQQ0RqH4VbVZ1yG0", "plus_code": {"compound_code": "HX5P+94 Colmenarejo, Spain", "global_code": "8CGQHX5P+94"}, "rating": 3, "reference": "ChIJt1WkUbGfQQ0RqH4VbVZ1yG0", "scope": "GOOGLE", "types": ["parking", "point_of_interest", "establishment"], "user_ratings_total": 3, "vicinity": "Calle Madrid, 34, Colmenarejo"}, {"business_status": "OPERATIONAL", "geometry": {"location": {"lat": 40.5680043, "lng": -4.0240541}, "viewport": {"northeast": {"lat": 40.5693602302915, "lng": -4.022727669708497}, "southwest": {"lat": 40.5666622697085, "lng": -4.025425630291502}}}, "icon": "https://maps.gstatic.com/mapfiles/place_api/icons/v1/png_71/parking-71.png", "icon_background_color": "#7B9EB0", "icon_mask_base_uri": "https://maps.gstatic.com/mapfiles/place_api/icons/v2/parking_pinlet", "name": "Parking junto descanso", "opening_hours": {"open_now": true}, "place_id": "ChIJq7euPwB1QQ0RaL0SCTx9pmc", "plus_code": {"compound_code": "HX9G+69 Colmenarejo, Spain", "global_code": "8CGQHX9G+69"}, "reference": "ChIJq7euPwB1QQ0RaL0SCTx9pmc", "scope": "GOOGLE", "types": ["parking", "point_of_interest", "establishment"], "vicinity": "Charca del Navazo, Calle de la Cañada Real, 27, Colmenarejo"}, {"business_status": "OPERATIONAL", "geometry": {"location": {"lat": 40.5693699, "lng": -4.031681}, "viewport": {"northeast": {"lat": 40.5709019802915, "lng": -4.030468369708498}, "southwest": {"lat": 40.5682040197085, "lng": -4.033166330291502}}}, "icon": "https://maps.gstatic.com/mapfiles/place_api/icons/v1/png_71/parking-71.png", "icon_background_color": "#7B9EB0", "icon_mask_base_uri": "https://maps.gstatic.com/mapfiles/place_api/icons/v2/parking_pinlet", "name": "Parking De La Ermita", "opening_hours": {"open_now": true}, "photos": [{"height": 2448, "html_attributions": ["<a href=\"https://maps.google.com/maps/contrib/117933242523959421927\">David Cuesta Capa</a>"], "photo_reference": "AWn5SU4sP8_s1CTxgC8pO5tRKb2J9Yy4GkCvM6WiLqNaBJ3Ku28ynPlSbPmWguC8twZv5eqY89LqHDEjKgjKkDjSG1K2hn8L7s03Tgwbnw6UUgmDKbNjXaKZNl-vPwAwWJaCqlx_-72fBeO6T6qidjesdnAkk3McfCd5EuZF_PuSJHabgi-YDSyFs5F3QGwycW2-OiSSvmq-VqKvxiYHTil1ItMaSODBaYMFsx7dbgKMg5yF_0ynSnfGzRAK4Npe4rajwE41OxCTmDCRdyKPsVMIQHfSLMNST_rMBjT3FQ8Eb6EhS9SNG-DfhAzxpeTwVqD3Oq7VfHRhb-IlRkWpkNjpb-HupGYWrD1LO8I-oMX8jAV0D_DASvQAx4fAabpOjIXYUlAN5TtRj5-4vKvz8ONdMnSpPbSh1hrcG9mC9Suiu4n_i4xXxpE9HuPcCXwjuEl79uN9lWy9YUr3V8cjrJ-H4J5A0IoEc3Og9ukla24o4ZZIACkCp4GFkDx0xVekQGPU5qG052URBOvco6LreLv9u_cs73H5XaN_hXZ4_MMF-d9oCxZDQWYBP7xRx9jQXh5tM_tESQr1qf6ZutlD79pz4YXSfnXFMSfmeSFoh8K5JzrByQ3PbHfZceUMDQLpVMvg-Lg1lA", "width": 3264}], "place_id": "ChIJSbTJ0351QQ0R80iZ8bX5lzU", "plus_code": {"compound_code": "HX99+P8 Colmenarejo, Spain", "global_code": "8CGQHX99+P8"}, "rating": 4.1, "reference": "ChIJSbTJ0351QQ0R80iZ8bX5lzU", "scope": "GOOGLE", "types": ["parking", "point_of_interest", "establishment"], "user_ratings_total": 9, "vicinity": "Colmenarejo"}, {"business_status": "OPERATIONAL", "geometry": {"location": {"lat": 40.5465498, "lng": -4.011375300000001}, "viewport": {"northeast": {"lat": 40.54789858029149, "lng": -4.010024919708498}, "southwest": {"lat": 40.5452006197085, "lng": -4.012722880291503}}}, "icon": "https://maps.gstatic.com/mapfiles/place_api/icons/v1/png_71/parking-71.png", "icon_background_color": "#7B9EB0", "icon_mask_base_uri": "https://maps.gstatic.com/mapfiles/place_api/icons/v2/parking_pinlet", "name": "Aparcamiento de la Universidad", "photos": [{"height": 3120, "html_attributions": ["<a href=\"https://maps.google.com/maps/contrib/113276950381716230902\">Víctor Sánchez</a>"], "photo_reference": "AWn5SU7HrOXbDQbo38_KSgieboLjyAeFKbEC56vySJ6E4jgJORa8s0FeRo8B2Q-rNssZOmJ8g0ZjZdEIBGUcWYF8TNgcaAaBr9cDHC-FBpgd1yWLvNeYcYYnQDki7kzSgqSaOjizLLbr74JhkBRuPwYkpNNRFAhliPzMCslt8dZ6HVcYD9XQ0sjpVQQ9Is8NuVqrkUpqFaYEzTjn8sJ4MTKtJ4ooymFrAuh6niWoEtn_S1yJRG3WtLk9ntn-Vjca3u38eayDCpqObKOTEdh2prrHhR3nVmxYqM5RvwKzxfZcUrYx6GMPhEydf16IqMYLZLobS-iopY28H5Iz9IxSGVazofquIj_1XPPdzEqQo3-QeEnyB880YhqobeVWzb8lE-ZELmOZAEStMab_LQ33zabkTUxCZ9Kclvl77zwLpvTK1baJz6nwpX5a9mD682skFvzX6TRqMv27tFm2UGhUvOHSbbFbTcYjaBtMzg7O5qC9Pk_stKhkqu-S9c4d6gEi2BqtC4N8q63jFNCH03j0dqxBDFz0HbiNmROnGQxM2HhNGjcQ-ddpCrpawe-cuMmQtGtnIc9z8ruQ7HI0zdaZYdPhChrMFekPY3AwkrUZkXjl0X1UIjwngYq6sa8A8pIlXwOu5L8EkA", "width": 4160}], "place_id": "ChIJ1-5cDlCfQQ0RPZQp-yR3E9U", "plus_code": {"compound_code": "GXWQ+JC Colmenarejo, Spain", "global_code": "8CGQGXWQ+JC"}, "rating": 2.5, "reference": "ChIJ1-5cDlCfQQ0RPZQp-yR3E9U", "scope": "GOOGLE", "types": ["parking", "point_of_interest", "establishment"], "user_ratings_total": 2, "vicinity": "Colmenarejo"}, {"business_status": "OPERATIONAL", "geometry": {"location": {"lat": 40.5768978, "lng": -4.0049017}, "viewport": {"northeast": {"lat": 40.57823853029149, "lng": -4.003525369708497}, "southwest": {"lat": 40.5755405697085, "lng": -4.006223330291502}}}, "icon": "https://maps.gstatic.com/mapfiles/place_api/icons/v1/png_71/parking-71.png", "icon_background_color": "#7B9EB0", "icon_mask_base_uri": "https://maps.gstatic.com/mapfiles/place_api/icons/v2/parking_pinlet", "name": "Parking Público Plaza del Caño", "photos": [{"height": 4032, "html_attributions": ["<a href=\"https://maps.google.com/maps/contrib/100302521023360779676\">Rocioo Rendeross</a>"], "photo_reference": "AWn5SU6AfSXJ8dpPeJ61cZUHiUj0Df29ywMVlAzSptVP1erCr-rvnX21jWQAq32uJ7WXlANdJRakq6mJ9yifdBFPsROTzkf2h-hTJH-6_u6K1FlblTynv5fClbwa6EP6ekVq3Z1fPCkaWHpNDwuchz7Sg-t5Qz4eO0epePVsAhsLH0p4-zsQ6oAZUyDX55lrRh9FbyQ24effi3H_pB2MUXX6Vi8oSEShJeszjc_JXxsubp4NWmU-dhZWObKy8iI8fxg4Zb6M1FaCRYVpJfJPzBE4MU3qSYucDkoeu44Z4QPLhepD1oMQ7dPDizNcDPjwh7Iwu5PQmHfIlhRo7e0Qru0OfRrgdN2g8ipC2jYtFFJfzCtWMo8Z75cg3jZItDQ0VNzTrGnaAfjuzcXiNmIJ5AAyhaBCREFULPChTLM8RzcrhnJcgtti-WIIrfNwYTe6QLEhuqnhT6ajnU7zZTILv8fNMwSsbKL-u5e40VKup-meyw1TmzD1HGe_UfJ6aozg4mdret0mEg9FsijRAKhlYE89hD0uF71dEex5bkNl8St9rvwr_qqzlbvLSaJ8vqTyWmRhCiRXFF1DX458eySs1wssJ4vcwczP22GmkFWrSVkvba-TV49iA6nfxZfT2OxQ-FmrN9Mg0g", "width": 1816}], "place_id": "ChIJj-V_l-11QQ0RVefP1XMtwF4", "plus_code": {"compound_code": "HXGW+Q2 Galapagar, Spain", "global_code": "8CGQHXGW+Q2"}, "rating": 2.5, "reference": "ChIJj-V_l-11QQ0RVefP1XMtwF4", "scope": "GOOGLE", "types": ["parking", "point_of_interest", "establishment"], "user_ratings_total": 42, "vicinity": "Plaza del Caño, Galapagar"}, {"business_status": "OPERATIONAL", "geometry": {"location": {"lat": 40.5775457, "lng": -4.003506900000001}, "viewport": {"northeast": {"lat": 40.5787286302915, "lng": -4.002356169708498}, "southwest": {"lat": 40.57603066970851, "lng": -4.005054130291502}}}, "icon": "https://maps.gstatic.com/mapfiles/place_api/icons/v1/png_71/parking-71.png", "icon_background_color": "#7B9EB0", "icon_mask_base_uri": "https://maps.gstatic.com/mapfiles/place_api/icons/v2/parking_pinlet", "international_phone_number": "+34 625 81 82 78", "name": "FAST PARKING BARAJAS", "place_id": "ChIJ6wZhNmp1QQ0R3pU9Utc8zDU", "plus_code": {"compound_code": "HXHW+2H Galapagar, Spain", "global_code": "8CGQHXHW+2H"}, "rating": 5, "reference": "ChIJ6wZhNmp1QQ0R3pU9Utc8zDU", "scope": "GOOGLE", "types": ["parking", "point_of_interest", "establishment"], "user_ratings_total": 5, "vicinity": "Plaza de la Constitución, 11, Galapagar"}, {"business_status": "OPERATIONAL", "geometry": {"location": {"lat": 40.5791968, "lng": -4.003255999999999}, "viewport": {"northeast": {"lat": 40.5806375302915, "lng": -4.001842719708496}, "southwest": {"lat": 40.5779395697085, "lng": -4.004540680291501}}}, "icon": "https://maps.gstatic.com/mapfiles/place_api/icons/v1/png_71/parking-71.png", "icon_background_color": "#7B9EB0", "icon_mask_base_uri": "https://maps.gstatic.com/mapfiles/place_api/icons/v2/parking_pinlet", "international_phone_number": "+34 910 13 38 30", "name": "Servicio Estacionamiento Regulado Galapagar", "opening_hours": {"open_now": false}, "place_id": "ChIJ2e-YIOx1QQ0Rwph0I0Cbfdg", "plus_code": {"compound_code": "HXHW+MM Galapagar, Spain", "global_code": "8CGQHXHW+MM"}, "rating": 2.4, "reference": "ChIJ2e-YIOx1QQ0Rwph0I0Cbfdg", "scope": "GOOGLE", "types": ["parking", "point_of_interest", "establishment"], "user_ratings_total": 19, "vicinity": "Calle de San Gregorio, 19, Galapagar"}]