[{"business_status": "OPERATIONAL", "geometry": {"location": {"lat": 40.2439388, "lng": -3.315271699999999}, "viewport": {"northeast": {"lat": 40.2454447802915, "lng": -3.314021269708499}, "southwest": {"lat": 40.2427468197085, "lng": -3.316719230291502}}}, "icon": "https://maps.gstatic.com/mapfiles/place_api/icons/v1/png_71/park-71.png", "icon_background_color": "#4DB546", "icon_mask_base_uri": "https://maps.gstatic.com/mapfiles/place_api/icons/v2/tree_pinlet", "name": "Municipal Park", "opening_hours": {"open_now": true}, "photos": [{"height": 2313, "html_attributions": ["<a href=\"https://maps.google.com/maps/contrib/111045411742268493634\">Federico Pumar</a>"], "photo_reference": "AWn5SU4_CbcyBng1lsZc1y1myuKG2yjXnopYErjUCQ6Aowxmyz5Ai8r443sElNUfZXXrCZ7KVg50YU-UHX4nhV0_9GVP7VCFGgL9b6ms92SoWmKEq4FewS-G8fpIKLp1wrVyTO2RNc9EjEAtrAvRl9tjHs2VFigv-WPvjXs6NzDthfUrl-OtPU13RSmRVGSjxiA3bJmAVV5bOruGz_PZ2uWwvBA3eNSR0_EH_Q1xawMkJor6-7SHsOQt4dO7mrd5JV9IMzfAWd4iXylU1AnIB1kEPl-JIAS9a4QKGpmn9V2N6WCl3opM2kWF7PQQ7LmehX9TI6ixEb4eOsTkx3oMDVS_MdGwYd1WJftsmA1XFvn5NmYJ3rhaVvM_2frI8hBSmmEzoHI2UTh_QnuI2UZUUS38G3swBivXa_DvIUc3shCJSwIDObrnmosMyuM48-9xR9_GbZ49RrPf1hrmRzB-_pXGU41PqLCmXrCKqsvNQgkZXxLqAjQCb4_t7mHcnl3qEZQ2ENiXGWG2eko6-fPrrtX27sFY2lK6eByP-72EN5gg88ODZuUjhvq7uFgc-pXxtgQtZvdIauVu4AN8IJSBLy932q3SQ7ZbVHM_5Zbrj7B_w0v8HUjEbuLKpR0p2BAwmn-tWGKKmvhC", "width": 3066}], "place_id": "ChIJVQVUe-ppQg0Roqq8i0YcAlY", "plus_code": {"compound_code": "6MVM+HV Tielmes, Spain", "global_code": "8CGR6MVM+HV"}, "rating": 4.5, "reference": "ChIJVQVUe-ppQg0Roqq8i0YcAlY", "scope": "GOOGLE", "types": ["park", "point_of_interest", "establishment"], "user_ratings_total": 11, "vicinity": "Calle de la Perdiz, 4, Tielmes"}, {"business_status": "OPERATIONAL", "geometry": {"location": {"lat": 40.24394289999999, "lng": -3.315293499999999}, "viewport": {"northeast": {"lat": 40.24544398029149, "lng": -3.314039969708497}, "southwest": {"lat": 40.24274601970849, "lng": -3.316737930291501}}}, "icon": "https://maps.gstatic.com/mapfiles/place_api/icons/v1/png_71/park-71.png", "icon_background_color": "#4DB546", "icon_mask_base_uri": "https://maps.gstatic.com/mapfiles/place_api/icons/v2/tree_pinlet", "name": "Parque \"Caz Chico\"", "opening_hours": {"open_now": true}, "photos": [{"height": 2448, "html_attributions": ["<a href=\"https://maps.google.com/maps/contrib/117274175949428769302\">Rafael Redondo</a>"], "photo_reference": "AWn5SU7AXmByjJH17tiyMVFm9iNdoUZMeNe-u29amzcbY5SS6IJMAMd7RXgxWUAkuuE-tn77m1CzfrKjOwABVR0duXSUMm38IggUYaPJZH3Qi7Y02d-HcsJ2ufDtWpm5dKAKA_1otMh8mQqCDU7oqdRcMRgKBJ6vqJ3GcXozebJOfCRVBQ1tgDqI7Z0x3mBaYdOcA73XMCfbQXzjkHs_LuMvSFwW78MMrFghgvC2nDopurF5dE4mPj4q0-XRUDY7vgh62fFiso3Rkf-s2Q24LsI7pJNyv25D-JggTL6-hgGrSB_6iDBdrT3cpvSqIg8r-EMc4LCbpXo52P3zcH0R3PeLCwOvUaUhddhP7zn4fHXpTGn1Jz6kisYwlbqtHyFIh-qHXDKE11JOsu5hY2QzHz8tpCYPk4siy4g-ZsFsD7KzPkqfHxkGddAAsmnYbeOJVgYyrPkXB3tAUEdfhLylrMJCarqpv3DbL1jB8whudQgBb8yEyzXLRo21eKllJQTegyHPZcGXz0dmOpdBb5sm0BaHn9epP-AGwPH3VhzS8_8DWZjyRyT2GLYcout5WiEZY4NN1XynQynYTFHfNfFI64EapoC192JUyKeC4Thi-598mf4r5tWRAD4KvNAQyF34uietXwkjzw", "width": 3264}], "place_id": "ChIJp9sCHMFpQg0Rl-bxc5QnfCI", "plus_code": {"compound_code": "6MVM+HV Tielmes, Spain", "global_code": "8CGR6MVM+HV"}, "rating": 4, "reference": "ChIJp9sCHMFpQg0Rl-bxc5QnfCI", "scope": "GOOGLE", "types": ["park", "point_of_interest", "establishment"], "user_ratings_total": 47, "vicinity": "Avenida del Ferrocarril, 6D, Tielmes"}, {"business_status": "OPERATIONAL", "geometry": {"location": {"lat": 40.245231, "lng": -3.3163824}, "viewport": {"northeast": {"lat": 40.2466425802915, "lng": -3.315091969708498}, "southwest": {"lat": 40.2439446197085, "lng": -3.317789930291502}}}, "icon": "https://maps.gstatic.com/mapfiles/place_api/icons/v1/png_71/park-71.png", "icon_background_color": "#4DB546", "icon_mask_base_uri": "https://maps.gstatic.com/mapfiles/place_api/icons/v2/tree_pinlet", "international_phone_number": "+34 918 74 66 19", "name": "Plaza De España", "opening_hours": {"open_now": true}, "photos": [{"height": 1706, "html_attributions": ["<a href=\"https://maps.google.com/maps/contrib/101099853662667138786\">Miguel Lucio-V.M.</a>"], "photo_reference": "AWn5SU70Q5wYi_t3nTvlz8Qt7sZ_MeKnQ8wssyspUgV89SFbcfDvJ4WaO0GraJ1PMQSt0Iknx9djL93bjAinMb53qqUAVWO77GpTGYjjvaTxbYg6csPJ3aARmp57ZXElyN-gDhCQVLGZZl-pu01GY-jkcBGjruKN58N55-0ZY-MZt37fx0ENnmJcF8x8iENXHNeDBQbntj_DPPZWSJu4cVYEHQlM1mCS1KlBtak07CyvRO-KxjtdHhN6EseFCRxUsWJvaeuoGXCPOtzEzFd_X52Jk35YddqbZBpq186GKpJaSkGeu-B_Je9WuIItyq-7B4YDZ-9XPuXRFFAecrH9JqNpNQ-sWW9dldCj-oDpo0Wuv7scbTR8XV74orzLFWSAUAqcFXtY6ZKB3CZXGz8cfYKoSsEbkf5vMjWApaAs44CaJ1J8UV-ARcE5Zf2yI7YnOUfdeBSibYaYDCgS1gAVEyXKm4nl4VnjWHc3R394F4SON4lkwstY_Kv6TxA-2hm9v2v8sWHn6WbJwtME1l7BejOiMtVFmikTyUJvAL34s7K1Jj3F6speaLWx8YOCYyWl5WCy_waQNJdj_fMKtXgXh3RaSS-sRhe-YpyzrOMQbHvVIG1ZKYcUzyrl9YKlBYzO8s1yV9fDB0OW", "width": 2457}], "place_id": "ChIJdTh_nsFpQg0RU45DL7K_wxQ", "plus_code": {"compound_code": "6MWM+3C Tielmes, Spain", "global_code": "8CGR6MWM+3C"}, "rating": 4.3, "reference": "ChIJdTh_nsFpQg0RU45DL7K_wxQ", "scope": "GOOGLE", "types": ["park", "point_of_interest", "establishment"], "user_ratings_total": 108, "vicinity": "Plaza España, s/n, Tielmes"}, {"business_status": "OPERATIONAL", "geometry": {"location": {"lat": 40.23633419999999, "lng": -3.3036439}, "viewport": {"northeast": {"lat": 40.2375717302915, "lng": -3.302255019708498}, "southwest": {"lat": 40.2348737697085, "lng": -3.304952980291502}}}, "icon": "https://maps.gstatic.com/mapfiles/place_api/icons/v1/png_71/park-71.png", "icon_background_color": "#4DB546", "icon_mask_base_uri": "https://maps.gstatic.com/mapfiles/place_api/icons/v2/tree_pinlet", "name": "Fuente del sacristán", "opening_hours": {"open_now": true}, "photos": [{"height": 3072, "html_attributions": ["<a href=\"https://maps.google.com/maps/contrib/103618847347498862662\">Joaquin Velasco esteban</a>"], "photo_reference": "AWn5SU4ZeCechMj3GetO-XiTM35lCZ-m04grlw8uJLtj0MpiZSpgsXvsc5fA3Ea49gA4zdkEOd-Y_6gkOV-j9kFap56s8fbQvtvk15at-n3tvfYoiWnMmMVTKmquRX2aucxmuLmGqHNXRz0u7W4EarGSm9zMJ9rCZza4xUsP0QOuOL44_DoPDTna9WksrWA1bQ_lE0zC1--tbHCx0te-pkW06hFP1hmiEiXRCvbv__wps0jkuICHDDUiGUgRKasahGZnhieKHYjE3XJU_U-hhW-PkDhOIJ0NOimGFvAqH5k356nexWfw7nLgUFJyp8QA7qFzz0ZB_0zxmcMU8IWkOGbz_DL1Yc-L9f6_f0jdz1p37jhnEGgRJnSfEqGATfQJnD1fvepdCDgB4Glyfx4cREAdtoera-mjizIDBScCi4dJfCIEd7EIot1SAfwcmvmLVmaQWMncjYM9dwykHWBLFFoNIt3B08THLQIBXb__qhK4iaYe0_bL0PAOyc1U4N-dcXhfi5fVBaVJ2XxsWSDIz23QQib7IwwLySue-ktU5DWHzu_4ndKCqvh9Ta9wlb6Q3lUOztvsUygfjpMRoIMpSqsR587o1NsEYD8ngJEvHdRrH_bHT1ImDaC4dorrx8RSuGe2WNlIcQ", "width": 4080}], "place_id": "ChIJ7-o6WptpQg0RpEGxcJH55TM", "plus_code": {"compound_code": "6MPW+GG Tielmes, Spain", "global_code": "8CGR6MPW+GG"}, "rating": 5, "reference": "ChIJ7-o6WptpQg0RpEGxcJH55TM", "scope": "GOOGLE", "types": ["park", "point_of_interest", "establishment"], "user_ratings_total": 1, "vicinity": "Tielmes"}, {"business_status": "OPERATIONAL", "geometry": {"location": {"lat": 40.23958149999999, "lng": -3.291189799999999}, "viewport": {"northeast": {"lat": 40.2409299302915, "lng": -3.289843419708498}, "southwest": {"lat": 40.2382319697085, "lng": -3.292541380291502}}}, "icon": "https://maps.gstatic.com/mapfiles/place_api/icons/v1/png_71/park-71.png", "icon_background_color": "#4DB546", "icon_mask_base_uri": "https://maps.gstatic.com/mapfiles/place_api/icons/v2/tree_pinlet", "name": "Mirador y banco", "photos": [{"height": 3000, "html_attributions": ["<a href=\"https://maps.google.com/maps/contrib/106625880860449312381\">Javier Elena</a>"], "photo_reference": "AWn5SU4sFTqZ8vfOLmgW5GrGwzf8luIhbzKO0D4GPxDNbDbAdL6qr-8FTwnFq8jNa5qHhkQqFsKM0384rpMaqDo3HbkGGYgnW00qwiadOnKg2EqzXjHzbvBjkg67JagoHEKYFknVXFSSfPYSh2nkVhsAqtBswSpby38C9NIGRO1jBcU5tFlPp7QTCyr9GjwMF5850-RAeHgzLycORGoGxpIRRwNRrGuMaddmUa9ZHaUgTcfTc2g7UAcJiREaqFzqcnFNJByb9gOg47oparHbhD379VuvAllwPog_PyXyTnmP2USeHgGN-aTsBYZi7Srl-Rz4jYGL580m8JieKYXSuDaodRBhwFt26i4vZPGFYGk-OKlYQhiNTyL3E2ZR-oLhVdlWslBDoNhyCM2WGW3t2SUw9qska5qr-A5XmjudGtq4pqmjxsyVwUiTPmZybhhoGFlbqCOu9wUgINVtLzkw3drjdEsADm5udlhXB9bxJTZdmKQ0ufRsEQ5s7LPgmy3P3pA73H1TFqfxm-hQrh3SvhjUTRmPRx7I1XhZIjgSPxIwLAeBIEArPYHro87hEq9wBs2b8wH143sh1Zq-JBwQMwSX5vMbNUP8qFjRjDf0806Qdr1JkNsmC8YspUxYsGys23dSSq5C6QTDS1XBxoafxQPioA", "width": 4000}], "place_id": "ChIJp6vtEwBpQg0Rfqymp8sTl84", "reference": "ChIJp6vtEwBpQg0Rfqymp8sTl84", "scope": "GOOGLE", "types": ["park", "point_of_interest", "establishment"], "vicinity": "6PQ5+RG, Tielmes"}, {"business_status": "OPERATIONAL", "geometry": {"location": {"lat": 40.2524078, "lng": -3.34772}, "viewport": {"northeast": {"lat": 40.2537097302915, "lng": -3.346352769708498}, "southwest": {"lat": 40.2510117697085, "lng": -3.349050730291502}}}, "icon": "https://maps.gstatic.com/mapfiles/place_api/icons/v1/png_71/park-71.png", "icon_background_color": "#4DB546", "icon_mask_base_uri": "https://maps.gstatic.com/mapfiles/place_api/icons/v2/tree_pinlet", "name": "antena DVOR", "opening_hours": {"open_now": true}, "photos": [{"height": 2604, "html_attributions": ["<a href=\"https://maps.google.com/maps/contrib/106829760506698165124\">Cristobal “ClopezA” Lopez Alba</a>"], "photo_reference": "AWn5SU5DAQIDL9GsRzl5OgzbRn6qj3oDY7uiKf6uPqKJVZUwqT4JxTOZx_9IVADCdwoiUxYhloM1m16IsKmgSfILbaqdLKiP3-nopCdwoDUY6JG7wOtP2o1-BPt31hxUALKL0zNCCVCg9OcTOvnudiDsvMuaKQfEXnePMYJDqfOUoF-9WcUSgpLfucOfZ_kfuYcfjxx0f9PUnVhL3UBlR6Ns3wuIoW1PSUyPuBmlc4ujixCxxe1JeNgIQJaXIzIWiK4-ajhKeDGjaB96O2RS1WCUPQU7pKEl7ImlUhReNs4X6bIVR61anEebmsx1rAdi_jntVV7GA9FmOeugWGm11h5AObQNLbnHa1dfgIr_HZuamtq6Ts1w0M4LxbaENEY1C-70MH8AKyeMIK66yy0zzYo0BkPxRMsMNMFFtE1TMy-LTtYM6ZrIGQL_qdu4iSfYnCClHR6DkTbjXQNKE2_ktlKdWOo_apay9iMpawjpKoTXbZQx9lwx1ELRjB3b_EWZQQmy-o292tHFoTeMTGRFozggGmhZ9NBdXdcV4_NuXeMmOsdrlYQE8hSSgNaz5e6N7VKK4ctlUNyf0Fy_Rmo5La5IXn9yWxi7QZHEegCV9yFFVyNwlpZ57-O_xAU9sfTy5UmRTz0w_XF26rv2duEKJBSqBhbvTkY", "width": 4624}], "place_id": "ChIJYxKxOgBrQg0RJ67eu9p2shw", "plus_code": {"compound_code": "7M22+XW Perales de Tajuña, Spain", "global_code": "8CGR7M22+XW"}, "rating": 4, "reference": "ChIJYxKxOgBrQg0RJ67eu9p2shw", "scope": "GOOGLE", "types": ["park", "point_of_interest", "establishment"], "user_ratings_total": 1, "vicinity": "Perales de Tajuña"}, {"business_status": "OPERATIONAL", "geometry": {"location": {"lat": 40.2282406, "lng": -3.3422561}, "viewport": {"northeast": {"lat": 40.22954488029151, "lng": -3.340893569708498}, "southwest": {"lat": 40.22684691970851, "lng": -3.343591530291502}}}, "icon": "https://maps.gstatic.com/mapfiles/place_api/icons/v1/png_71/park-71.png", "icon_background_color": "#4DB546", "icon_mask_base_uri": "https://maps.gstatic.com/mapfiles/place_api/icons/v2/tree_pinlet", "name": "Parque", "opening_hours": {"open_now": true}, "place_id": "ChIJk6lMdQBrQg0RcFsbRHJY4_c", "reference": "ChIJk6lMdQBrQg0RcFsbRHJY4_c", "scope": "GOOGLE", "types": ["park", "point_of_interest", "establishment"], "vicinity": "6MH5+73, Perales de Tajuña"}, {"business_status": "OPERATIONAL", "geometry": {"location": {"lat": 40.2319747, "lng": -3.3496509}, "viewport": {"northeast": {"lat": 40.2333214302915, "lng": -3.348384069708498}, "southwest": {"lat": 40.2306234697085, "lng": -3.351082030291502}}}, "icon": "https://maps.gstatic.com/mapfiles/place_api/icons/v1/png_71/park-71.png", "icon_background_color": "#4DB546", "icon_mask_base_uri": "https://maps.gstatic.com/mapfiles/place_api/icons/v2/tree_pinlet", "name": "Calvario Park", "opening_hours": {"open_now": true}, "place_id": "ChIJP6zniixrQg0RlcJrczhMy0g", "plus_code": {"compound_code": "6MJ2+Q4 Perales de Tajuña, Spain", "global_code": "8CGR6MJ2+Q4"}, "rating": 3.9, "reference": "ChIJP6zniixrQg0RlcJrczhMy0g", "scope": "GOOGLE", "types": ["park", "point_of_interest", "establishment"], "user_ratings_total": 7, "vicinity": "Calle Calvario, nº 26, Perales de Tajuña"}, {"business_status": "OPERATIONAL", "geometry": {"location": {"lat": 40.2306311, "lng": -3.3488546}, "viewport": {"northeast": {"lat": 40.2320302802915, "lng": -3.347450319708498}, "southwest": {"lat": 40.2293323197085, "lng": -3.350148280291502}}}, "icon": "https://maps.gstatic.com/mapfiles/place_api/icons/v1/png_71/park-71.png", "icon_background_color": "#4DB546", "icon_mask_base_uri": "https://maps.gstatic.com/mapfiles/place_api/icons/v2/tree_pinlet", "name": "San Isidro Park", "opening_hours": {"open_now": true}, "place_id": "ChIJGTBafpZrQg0RB4VFzNbtsCc", "plus_code": {"compound_code": "6MJ2+7F Perales de Tajuña, Spain", "global_code": "8CGR6MJ2+7F"}, "rating": 4.2, "reference": "ChIJGTBafpZrQg0RB4VFzNbtsCc", "scope": "GOOGLE", "types": ["park", "point_of_interest", "establishment"], "user_ratings_total": 11, "vicinity": "Carretera Nacional III, 29, Perales de Tajuña"}, {"business_status": "OPERATIONAL", "geometry": {"location": {"lat": 40.2263356, "lng": -3.349507}, "viewport": {"northeast": {"lat": 40.22770063029149, "lng": -3.348122819708498}, "southwest": {"lat": 40.22500266970849, "lng": -3.350820780291502}}}, "icon": "https://maps.gstatic.com/mapfiles/place_api/icons/v1/png_71/park-71.png", "icon_background_color": "#4DB546", "icon_mask_base_uri": "https://maps.gstatic.com/mapfiles/place_api/icons/v2/tree_pinlet", "name": "Area de Descanso Via Verde del Tajuña", "opening_hours": {"open_now": true}, "place_id": "ChIJMwfsh8RrQg0Rhc6ijbksKKI", "plus_code": {"compound_code": "6MG2+G5 Perales de Tajuña, Spain", "global_code": "8CGR6MG2+G5"}, "rating": 4.5, "reference": "ChIJMwfsh8RrQg0Rhc6ijbksKKI", "scope": "GOOGLE", "types": ["park", "point_of_interest", "establishment"], "user_ratings_total": 4, "vicinity": "Via Verde del Tajuña, Perales de Tajuña"}, {"business_status": "OPERATIONAL", "geometry": {"location": {"lat": 40.2323279, "lng": -3.3554576}, "viewport": {"northeast": {"lat": 40.2336866302915, "lng": -3.354197269708498}, "southwest": {"lat": 40.2309886697085, "lng": -3.356895230291501}}}, "icon": "https://maps.gstatic.com/mapfiles/place_api/icons/v1/png_71/park-71.png", "icon_background_color": "#4DB546", "icon_mask_base_uri": "https://maps.gstatic.com/mapfiles/place_api/icons/v2/tree_pinlet", "name": "Carretera de Morata Park", "opening_hours": {"open_now": true}, "photos": [{"height": 4032, "html_attributions": ["<a href=\"https://maps.google.com/maps/contrib/112785528980594567543\">Álvaro Casado Manso</a>"], "photo_reference": "AWn5SU7tnliQePvUXbDifUzvgtFUo7xRC1ErrdV24VBzvbv1KI0yeAnGu2b3ZPKOWavcibTW773LDdG7BO3C8H1Ve7dw0chLItJayhy-CL4rTpICyjUKZBmIgERCsGkCWTZI85N6UBfxbtH1_0IPJaAwuynSj3-uiuxtAFnB9z4kY8LxXpf-8U5kVMYdjw1Hoz4OuGktIY0Ikv2LCTNuELkYlYexrKenab-hj7bJUsq2gobSdzjAzCEn8eDXi84zEgqjf94j-pRV8gSGXupGOGpFmQZ6Cv88KeZ8-hroAmETbeJ9ixHwx8wMsz4qSLPaVjHqahYoX3ZBtHkueHNsguKge9cyU9Kv8iapqrlwEIP-JBbK9Y-6Wy1_qSxhZCXFjbWwxjBnwO28h-4_p5cB8eUH2lQxfp0xyxhpy4HRuWalkOm9NSI8W-zQyprPmi8dI3BJFZGf6mbdKONzOr9b_6g31alF1IVOmNZW9qaDoxMdkg4cK3xD-Wo7DIgASuJ8sQPuhtgx8wH28XTp0ZjwZvwS0KkV6BxKiaTtJV6Gw-CrQQzL6QWJEuj9flnJqXnZhnluU8wRn7gAw5g_R1IAZtA7j9Au-OKGpPjqNrP0bs9cnCLn-p4q7Xzpzwhb0j9-m6EpxlUy2lgC", "width": 3024}], "place_id": "ChIJSWcOhi9rQg0RFnWhaB3MA48", "plus_code": {"compound_code": "6JJV+WR Perales de Tajuña, Spain", "global_code": "8CGR6JJV+WR"}, "rating": 4.4, "reference": "ChIJSWcOhi9rQg0RFnWhaB3MA48", "scope": "GOOGLE", "types": ["park", "point_of_interest", "establishment"], "user_ratings_total": 18, "vicinity": "Avenida de la Paz, 53, Perales de Tajuña"}, {"business_status": "OPERATIONAL", "geometry": {"location": {"lat": 40.2323879, "lng": -3.3556169}, "viewport": {"northeast": {"lat": 40.2337334802915, "lng": -3.354237269708499}, "southwest": {"lat": 40.2310355197085, "lng": -3.356935230291502}}}, "icon": "https://maps.gstatic.com/mapfiles/place_api/icons/v1/png_71/park-71.png", "icon_background_color": "#4DB546", "icon_mask_base_uri": "https://maps.gstatic.com/mapfiles/place_api/icons/v2/tree_pinlet", "name": "Sendas de Madrid 001 Senda del Páramo a la Vega", "photos": [{"height": 901, "html_attributions": ["<a href=\"https://maps.google.com/maps/contrib/106829760506698165124\">Cristobal “ClopezA” Lopez Alba</a>"], "photo_reference": "AWn5SU6QFzDKRsQI3mJHwTG7ouK1Nhm7aM2jauFFUf6Tkh8EUD9bTJv3Fq512Y0SnaOXUMNt8DjMpU0DBTtfbdihxHqnwg1jY_COdhlldCXwQNbV-o8nlA7K0NmaJN71VE5TK-sEs39qotTuyU_2Fjj1Snut-K5jBU1lU8fxZ56iSRZA1N9L791oCgd4ivV-1faECFgeuPtHe_isC4OJ_3x_ftgzkwfrb3vfmQB_IHxwBQRWQ3Ro4FAyYdNp1clChB2FwhxRFBEaBPCntt12xH1rMBopDiAci-XTzVqI1JtWfqLSg372WBAxUuGAmOvz2-2Oy8qiaFCHc0uH322UmcXg3mU6GkG-yJLOcvBwMZqJZ21NgCnJIh_p3QXrJhEAUcS7GbDxqa8gjQekOU-1uIwY2u-IK1iwJuzoodMMnP3q41XS_e9Z-ubVbtQ42OmbBEvd9GBRhN2KQdVtohQQ0HvqqOnmZ1ue4cLSMR9TNOzOECS_wUoejuiagDKEsMQKw4rP2CZAo8_aO0nXGzbll6z6JCC2BCM3cgi2bUuAKx_w0_dy2S7dxToG8y6MfHl_cE7ZS_Ddwk6OJjOzalkeUXVrQ-umESbMu6NLNN7FuIMsIMVDIirsQCxr8emaTGwhiS7_0gtMZ-mv", "width": 1600}], "place_id": "ChIJi1FufwBrQg0RCRJioV244yc", "plus_code": {"compound_code": "6JJV+XQ Perales de Tajuña, Spain", "global_code": "8CGR6JJV+XQ"}, "reference": "ChIJi1FufwBrQg0RCRJioV244yc", "scope": "GOOGLE", "types": ["park", "point_of_interest", "establishment"], "vicinity": "Via Verde del Tajuña, 55-57, Perales de Tajuña"}, {"business_status": "OPERATIONAL", "geometry": {"location": {"lat": 40.2476191, "lng": -3.362325}, "viewport": {"northeast": {"lat": 40.2488494302915, "lng": -3.361143669708498}, "southwest": {"lat": 40.2461514697085, "lng": -3.363841630291502}}}, "icon": "https://maps.gstatic.com/mapfiles/place_api/icons/v1/png_71/park-71.png", "icon_background_color": "#4DB546", "icon_mask_base_uri": "https://maps.gstatic.com/mapfiles/place_api/icons/v2/tree_pinlet", "name": "Abrevadero Descansadero del Prado de Arriba", "opening_hours": {"open_now": true}, "photos": [{"height": 3000, "html_attributions": ["<a href=\"https://maps.google.com/maps/contrib/112121361647272001556\">Rafael</a>"], "photo_reference": "AWn5SU46AGjxDkJIGTi_U9sF-53_yejL4C3bqFgmu3ukWJ1MX-eI6Ro33dfpS6qJylb7xKOCJ_PPF5xx4BcIvg0maLL8N1iRU-2SCxFAP2N-rEr4vBeEUoWKFlZrZHh5j6a62TbsJgr1hBKvlnnelzF1zPHUFrXdwbQmuS_me8O3lZ0BWhIpJqq7NzMk7xT-ZHoHMaeegxtCHiVU1wEWOeCpUOtjhMadyMSaaH1AgI1mBfGbYl02_2O3F39FNyTxGVPXdILv4GmyEFTHQGPPwjIphno7DpfHFmW5fYADp713j9AShAurl1QFtsWRTVeawxZHwsg-ieTM0A6cpztNe6T50j3GFNy47Sj0sHeJxsopi-x-i7m4z0Jdqx5iRTCsDBwpohZeNiRCTEVT4MgSf1JgRSRQbLM9M4oDzraV5RLox8qdn8ato5ncl7aqRDV4e4CcP28MlrWbV3Z5drvzT6domP_oCV32WoM3bK_Qnzzr2TIwAlS7YueuaNjsrqArx7odW6ABok8PIm16mIWA1TkB5XYwsz-0GD-84kIGZsQUJ5dnoygHaAQf8YE4jlQUoRlS6GJjIks8UJU0BrESQqGX85yM7Dh-HtszeMEu-s7OKwLONwjkO1rhYQl8vuD_q7Jx0KXq2Q", "width": 4000}], "place_id": "ChIJE1ppqIxrQg0R2HkM_Ud2Dgk", "plus_code": {"compound_code": "6JXQ+23 Perales de Tajuña, Spain", "global_code": "8CGR6JXQ+23"}, "rating": 4.8, "reference": "ChIJE1ppqIxrQg0R2HkM_Ud2Dgk", "scope": "GOOGLE", "types": ["park", "point_of_interest", "establishment"], "user_ratings_total": 6, "vicinity": "Calle Esperanza, 328, Perales de Tajuña"}, {"business_status": "OPERATIONAL", "geometry": {"location": {"lat": 40.23093060000001, "lng": -3.2667676}, "viewport": {"northeast": {"lat": 40.2321984302915, "lng": -3.265412619708498}, "southwest": {"lat": 40.2295004697085, "lng": -3.268110580291502}}}, "icon": "https://maps.gstatic.com/mapfiles/place_api/icons/v1/png_71/park-71.png", "icon_background_color": "#4DB546", "icon_mask_base_uri": "https://maps.gstatic.com/mapfiles/place_api/icons/v2/tree_pinlet", "name": "Cerro de cabeza gorda", "opening_hours": {"open_now": true}, "place_id": "ChIJKfbuJABpQg0RmSpwLCDDeus", "rating": 5, "reference": "ChIJKfbuJABpQg0RmSpwLCDDeus", "scope": "GOOGLE", "types": ["park", "point_of_interest", "establishment"], "user_ratings_total": 1, "vicinity": "6PJM+97, Tielmes"}, {"business_status": "OPERATIONAL", "geometry": {"location": {"lat": 40.2856236, "lng": -3.318215699999999}, "viewport": {"northeast": {"lat": 40.2869735802915, "lng": -3.316809669708498}, "southwest": {"lat": 40.2842756197085, "lng": -3.319507630291501}}}, "icon": "https://maps.gstatic.com/mapfiles/place_api/icons/v1/png_71/park-71.png", "icon_background_color": "#4DB546", "icon_mask_base_uri": "https://maps.gstatic.com/mapfiles/place_api/icons/v2/tree_pinlet", "international_phone_number": "+34 642 42 06 37", "name": "en Casa Garden", "opening_hours": {"open_now": false}, "photos": [{"height": 4000, "html_attributions": ["<a href=\"https://maps.google.com/maps/contrib/111692832902570042733\">Centola Montero Ferreras</a>"], "photo_reference": "AWn5SU5lp5w8vrNd04fHhfktKmDfTjG2lC3rKfLu8qFmjBEfBZhFvFNnCTPKX8CUe3wCABTgxNWlJRmR2xCYoPOxt_ok3gpfmh2piuiO8yknujJ6YEgmSADHxjeVENyBPUeGRP9L6zBb_0x8u8xsVt5hFzsi0vGx0uGi9Cxp91biJvrGpZw7Dl5zlo-hR6lceN3Vom7SFEsYqH9BTPOh0hrmENv9XwJSSYJL-C9Bsg4hDXasvRPiwb6kJwCaRfUW54YzNYm1zbL2CPW0Jxly-oHLhkl13_i3uCkqfcu0R7T6XYT4wE7HtShn3ybCHYi0ze0F-eADHzxBVtX38dhypd-8FR7qIXNG9AtE6rkGwYpZoXn6dUUs-MkM9AL6s4cX792oGSHLSc_g2LNcJTRfEG03dtz5KTWUhdvh_ASR-3HlEo3iLuq95YD6rG3VlnVnT8ZODoQOC05Db4cLsANDJ5tCMV0QF_FTm4rZHirFHKu57-ZjP7t_aZ0B3zhPSxo2UrZySPdOjEFV2wl_Ny_5Gz0Xg6Qc-sDGxnVGmFp-wMHMse_lOgZrnlgvKJu00GjjamasMmyJZzwu0OjEdPmIL5RRh1IV5uUq2VXcnpWpbdKGuaGrIooQcP9TMNVsG-J7vdDjnlGqsp3rA6oYRbpwyggqVFaE0Po", "width": 3000}], "place_id": "ChIJJXbcOl1DQg0R9wvOOXyp1b8", "plus_code": {"compound_code": "7MPJ+6P Valdilecha, Spain", "global_code": "8CGR7MPJ+6P"}, "reference": "ChIJJXbcOl1DQg0R9wvOOXyp1b8", "scope": "GOOGLE", "types": ["park", "point_of_interest", "establishment"], "vicinity": "Calle Lomo, 4, Valdilecha"}, {"business_status": "OPERATIONAL", "geometry": {"location": {"lat": 40.24647059999999, "lng": -3.2585611}, "viewport": {"northeast": {"lat": 40.2478253802915, "lng": -3.257179319708498}, "southwest": {"lat": 40.2451274197085, "lng": -3.259877280291501}}}, "icon": "https://maps.gstatic.com/mapfiles/place_api/icons/v1/png_71/park-71.png", "icon_background_color": "#4DB546", "icon_mask_base_uri": "https://maps.gstatic.com/mapfiles/place_api/icons/v2/tree_pinlet", "name": "Camino de la Merce", "place_id": "ChIJKSiO-GdpQg0RiJrOPcdWVr8", "plus_code": {"compound_code": "6PWR+HH Carabaña, Spain", "global_code": "8CGR6PWR+HH"}, "rating": 3.4, "reference": "ChIJKSiO-GdpQg0RiJrOPcdWVr8", "scope": "GOOGLE", "types": ["park", "point_of_interest", "establishment"], "user_ratings_total": 5, "vicinity": "Diseminado Perales Alba Cr, 30, Carabaña"}, {"business_status": "OPERATIONAL", "geometry": {"location": {"lat": 40.2504214, "lng": -3.3709544}, "viewport": {"northeast": {"lat": 40.25164558029149, "lng": -3.369682619708498}, "southwest": {"lat": 40.2489476197085, "lng": -3.372380580291502}}}, "icon": "https://maps.gstatic.com/mapfiles/place_api/icons/v1/png_71/park-71.png", "icon_background_color": "#4DB546", "icon_mask_base_uri": "https://maps.gstatic.com/mapfiles/place_api/icons/v2/tree_pinlet", "name": "Portillo boquete la cuesta", "opening_hours": {"open_now": true}, "photos": [{"height": 3000, "html_attributions": ["<a href=\"https://maps.google.com/maps/contrib/112121361647272001556\">Rafael</a>"], "photo_reference": "AWn5SU5uOxO6ShdnATr3cCy4Iw80r1UdeTJewhqSMFDCq1RkSlCPKuWnLUktAkcevBoX1nSNcBY0DM4W_dG7ntheKGCJ_S8m7unQCSo1TdmcMXtZRKtDaNGDKrGiluSrlj61JUsI90UYtcMPhTraAX-RahSW_W5QPGY0wxtZQlBWz95ETmcPheTyk5nDKpXT77lZamHHW8JVmNHAlcgb3QPfTFJKh2vaK5ucZfmx55c0dafYQELewG6xWp3F2c0PFWD3VeLD-6wtnXH4jJ31P_aWGFG79NAhZ84cnV-D9Y6FyNuuQuUy9aaKqpMgRMY848iG3WegzjJssS2uw4_8VOkuO14JtbBfW6Q6VCwaoHY54jjFscP2_gt4Xmkso9lXg-l96EPjz8NbHA_uJkfBRkLmxA6vaVJHu8QCUfuOo8fJo8SDtGHMD8fX0ty-aseNW6brDivv5kyBdLtq22zHRw_sQ6m4AKSzJlPvlB059dcvV3A0yKrYCRvXGoSn0wheFZZtNWAxdxIz2TpIlnYfu71jFbja0QMObbVGtxSLGFLpA8Bb4e7zsl_b31xI9ul2wqI3fcbBKVDZatLHx9v3obDUDsQHx0S4oyTNpykBDxrhq4tqtkw47H7w0VFF6CXI_5zfE5ngvA", "width": 4000}], "place_id": "ChIJqaG69wxrQg0RgSdbs1YoPSk", "plus_code": {"compound_code": "7J2H+5J Perales de Tajuña, Spain", "global_code": "8CGR7J2H+5J"}, "rating": 5, "reference": "ChIJqaG69wxrQg0RgSdbs1YoPSk", "scope": "GOOGLE", "types": ["park", "point_of_interest", "establishment"], "user_ratings_total": 1, "vicinity": "N-3, 44, Perales de Tajuña"}, {"business_status": "OPERATIONAL", "geometry": {"location": {"lat": 40.288692, "lng": -3.2785228}, "viewport": {"northeast": {"lat": 40.2897903802915, "lng": -3.27780235}, "southwest": {"lat": 40.28709241970851, "lng": -3.280684149999999}}}, "icon": "https://maps.gstatic.com/mapfiles/place_api/icons/v1/png_71/park-71.png", "icon_background_color": "#4DB546", "icon_mask_base_uri": "https://maps.gstatic.com/mapfiles/place_api/icons/v2/tree_pinlet", "name": "Risco de la Dehesilla", "opening_hours": {"open_now": true}, "place_id": "ChIJfy6HNChDQg0RFiHuzC0TkTU", "rating": 5, "reference": "ChIJfy6HNChDQg0RFiHuzC0TkTU", "scope": "GOOGLE", "types": ["park", "point_of_interest", "establishment"], "user_ratings_total": 1, "vicinity": "7PQC+FH, Valdilecha"}, {"business_status": "OPERATIONAL", "geometry": {"location": {"lat": 40.1918026, "lng": -3.3399393}, "viewport": {"northeast": {"lat": 40.1927952302915, "lng": -3.33811165}, "southwest": {"lat": 40.1900972697085, "lng": -3.345422250000001}}}, "icon": "https://maps.gstatic.com/mapfiles/place_api/icons/v1/png_71/park-71.png", "icon_background_color": "#4DB546", "icon_mask_base_uri": "https://maps.gstatic.com/mapfiles/place_api/icons/v2/tree_pinlet", "name": "Las Cumbres", "place_id": "ChIJiYwSEyVrQg0RI6Zr7lGDDnc", "reference": "ChIJiYwSEyVrQg0RI6Zr7lGDDnc", "scope": "GOOGLE", "types": ["park", "point_of_interest", "establishment"], "vicinity": "5MR6+P2, Perales de Tajuña"}, {"business_status": "OPERATIONAL", "geometry": {"location": {"lat": 40.24608289999999, "lng": -3.238888}, "viewport": {"northeast": {"lat": 40.24735203029149, "lng": -3.237593819708498}, "southwest": {"lat": 40.2446540697085, "lng": -3.240291780291502}}}, "icon": "https://maps.gstatic.com/mapfiles/place_api/icons/v1/png_71/park-71.png", "icon_background_color": "#4DB546", "icon_mask_base_uri": "https://maps.gstatic.com/mapfiles/place_api/icons/v2/tree_pinlet", "name": "Vía Verde , carril bici", "opening_hours": {"open_now": true}, "photos": [{"height": 3472, "html_attributions": ["<a href=\"https://maps.google.com/maps/contrib/103322360241594595399\">Vicente Camarasa</a>"], "photo_reference": "AWn5SU6mvQC7FqlDllJktUcqetRDEDF39N2Mbu5bfcrGqTsYdY1abBM58uF8JM9Y-Oi5An3ihLhTUcSz0sH4fejtYzeTZVwiCy7tLKjowDghJMi7P3iHMa2hPOYSCkHXh8kFVTcmmcBpHkvlm-rrt5G1ZFuxrQggOmzbacNB_7PoE3QJKhE9NkaGT5QMpHkjXUpTIaM_ToQ0wwLmINcU_vbo5sE4vmcpvDtxfvCKYQ2ouJUfIEDyAVi21WIt_3J2HEZIQGlyW6dRbv8K3tzEV7DAilI5L0Sjw5e2_J6FIJqzWJR1d5VyxhPHRqCPWeTJbgt_cqrQglaXm6fXj9H0VIoUFgodrjnhm4Bp15L-SbeXYKPc0Hhz2qvA4haEDjrczVnplKHqx5TB65KIjCN6z2mQ1K2lirm8Nd_Cu5soiu9Y9wBJ34gQ4YpoICPXpCy_UpITCvSZyalZmgoyk7zQ_5gTCmggmpxcbae6f35y6CW9CSFkAWDbDqK2dEv7b620_lnebB09OyDbhG7pp3oSm8RFP8zXfhcCC6E5BprG_MyhoSBrTY_fDS7o_V1QcRwKOqpK-u9iJs45IYhnoGYx4eHk_0CveLhCBDSNIsHGIqBWMhCYeDLXfj4ZkLV_dLbzNt5VouSn_A", "width": 4624}], "place_id": "ChIJpdzdx_lnQg0RMFYTLFZEkiA", "plus_code": {"compound_code": "6QW6+CC Carabaña, Spain", "global_code": "8CGR6QW6+CC"}, "rating": 4.5, "reference": "ChIJpdzdx_lnQg0RMFYTLFZEkiA", "scope": "GOOGLE", "types": ["park", "point_of_interest", "establishment"], "user_ratings_total": 13, "vicinity": "Vias Verdes del Tajuna, Carabaña"}]