[{"geometry": {"location": {"lat": 40.6308675, "lng": -4.0054458}, "viewport": {"northeast": {"lat": 40.65407773477466, "lng": -3.982954397388055}, "southwest": {"lat": 40.61617770927568, "lng": -4.029667607630571}}}, "icon": "https://maps.gstatic.com/mapfiles/place_api/icons/v1/png_71/geocode-71.png", "icon_background_color": "#7B9EB0", "icon_mask_base_uri": "https://maps.gstatic.com/mapfiles/place_api/icons/v2/generic_pinlet", "name": "Collado Villalba", "photos": [{"height": 3024, "html_attributions": ["<a href=\"https://maps.google.com/maps/contrib/118255486776655649473\">Hugo Álvarez Bs</a>"], "photo_reference": "AWn5SU7d5RM82HVK3Os8Vx1xTK5RKV4lnvGQAWix0TSGeFTOinL-4lMAdtttCwhuw_PDF6-TwmL6mtkX6Zzzc-ea_Y8ch45MPQODHjZPKUhd9OQYFWvgSFpPJnzuHck1M7Wr_r_ZUWYE5C26RvSr_NAiTM3GdSeEqkCQEEh59Eo8wqWY_Au5kPKIQq4LhHGLUULe7QY9vXMNrueLJTCI9KXu5uvwmwAURst-nsgnweHcq3kGk55-pD_TNYG3g4c0ycXtgQ-DSW5wDojuRgMacoF0DeGkvJ2TxjTlUFeDbpyYWCrwFBcAc2rarfrJ5JN6MONPGCynJvUKHpbxlUvcwaQB6zIO8d6-lqJ-SnDIiOw7yRrQT5qLcmlOyCmj48atY8PKPVf0UYuR25KhUJ0KupszUUiB1q3Zyz7ETktze6xqfMT3dD-vd0S1y1gxMeBN05j7zCsfzezJWh2tir15otFJ07P6-zq5Z5ndOt9QQ26U8e6SHBb1iQMiEC1_iSWhp_2Wiq2eTmrB5Rvogf8QxVPnl3VTWOSc9pjk-ih6xLN2HmDyZb8cpSUaiF6QLMI5f0Fpdw-ilQfy93jAy4Cf48XW9uEvO6L21QWOpJnyalmg_-VhNNeaBNhdoW32as5EAjQ6WawWxLPu", "width": 4032}], "place_id": "ChIJ5VZQLvZzQQ0RVSfRrZ0aUx0", "reference": "ChIJ5VZQLvZzQQ0RVSfRrZ0aUx0", "scope": "GOOGLE", "types": ["locality", "political"], "vicinity": "Collado Villalba"}, {"business_status": "OPERATIONAL", "geometry": {"location": {"lat": 40.63442309999999, "lng": -4.0101119}, "viewport": {"northeast": {"lat": 40.63586073029149, "lng": -4.008778669708498}, "southwest": {"lat": 40.6331627697085, "lng": -4.011476630291503}}}, "icon": "https://maps.gstatic.com/mapfiles/place_api/icons/v1/png_71/lodging-71.png", "icon_background_color": "#909CE1", "icon_mask_base_uri": "https://maps.gstatic.com/mapfiles/place_api/icons/v2/hotel_pinlet", "international_phone_number": "+34 918 51 03 04", "name": "Hotel Galaico", "photos": [{"height": 730, "html_attributions": ["<a href=\"https://maps.google.com/maps/contrib/113042360287529580240\">Hotel Galaico</a>"], "photo_reference": "AWn5SU6S1_iXGKqYZO67G3oSDAdQWsDIJd-PzFn6X0l4IX9ji7NtkOlNGssAddkVH5V28U7RJtjNJMaGUHYth70gdhirxsmWjwZrA6EYe_q6sibOnYeu6nw8RVhHMB61soTpEASWwsZApZSlEpDycUbWbjE7e2JfUUWR50iB7zhaETliZeShlPQt2EEXk_pQPzRbQ6fjleIBlOO9H324sFxIP5Xw653bnkcyybRW_nS3fu8ziqjPb58zM-0E-dZwNZYfYboBS5AlvorwwuvxwPc8NVWKzQWtYf8oCljR4F5NI6RWVmID5MyoJ5t1IJ7dqgowZiajOXVf", "width": 2484}], "place_id": "ChIJ0Qs2L3B0QQ0R2eZzhIVMwpk", "plus_code": {"compound_code": "JXMQ+QX Collado Villalba, Spain", "global_code": "8CGQJXMQ+QX"}, "rating": 3.8, "reference": "ChIJ0Qs2L3B0QQ0R2eZzhIVMwpk", "scope": "GOOGLE", "types": ["lodging", "point_of_interest", "establishment"], "user_ratings_total": 2145, "vicinity": "Avenida Juan Carlos I, 45, Collado Villalba"}, {"business_status": "OPERATIONAL", "geometry": {"location": {"lat": 40.6502869, "lng": -4.008583199999999}, "viewport": {"northeast": {"lat": 40.65158183029151, "lng": -4.007089919708497}, "southwest": {"lat": 40.64888386970851, "lng": -4.009787880291502}}}, "icon": "https://maps.gstatic.com/mapfiles/place_api/icons/v1/png_71/lodging-71.png", "icon_background_color": "#909CE1", "icon_mask_base_uri": "https://maps.gstatic.com/mapfiles/place_api/icons/v2/hotel_pinlet", "international_phone_number": "+34 918 40 74 30", "name": "Hotel FC Villalba", "opening_hours": {"open_now": true}, "photos": [{"height": 510, "html_attributions": ["<a href=\"https://maps.google.com/maps/contrib/116009730314062251169\">Hotel FC Villalba - Collado Villalba</a>"], "photo_reference": "AWn5SU7aKBKqmzwH8CtbHyseOHIXcaRcl_P9tgQvZL5CLULgD31ngxW9zQLIw0QvDksHwCJmDmAyCY0WUmx2D_nVng59zip5zCoAziIvI8Ky70cj-IU2pwCnXxmNrfbsNuHDKkBhkEqY2Qi3q0U_Ri3qyzunQW1iSDhhlqO_nJUgI5YVsSlsGAB3_dOLdaShhPPnZRwjj0Y6ZesuX_4CNaD7IjK-_UtB1IZqYI2dSBvKQYYPCHyZvn8zkY79FSjup8fSxWFSAceGrxFhOx325j4R9T0jWcOHu9bWwEWNtvkoAiemMYpUZ1sXan4UUx71S1DTk8r5wxCp0pA", "width": 680}], "place_id": "ChIJ21hNXwx0QQ0RSzkH0Q1V--E", "plus_code": {"compound_code": "MX2R+4H Collado Villalba, Spain", "global_code": "8CGQMX2R+4H"}, "rating": 3.9, "reference": "ChIJ21hNXwx0QQ0RSzkH0Q1V--E", "scope": "GOOGLE", "types": ["lodging", "point_of_interest", "establishment"], "user_ratings_total": 2029, "vicinity": "Carretera Navacerrada, Km 1, 37, Collado Villalba"}, {"business_status": "OPERATIONAL", "geometry": {"location": {"lat": 40.67857739999999, "lng": -3.961724}, "viewport": {"northeast": {"lat": 40.6798675802915, "lng": -3.960344119708498}, "southwest": {"lat": 40.6771696197085, "lng": -3.963042080291503}}}, "icon": "https://maps.gstatic.com/mapfiles/place_api/icons/v1/png_71/lodging-71.png", "icon_background_color": "#909CE1", "icon_mask_base_uri": "https://maps.gstatic.com/mapfiles/place_api/icons/v2/hotel_pinlet", "international_phone_number": "+34 918 42 79 34", "name": "Hospederia La Cañada", "opening_hours": {"open_now": true}, "photos": [{"height": 1200, "html_attributions": ["<a href=\"https://maps.google.com/maps/contrib/117758538324346495707\">Hospederia La Cañada</a>"], "photo_reference": "AWn5SU5V6Qo4sMCZYOpMfBf-z0MDRCYoPBs6qqqeK-JBsNX2X80sZrN5m0bmLasRBpVGbWh9RytP46pGn4-NN7YqzJMIS91cnBazb44C21L5-atz7VkAvjQvRtih3Apbcg_NMjHHYsCVrT8x9NlfgTEQ44VLp0csA4Rz-_1kVHg-yr3gfBpLV4-zP7xonZK9FjcKzbl7b1LudXCtlviEJ1AHG9m7Ndx-HcQBRjcp0s7zWmTzToEbZ2YjhQI2dBKnRs94vK2aUMOUY5fnAXbBEBrVvJ0NFkZsPloknCz6uo9k9IT5WFICcwEzWITmfp2mDiWkB6atQ1jHN1Y", "width": 1920}], "place_id": "ChIJMSe3Ag5xQQ0Rf4DqsG2U-Lg", "plus_code": {"compound_code": "M2HQ+C8 Moralzarzal, Spain", "global_code": "8CGRM2HQ+C8"}, "rating": 4.1, "reference": "ChIJMSe3Ag5xQQ0Rf4DqsG2U-Lg", "scope": "GOOGLE", "types": ["lodging", "point_of_interest", "establishment"], "user_ratings_total": 224, "vicinity": "Calle Cañada, 5, Moralzarzal"}, {"business_status": "OPERATIONAL", "geometry": {"location": {"lat": 40.7110184, "lng": -3.994080200000001}, "viewport": {"northeast": {"lat": 40.7122917302915, "lng": -3.992801819708497}, "southwest": {"lat": 40.7095937697085, "lng": -3.995499780291501}}}, "icon": "https://maps.gstatic.com/mapfiles/place_api/icons/v1/png_71/lodging-71.png", "icon_background_color": "#909CE1", "icon_mask_base_uri": "https://maps.gstatic.com/mapfiles/place_api/icons/v2/hotel_pinlet", "international_phone_number": "+34 918 53 80 00", "name": "Hotel Las Gacelas by Selecta", "photos": [{"height": 2736, "html_attributions": ["<a href=\"https://maps.google.com/maps/contrib/110119939345565622053\">Infanta</a>"], "photo_reference": "AWn5SU4G7BwtGRUb1gn_6VsAyheHHhDadNMQe1mFcpTUAp3FlW4nPn6Yinwtfpzq3y7StsHiOFOkZDLSzamxi6b5C998ocnwyo7fx6blj2go6RR5Ub2BCvcHqbr51XSWsPd7qY5PK0fyfIl56fxcodxo0DTa2m_3ggmFWvVXw9shEJmElvHaMtFg6dOjCNUH2fAjcCxriSU2FsZOxjl4Sxvfck1iKzLTqTqul7K6IIjGzqV5kiBzUK6RVi_0GMRc7UNx_-3DF7d-dVCzHYMPsj7RdHfyGcFbJVhBTLfHT1XQXHZ3qKKkDskpprtS06JAQ1Of3DHBY51LyyTff6bwhc5bAwb6wgjXrBcM6h1eJKGWBhhRF2atFl-PtlcXWlry-OTKFbC3-jvx9o4T5YryhOIEk6KTKTFYRIVU2BF0t3XKWmjYeqmgfRzBNfZlGFVh0FTlnh3EiaxBsxvJZiMp62-Lz5NqAKLHmCJzKLsGzQ41MUMPx-ps1sDTDcrswHfYJRARiCSvi4UFk2JJT_3mqtlrFj9P6uVe5MbC5xhvoJQPn293o1O7EGUeuo1_GNE3OIqZcaad_CpV8z_rMaQIhKWyDu3nMW8pVsvofA6Sb_IlSs1ez2M56QwtLzpxsj9HVf4wk_Jjvvaz", "width": 3648}], "place_id": "ChIJu20FPRlyQQ0RMLGZTpEkwdI", "plus_code": {"compound_code": "P264+C9 Becerril de la Sierra, Spain", "global_code": "8CGRP264+C9"}, "rating": 3.8, "reference": "ChIJu20FPRlyQQ0RMLGZTpEkwdI", "scope": "GOOGLE", "types": ["lodging", "point_of_interest", "establishment"], "user_ratings_total": 1466, "vicinity": "Paseo de San Sebastián, 53, Becerril de la Sierra"}, {"business_status": "OPERATIONAL", "geometry": {"location": {"lat": 40.6316509, "lng": -4.007472}, "viewport": {"northeast": {"lat": 40.63309733029149, "lng": -4.005997669708498}, "southwest": {"lat": 40.63039936970849, "lng": -4.008695630291502}}}, "icon": "https://maps.gstatic.com/mapfiles/place_api/icons/v1/png_71/bank-71.png", "icon_background_color": "#909CE1", "icon_mask_base_uri": "https://maps.gstatic.com/mapfiles/place_api/icons/v2/bank-intl_pinlet", "international_phone_number": "+34 918 51 54 04", "name": "BBVA", "opening_hours": {"open_now": false}, "photos": [{"height": 720, "html_attributions": ["<a href=\"https://maps.google.com/maps/contrib/111622598506749617559\">BBVA</a>"], "photo_reference": "AWn5SU51jc7APb-zAdOBjgZqB3XA76hDq3sVT6nBO4OX_w4C8g8jTTmXc_iMZiiPXtfYFuPogAKDVYxiEju6_HoFyPoVSKy-bdqCrTYEANEP_XPb5fdvgJ4_Dnuc4NhTmCzI2nWcD8AzoGb_AkD0Q1le5zJpRXxeyEogM9QI3HvQxpN7l-8Q15j-6SOLJzFEo9YKqSTmdE6PJCw-pQtkmkOJvVfIDYPByceUUHHy3_zsf1E-KYD4fKko43-OK2eRR6vP2AfVHmJed00iF_hQn105-KaIV3K2gBl2LjJnz6d1MX8CYDznXVl7VAS2EywQMhR23fR_ynW6zNg", "width": 1280}], "place_id": "ChIJubd3WxN0QQ0RuYvgWsGWuTk", "plus_code": {"compound_code": "JXJV+M2 Collado Villalba, Spain", "global_code": "8CGQJXJV+M2"}, "rating": 2.3, "reference": "ChIJubd3WxN0QQ0RuYvgWsGWuTk", "scope": "GOOGLE", "types": ["bank", "atm", "accounting", "finance", "point_of_interest", "establishment"], "user_ratings_total": 238, "vicinity": "Calle Batalla de Bailén, 15, Collado Villalba"}, {"business_status": "OPERATIONAL", "geometry": {"location": {"lat": 40.628066, "lng": -4.003812}, "viewport": {"northeast": {"lat": 40.6292786302915, "lng": -4.002307219708497}, "southwest": {"lat": 40.6265806697085, "lng": -4.005005180291501}}}, "icon": "https://maps.gstatic.com/mapfiles/place_api/icons/v1/png_71/generic_business-71.png", "icon_background_color": "#7B9EB0", "icon_mask_base_uri": "https://maps.gstatic.com/mapfiles/place_api/icons/v2/generic_pinlet", "international_phone_number": "+34 918 51 66 16", "name": "Agencia distribuidora y Servicio mantenimiento de gas butano y propano Repsol - GALANGAS SA", "opening_hours": {"open_now": false}, "photos": [{"height": 608, "html_attributions": ["<a href=\"https://maps.google.com/maps/contrib/103418393759603475532\">Servicio Mantenimiento Oficial bombona butano y propano Repsol</a>"], "photo_reference": "AWn5SU5b-7mv1qcYcwOarp8y26_5TQQ44QljW-EEFBPLkYCVBlFFmT4eJfZTh971d7hq_tux6HddvmEUFXE82FX7g5VmkiQMvhyvKlL_49AKt9Yp4ppAa928xXeCUyFtt7vFsJ6WX7jX_VLA1xzR2446moc9cU8JvewZPXLV1dQRxgjtDN9-l7taADMs_c4aU5NzJHisJP0TvT-vsfi3jyseDXVZf0rykqciPMzbvFeyYgXBB-Q6g7KgSuPtVYufkgakxrXMHrcAKEEOq4miQF6tp-Pq_iiRpmqLB03wj2y3um-JN0YBMQzAHwDDiAzIlzAKxx8OMCPCypA", "width": 1080}], "place_id": "ChIJ10Lt0hV0QQ0RLHS-sUtgEJA", "plus_code": {"compound_code": "JXHW+6F Collado Villalba, Spain", "global_code": "8CGQJXHW+6F"}, "rating": 2.1, "reference": "ChIJ10Lt0hV0QQ0RLHS-sUtgEJA", "scope": "GOOGLE", "types": ["point_of_interest", "establishment"], "user_ratings_total": 94, "vicinity": "LOS BELGAS, 10, Collado Villalba"}, {"business_status": "OPERATIONAL", "geometry": {"location": {"lat": 40.7026562, "lng": -4.0007601}, "viewport": {"northeast": {"lat": 40.7040238302915, "lng": -3.999554519708497}, "southwest": {"lat": 40.7013258697085, "lng": -4.002252480291501}}}, "icon": "https://maps.gstatic.com/mapfiles/place_api/icons/v1/png_71/lodging-71.png", "icon_background_color": "#909CE1", "icon_mask_base_uri": "https://maps.gstatic.com/mapfiles/place_api/icons/v2/hotel_pinlet", "international_phone_number": "+34 682 40 63 17", "name": "B&B Concha", "photos": [{"height": 3226, "html_attributions": ["<a href=\"https://maps.google.com/maps/contrib/101108196684153028775\">B&amp;B Concha</a>"], "photo_reference": "AWn5SU4ZNsrtIlgPSNXVjTp5dB2n-jh7fYhjMBz_K4bp4s8TtBtQt2cuJXYcMX8A7qhXGC7ni2gX5T1YIE1Gq8n9xMdcXhTociz8Q710wBl8g18wfx1Egjx44gvDOQ0nMEw9atCBtqA2KUt_UNRzaWr2JYpHJOyMPIy3N0UTbQ-zSzYNqyT0XnWfNjpEqQybwfODjIFNQgxjGEiXO41blm2A9Bf2DBl6H2Whuneanv7oivREKvIIznF_El5anTdpcT8TpW-dSOJtwRb-Hp6dfpGx0x-m5GP1VJwo3MZ_f8sGe1udNJSW4dVE9rBeUlUHt3hXWuKZoplKa5g", "width": 4648}], "place_id": "ChIJy8FcfzxyQQ0Rz-aDZ1HVcxw", "plus_code": {"compound_code": "PX3X+3M Becerril de la Sierra, Spain", "global_code": "8CGQPX3X+3M"}, "rating": 4.6, "reference": "ChIJy8FcfzxyQQ0Rz-aDZ1HVcxw", "scope": "GOOGLE", "types": ["lodging", "point_of_interest", "establishment"], "user_ratings_total": 437, "vicinity": "B&B Concha, Calle de Murillo, 9, Becerril de la Sierra"}, {"business_status": "OPERATIONAL", "geometry": {"location": {"lat": 40.6944105, "lng": -4.023775200000001}, "viewport": {"northeast": {"lat": 40.69587338029149, "lng": -4.022454619708498}, "southwest": {"lat": 40.6931754197085, "lng": -4.025152580291503}}}, "icon": "https://maps.gstatic.com/mapfiles/place_api/icons/v1/png_71/lodging-71.png", "icon_background_color": "#909CE1", "icon_mask_base_uri": "https://maps.gstatic.com/mapfiles/place_api/icons/v2/hotel_pinlet", "international_phone_number": "+34 918 59 85 31", "name": "Hotel en Madrid Sierra, Apartahotel CollaRubio", "opening_hours": {"open_now": false}, "photos": [{"height": 2448, "html_attributions": ["<a href=\"https://maps.google.com/maps/contrib/105822361052543212172\">Hotel en Madrid Sierra, Apartahotel CollaRubio</a>"], "photo_reference": "AWn5SU7U_4bQzbDvNoNqal9yRd1x5ESuL7u0ZcN8aWBoRJD537aay7Sfe7s-r9_qwkBuENrtnKVRNpZJPlop09WQ8qHxCmm5y0iXlfOhkI6QVYtRvJNvgoy2x9cZ4pSW_uYsH8nmUEgDD5nTdCXyBb7lmprecIlKhJhdCSHpmPdu3Dve5E_2IuY9xW_k9zHzEJHbS6hZcnXIs9uY6ricz811bscxTIA0vg8iLBpBh8uAc5wXWCH0QTYEhN7fAZ0W0wvwtzsnR_y0jikFQpjW72-hcJZTkn2GfniUTCfodOz7ELRfQqjJStZvZ5rXdEeWa4zvPvlnBXUK7-0", "width": 3264}], "place_id": "ChIJLbW-LVdyQQ0Rq2KRdujp2SY", "plus_code": {"compound_code": "MXVG+QF Collado Mediano, Spain", "global_code": "8CGQMXVG+QF"}, "rating": 4.5, "reference": "ChIJLbW-LVdyQQ0Rq2KRdujp2SY", "scope": "GOOGLE", "types": ["lodging", "point_of_interest", "establishment"], "user_ratings_total": 462, "vicinity": "Calle León, 4, Collado Mediano"}, {"business_status": "OPERATIONAL", "geometry": {"location": {"lat": 40.6785132, "lng": -4.093645899999999}, "viewport": {"northeast": {"lat": 40.67981918029151, "lng": -4.092138519708497}, "southwest": {"lat": 40.67712121970851, "lng": -4.094836480291502}}}, "icon": "https://maps.gstatic.com/mapfiles/place_api/icons/v1/png_71/lodging-71.png", "icon_background_color": "#909CE1", "icon_mask_base_uri": "https://maps.gstatic.com/mapfiles/place_api/icons/v2/hotel_pinlet", "international_phone_number": "+34 918 54 95 05", "name": "Punta Me Hotel & Restaurante Torreblanca", "photos": [{"height": 576, "html_attributions": ["<a href=\"https://maps.google.com/maps/contrib/104821075225605559494\">Punta Me Hotel &amp; Restaurante Torreblanca</a>"], "photo_reference": "AWn5SU5g8IQ_bM01mTDHXPyGchcw2MiarxhKoK0mbVE59pacjko6PgbzJEYE2bO3jJB4ygWyebw_fx-BT6pvVS779pyYyhbKRxxyzPhom0tLtMaDvvXnWWuMFReh2psWkxLGazk1qhM8vuTmhbwHz3Yt13U-Pe_qqgyMY3fBu6Y2gVULq_OxxvJIBloTo3xy3RdlvQa24ZzaVNBQ5Y9kIvaCjhNhOrcLn2ut3aZJvl8p3lGaLn3UgSwmtAJpxIzvKVbuV4va15y_2PecNgAsnk6AGE-Qo_9YlyQ5JiqGSWuI8TANptDnytste1pywWip0gF-KDcWDmfmBFM", "width": 1024}], "place_id": "ChIJSyTfxeYMQQ0R8SxClWcjQEw", "plus_code": {"compound_code": "MWH4+CG Guadarrama, Spain", "global_code": "8CGQMWH4+CG"}, "price_level": 2, "rating": 4.5, "reference": "ChIJSyTfxeYMQQ0R8SxClWcjQEw", "scope": "GOOGLE", "types": ["bar", "lodging", "restaurant", "point_of_interest", "food", "establishment"], "user_ratings_total": 902, "vicinity": "Calle del Doctor Gómez Ruiz, 7, Guadarrama"}, {"business_status": "OPERATIONAL", "geometry": {"location": {"lat": 40.6342491, "lng": -4.0103343}, "viewport": {"northeast": {"lat": 40.6356262802915, "lng": -4.008983319708498}, "southwest": {"lat": 40.6329283197085, "lng": -4.011681280291502}}}, "icon": "https://maps.gstatic.com/mapfiles/place_api/icons/v1/png_71/generic_business-71.png", "icon_background_color": "#7B9EB0", "icon_mask_base_uri": "https://maps.gstatic.com/mapfiles/place_api/icons/v2/generic_pinlet", "name": "Centro Gallego Noroeste de Madrid", "opening_hours": {"open_now": false}, "place_id": "ChIJyS0PBG10QQ0R83-2nH2iR14", "plus_code": {"compound_code": "JXMQ+MV Collado Villalba, Spain", "global_code": "8CGQJXMQ+MV"}, "rating": 5, "reference": "ChIJyS0PBG10QQ0R83-2nH2iR14", "scope": "GOOGLE", "types": ["insurance_agency", "point_of_interest", "establishment"], "user_ratings_total": 1, "vicinity": "Calle Mataespesa, 4, Collado Villalba"}, {"business_status": "OPERATIONAL", "geometry": {"location": {"lat": 40.6551631, "lng": -4.016564499999999}, "viewport": {"northeast": {"lat": 40.6564972802915, "lng": -4.015207719708497}, "southwest": {"lat": 40.6537993197085, "lng": -4.017905680291502}}}, "icon": "https://maps.gstatic.com/mapfiles/place_api/icons/v1/png_71/generic_business-71.png", "icon_background_color": "#13B5C7", "icon_mask_base_uri": "https://maps.gstatic.com/mapfiles/place_api/icons/v2/generic_pinlet", "international_phone_number": "+34 629 48 64 72", "name": "Hispamusic", "place_id": "ChIJM9mhx49zQQ0RWTP6U_MLnhc", "plus_code": {"compound_code": "MX4M+39 Alpedrete, Spain", "global_code": "8CGQMX4M+39"}, "rating": 5, "reference": "ChIJM9mhx49zQQ0RWTP6U_MLnhc", "scope": "GOOGLE", "types": ["store", "point_of_interest", "establishment"], "user_ratings_total": 3, "vicinity": "Avenida de Valdencina, 35, Alpedrete"}, {"business_status": "OPERATIONAL", "geometry": {"location": {"lat": 40.6342654, "lng": -4.008305}, "viewport": {"northeast": {"lat": 40.6355417302915, "lng": -4.006958569708497}, "southwest": {"lat": 40.6328437697085, "lng": -4.009656530291502}}}, "icon": "https://maps.gstatic.com/mapfiles/place_api/icons/v1/png_71/shopping-71.png", "icon_background_color": "#4B96F3", "icon_mask_base_uri": "https://maps.gstatic.com/mapfiles/place_api/icons/v2/shopping_pinlet", "international_phone_number": "+34 918 49 89 07", "name": "Plus occasion Collado Villalba", "opening_hours": {"open_now": false}, "photos": [{"height": 1530, "html_attributions": ["<a href=\"https://maps.google.com/maps/contrib/103494329413173339286\">OcasionPlus Collado Villalba | Concesionario de coches de segunda mano</a>"], "photo_reference": "AWn5SU7SEZlreBDHyikFumN-AF-sofzaFi7lMHAtK3CxwSWsdCeKrEW5Shqk2W8FyoKqsokAa_DXkFlfYir5BKv-VaF6z2R8K3s0g1DQV4VuC3Qi4QywA9qUJm6bNLDyY7drPa3MK5mnXfzGH7XbYkbarG8Nk-ThgPv_uKJHlLjWtnFKXDeWTGMvcza6mk1HuSQl-eDR3NXOfDuMtM60Fi_t2e-5-0vF56o-41FZXZwuzIdA4M07Tk3Hnv84mmxcy-ZGEFrW73DUPMYLBR_oebO6Ev1wUQArSGPMdW-RgSBLpz5xqBJ7-ZaIncQ4V5uiLj_SG9nFNBn55Ls", "width": 2040}], "place_id": "ChIJlykt2HF0QQ0Rgi596tEMnS8", "plus_code": {"compound_code": "JXMR+PM Collado Villalba, Spain", "global_code": "8CGQJXMR+PM"}, "rating": 4.2, "reference": "ChIJlykt2HF0QQ0Rgi596tEMnS8", "scope": "GOOGLE", "types": ["car_dealer", "store", "point_of_interest", "establishment"], "user_ratings_total": 3393, "vicinity": "Avenida Juan Carlos I, 36, Collado Villalba"}, {"business_status": "OPERATIONAL", "geometry": {"location": {"lat": 40.6308418, "lng": -4.0040445}, "viewport": {"northeast": {"lat": 40.6321563802915, "lng": -4.002717919708497}, "southwest": {"lat": 40.6294584197085, "lng": -4.005415880291502}}}, "icon": "https://maps.gstatic.com/mapfiles/place_api/icons/v1/png_71/generic_business-71.png", "icon_background_color": "#7B9EB0", "icon_mask_base_uri": "https://maps.gstatic.com/mapfiles/place_api/icons/v2/generic_pinlet", "international_phone_number": "+34 918 49 14 21", "name": "Psicología Indra", "opening_hours": {"open_now": false}, "place_id": "ChIJDzIgHBR0QQ0RJAaVpynQsk8", "plus_code": {"compound_code": "JXJW+89 Collado Villalba, Spain", "global_code": "8CGQJXJW+89"}, "reference": "ChIJDzIgHBR0QQ0RJAaVpynQsk8", "scope": "GOOGLE", "types": ["health", "point_of_interest", "establishment"], "vicinity": "Calle Francisco Martín, 1, Collado Villalba"}, {"business_status": "OPERATIONAL", "geometry": {"location": {"lat": 40.6723803, "lng": -4.0895968}, "viewport": {"northeast": {"lat": 40.6738368802915, "lng": -4.088245819708497}, "southwest": {"lat": 40.6711389197085, "lng": -4.090943780291502}}}, "icon": "https://maps.gstatic.com/mapfiles/place_api/icons/v1/png_71/bank-71.png", "icon_background_color": "#909CE1", "icon_mask_base_uri": "https://maps.gstatic.com/mapfiles/place_api/icons/v2/bank-intl_pinlet", "international_phone_number": "+34 918 54 74 40", "name": "BBVA", "opening_hours": {"open_now": false}, "photos": [{"height": 720, "html_attributions": ["<a href=\"https://maps.google.com/maps/contrib/117139935953103836840\">BBVA</a>"], "photo_reference": "AWn5SU4TFG1sLMbq8UwJtJZIQuJVNdqEcVez2gwt-vqPD9pl39iGW0GnG2bdQ8ViLYYJdQb0Ds-Dysk67WscOQKr_U_dt0OJK7xRbgZAFpbKY8H-J1AHp6kVZLkk93DGPAq7kR6QIYmrQ3Wj662DJnyXYwQQxucObpmWYfvXv2UT3vHKZQg0xnqDIu8x1WEvoyS69lgfPw6tcKuBXzrrAihFP3dOEw3h0YjOI01CIKuLGyuNErdoabtcfzg6x4txcVquBj3bPE53quvoXF94AwKZVqaM4ud_MO20MMyqwQ5USC8vrpNfr4WiLFjPEPUpHsPK3XdbhMtwo98", "width": 1280}], "place_id": "ChIJ75_Jm8IMQQ0Ry2rgOEx1q7Q", "plus_code": {"compound_code": "MWC6+X5 Guadarrama, Spain", "global_code": "8CGQMWC6+X5"}, "rating": 2.1, "reference": "ChIJ75_Jm8IMQQ0Ry2rgOEx1q7Q", "scope": "GOOGLE", "types": ["bank", "atm", "accounting", "finance", "point_of_interest", "establishment"], "user_ratings_total": 34, "vicinity": "Calle Alfonso Senra, 19, Guadarrama"}, {"business_status": "OPERATIONAL", "geometry": {"location": {"lat": 40.6381363, "lng": -4.0024024}, "viewport": {"northeast": {"lat": 40.6393081302915, "lng": -4.001120319708497}, "southwest": {"lat": 40.6366101697085, "lng": -4.003818280291502}}}, "icon": "https://maps.gstatic.com/mapfiles/place_api/icons/v1/png_71/school-71.png", "icon_background_color": "#7B9EB0", "icon_mask_base_uri": "https://maps.gstatic.com/mapfiles/place_api/icons/v2/school_pinlet", "international_phone_number": "+34 918 50 15 71", "name": "IES Jaime Ferrán", "opening_hours": {"open_now": false}, "photos": [{"height": 2052, "html_attributions": ["<a href=\"https://maps.google.com/maps/contrib/110551406772582236771\">IES Jaime Ferrán</a>"], "photo_reference": "AWn5SU57H6h9pNYehmspo8FX-A4W0S1Q2FKfQ-gT3Gpj0akSC9UtyDg_tBWYjgbEzL9bxYCgvi8RrV_ACj17_6zGfuINjQmqcmtafXy4NkUz8Dyip0Iv7bu3vbY18OSwygq9K7OEYRGzluCmKQj7f9-phMwffJMvOorbNKjw0B73MKwK_q6tKqpmb0Z_8JoCAXyq7CCuh7ihGV2F79Qt-bmUhso3geHsuTzps6YKJI5T_qEwdXtnsMRhfNCrDrdhnECMqxPI1yH7i4ejrXxUNEAVMTJeE1N4pwxSzB3aZLZEIumTJ6a1dAfZYRFjHMLt7wQoJv5LzfPeNbA", "width": 3648}], "place_id": "ChIJT2JhFQ50QQ0RnX_nGJQjVeA", "plus_code": {"compound_code": "JXQX+72 Collado Villalba, Spain", "global_code": "8CGQJXQX+72"}, "reference": "ChIJT2JhFQ50QQ0RnX_nGJQjVeA", "scope": "GOOGLE", "types": ["secondary_school", "point_of_interest", "school", "establishment"], "vicinity": "Calle Matalpino, 22, 28 400, Collado Villalba"}, {"business_status": "OPERATIONAL", "geometry": {"location": {"lat": 40.7212895, "lng": -4.019887199999999}, "viewport": {"northeast": {"lat": 40.72269318029149, "lng": -4.018300469708497}, "southwest": {"lat": 40.7199952197085, "lng": -4.020998430291502}}}, "icon": "https://maps.gstatic.com/mapfiles/place_api/icons/v1/png_71/restaurant-71.png", "icon_background_color": "#FF9E67", "icon_mask_base_uri": "https://maps.gstatic.com/mapfiles/place_api/icons/v2/restaurant_pinlet", "international_phone_number": "+34 918 56 02 50", "name": "Las Postas", "opening_hours": {"open_now": false}, "photos": [{"height": 480, "html_attributions": ["<a href=\"https://maps.google.com/maps/contrib/105419657251357599248\">Restaurante Las Postas</a>"], "photo_reference": "AWn5SU6pS2s7d-s-jL6psEO9CnhuAp21Gke5WJiIEG_csENpz6A1N002SUQDKmuKXyzlyI8Oa9-oXzIigQCUVLoN0qvYZ39nmDFWUEvDFgQUE0igNaFTB3Q7SPjhi4mk7lcazKgji-xRuEIGwGOzO2RD0Y6Xl2L376YOGNoejbmF1hO-yLOmpM6blT037xPYJTjBGv3vFuUPlPLg4zgNuR4-a6lVVl1UvZz7fM93G1AdzCO8y3yIV6KevgZV4NrdnN5I9ADFPIoMj-FIJ8c2RpEes7TesWZVXSzVD0_fiFuRKPoeJllIYbDBwtiDudGoT8r-HTWmGc9MhfM", "width": 640}], "place_id": "ChIJkUY3O3pyQQ0R8mBQotKgAM4", "plus_code": {"compound_code": "PXCJ+G2 Navacerrada, Spain", "global_code": "8CGQPXCJ+G2"}, "rating": 3.8, "reference": "ChIJkUY3O3pyQQ0R8mBQotKgAM4", "scope": "GOOGLE", "types": ["restaurant", "cafe", "store", "point_of_interest", "food", "establishment"], "user_ratings_total": 863, "vicinity": "Ctra, M-601, KM.10, 200, Navacerrada"}, {"business_status": "OPERATIONAL", "geometry": {"location": {"lat": 40.6300265, "lng": -4.020659900000001}, "viewport": {"northeast": {"lat": 40.6314758802915, "lng": -4.019186219708497}, "southwest": {"lat": 40.6287779197085, "lng": -4.021884180291502}}}, "icon": "https://maps.gstatic.com/mapfiles/place_api/icons/v1/png_71/shopping-71.png", "icon_background_color": "#4B96F3", "icon_mask_base_uri": "https://maps.gstatic.com/mapfiles/place_api/icons/v2/shopping_pinlet", "international_phone_number": "+34 918 50 31 21", "name": "SEYSU HIDRAULICA", "opening_hours": {"open_now": false}, "photos": [{"height": 3024, "html_attributions": ["<a href=\"https://maps.google.com/maps/contrib/110769730157060088285\">JOSE LUIS RODRIGUEZ MARTIN</a>"], "photo_reference": "AWn5SU5kHEbeav-FVU8mBTfTAunHBMJZCPrUhSb_Y-qNJmpNSXvihb6hIGjeeO3GJQzfD18leSTt263EpbvgcbILncrrzDRnBhjcPWDUyZBu9S7FVsU6g-vWfzBiYojk1GpIw8kVCt1uaz7cXHHu6vwZkHyUy7XCb3DXuvH8RUyX90Q9nLGzXpKTPC0cpPeh6OJJTP-5FOD8NS34K2XgUybw_bg8mDssQSZM7Q0HL3VKnfxMKkKGuzoHmJYs95Nn5GOcMfhoymPST8tlj2AYRhg0maOuF0TSGINNT6Ci4IeseDYao-DhIfb4_NJL02phrSpo1GVRIGwVJ-0tsMR8iPbyXv7Q9WyDuNf4_yDEjwKEuy9hz60EbZmOr4WNR9Fzdi6TXK35vsbNEerg4UpcagPHpuZNEBpHEgWskmWnMT8IO-x9dIqMNSRWiFJcKd2gMz-C0v4LmtdhlTwpOOiK2RiQqFzA1aLEJ56Umj8941NjBENTZcLRZ-rCqPduQMgdB9hWFsos4ZdKx7fV8gF7kV2s7gOUpdHdHZu4RcjwSnNOrInU43aevsgj76srn2DLbdE5QKEbHwKlJymgO63OFEHRxBSDZyrDJFjgYZWFpqpbwrLmg_gqCMS9u1R4KNtKTlsq", "width": 4032}], "place_id": "ChIJV1YtbmZ0QQ0RNYYI3mRGCBE", "plus_code": {"compound_code": "JXJH+2P Collado Villalba, Spain", "global_code": "8CGQJXJH+2P"}, "rating": 4.4, "reference": "ChIJV1YtbmZ0QQ0RNYYI3mRGCBE", "scope": "GOOGLE", "types": ["hardware_store", "store", "point_of_interest", "establishment"], "user_ratings_total": 239, "vicinity": "Calle Escofina, 10, Collado Villalba"}, {"business_status": "OPERATIONAL", "geometry": {"location": {"lat": 40.6311682, "lng": -4.0125142}, "viewport": {"northeast": {"lat": 40.6325546302915, "lng": -4.011181169708498}, "southwest": {"lat": 40.6298566697085, "lng": -4.013879130291502}}}, "icon": "https://maps.gstatic.com/mapfiles/place_api/icons/v1/png_71/school-71.png", "icon_background_color": "#7B9EB0", "icon_mask_base_uri": "https://maps.gstatic.com/mapfiles/place_api/icons/v2/school_pinlet", "international_phone_number": "+34 918 51 24 39", "name": "Centro Deportivo Villalba SL", "opening_hours": {"open_now": false}, "photos": [{"height": 533, "html_attributions": ["<a href=\"https://maps.google.com/maps/contrib/115762055273587137982\">CENTRO DEPORTIVO VILLALBA</a>"], "photo_reference": "AWn5SU4IZdW7dGLtY85Ac8jau4JaKImBzMfrgz6TTog5EWylsk4KU15XlbTw_hp9987qoR9KUf1VwWk7X9-SIznb7sRDduyoddQySIu1V-t69SD_oIMkf4-NN_lP096WpB36id1yEdmfLuRsaWUVIfsi-rW6bghj9Dptbvk0-DAdafJfZkLreWwDauim-lYns8sUw5sy_BO3SMWw71Mdx4iAXLRmhSmVc3UULO9eNZdiuDicT9Au6WMUWzBv5U3RFe4iC6l3ZWPE42RXdcxzB52NZqMdi3NthxfSywi68rqWm-oB1z4QT8NLD9_KEOXslOVwGpCkIYX3i90", "width": 800}], "place_id": "ChIJVyE0CGx0QQ0RxG7v7zJw3kI", "plus_code": {"compound_code": "JXJP+FX Collado Villalba, Spain", "global_code": "8CGQJXJP+FX"}, "rating": 4.4, "reference": "ChIJVyE0CGx0QQ0RxG7v7zJw3kI", "scope": "GOOGLE", "types": ["gym", "health", "point_of_interest", "establishment"], "user_ratings_total": 33, "vicinity": "Calle Pardo de Santallana, 35, Collado Villalba"}, {"geometry": {"location": {"lat": 40.6733652, "lng": -4.090631}, "viewport": {"northeast": {"lat": 40.69552231493838, "lng": -4.063951076205416}, "southwest": {"lat": 40.65777805317519, "lng": -4.109759937357697}}}, "icon": "https://maps.gstatic.com/mapfiles/place_api/icons/v1/png_71/geocode-71.png", "icon_background_color": "#7B9EB0", "icon_mask_base_uri": "https://maps.gstatic.com/mapfiles/place_api/icons/v2/generic_pinlet", "name": "Guadarrama", "photos": [{"height": 1868, "html_attributions": ["<a href=\"https://maps.google.com/maps/contrib/109629320426282471976\">Juan Correia</a>"], "photo_reference": "AWn5SU4ZiCvZiZagSrezHtaVBigTfrsjJej5FWDVKMnFytC1WwQiiKnnuaZEg3QSYCzoiAZ8u1LN9cqStmBgbYl4KcJm2_eYmS6Z5LxVzMaw_sH1fFju0j4uwDM09DRKZsJeu2ljjkO8NSGzVGPGxYU2oVaRp278QxuyYMNIeJv5TZEbirWuiR4NDRIoUHOX2hJYKWYYIJQewc7Y6GAlMt4hb8aj6BVPJf11cGjwUz0eJjMR_xw9aP3DjP2lnrTbfVuEdT7HKB7yK0kl_WN3Jk8a2MgwolLh6VfiGJRywRJxlovmqgQRahlSiBNRhI1yfAvNAz5NL7zmlbaKp4O9ygfA_b5br7CgHCb8bEeo1NP8OIVA0SwilLljMGng89qeFbKcEUTlitlV5Cx33bp8yJXn9Lr92MN-pR476psUsRxqztVxSP_01IiC-Bn_pTqbwZRGkuMFp1I9t5Px_IMA4ad4UlfHwgaqDMJyvuUte4UJmAzuO6bLAqpmCVG12lwDjooUFFr1ZzlWbobW2VWjZc2Cm3acEMKQm1xQK-uTm0IJUEOEhSe12yMML3_AAT617nTWhBIUehh5x7KjWl4FagIdM-dRVuSgUQChY6qOfj7ocQnTiZRDRWa4z-nW3O-2SFA4", "width": 4000}], "place_id": "ChIJEW_p7t0MQQ0RHBs1IEdxUZw", "reference": "ChIJEW_p7t0MQQ0RHBs1IEdxUZw", "scope": "GOOGLE", "types": ["locality", "political"], "vicinity": "Guadarrama"}]