[{"business_status": "OPERATIONAL", "geometry": {"location": {"lat": 40.3389893, "lng": -4.1278477}, "viewport": {"northeast": {"lat": 40.3403445802915, "lng": -4.126500319708497}, "southwest": {"lat": 40.3376466197085, "lng": -4.129198280291502}}}, "icon": "https://maps.gstatic.com/mapfiles/place_api/icons/v1/png_71/generic_business-71.png", "icon_background_color": "#7B9EB0", "icon_mask_base_uri": "https://maps.gstatic.com/mapfiles/place_api/icons/v2/generic_pinlet", "name": "Ctra.M523-PºSan Antonio", "photos": [{"height": 4128, "html_attributions": ["<a href=\"https://maps.google.com/maps/contrib/100984270875485694657\">Rosi Nuñez</a>"], "photo_reference": "AWn5SU6X-DVaAZX6JUobU2IcNFIgqFijVxVpz_t-MSin-24RtXiSUQDryxsU3u94MEPuo98tFlgMVu3KRAb6UlY-L66qnAi3isDk2X0ft7wpCtJ3UT09hKKLTEYhfzWs1aITPW0HI6v0JAoGmSMhXQQAW0GqStRjpbt-PS7M8St4VoPU2nTwDkPW9P67VM-fv5Wsc7puIAxGjpb3r3bMhxcC7XvIvnpPfKuFCGSouy8dNOAw_WlHwUdsNcvyyZvlzUUdaOK8WMK7QizNS20HQduvpTHXEqWS6snhdYjfif6XyuW4vr_hvuvFtpoXhR51r0g3-KI7CNMmQ9b8rdaUwMCALwOG514IGCU6qzXCDmvrjc43UdghlaA1E5SdOqIR8gojlezJpDedQaLTi2tb90Ln_1EX9F0jaHZfwPk2t-WY44yuZEGrAoKGscSZJF3hYX4O0fkacXDaQlYIponCwf2W9FfVXM0X7oLzQUutSUokzNbHHXOKgTydz2MbV1WLmQum31pLAbFHquCDGRCqJLwPpkLgyO05uzWaQu6DJ3naH8jjSkFgTGtqE83mgU4TQuJJ5A2ucMLyWyYaPtG0W8EnFq7G_NUzmrAkXypdoWK5krjd8g3sz8dMV33U-1K6HWkAfKiYUssE", "width": 2322}], "place_id": "ChIJqTEx8kC8QQ0R_mJ6Q-dacuI", "plus_code": {"compound_code": "8VQC+HV Villamantilla, Spain", "global_code": "8CGQ8VQC+HV"}, "rating": 4, "reference": "ChIJqTEx8kC8QQ0R_mJ6Q-dacuI", "scope": "GOOGLE", "types": ["transit_station", "point_of_interest", "establishment"], "user_ratings_total": 1, "vicinity": "Spain"}, {"business_status": "OPERATIONAL", "geometry": {"location": {"lat": 40.339522, "lng": -4.1282223}, "viewport": {"northeast": {"lat": 40.34087698029149, "lng": -4.126916619708497}, "southwest": {"lat": 40.3381790197085, "lng": -4.129614580291502}}}, "icon": "https://maps.gstatic.com/mapfiles/place_api/icons/v1/png_71/generic_business-71.png", "icon_background_color": "#7B9EB0", "icon_mask_base_uri": "https://maps.gstatic.com/mapfiles/place_api/icons/v2/generic_pinlet", "name": "Olivar-Ctra.M523", "place_id": "ChIJo2Yg-EC8QQ0RhgXSgpzrelA", "plus_code": {"compound_code": "8VQC+RP Villamantilla, Spain", "global_code": "8CGQ8VQC+RP"}, "rating": 1, "reference": "ChIJo2Yg-EC8QQ0RhgXSgpzrelA", "scope": "GOOGLE", "types": ["transit_station", "point_of_interest", "establishment"], "user_ratings_total": 1, "vicinity": "Spain"}, {"business_status": "OPERATIONAL", "geometry": {"location": {"lat": 40.3422165, "lng": -4.1282077}, "viewport": {"northeast": {"lat": 40.3435655302915, "lng": -4.126837419708498}, "southwest": {"lat": 40.3408675697085, "lng": -4.129535380291503}}}, "icon": "https://maps.gstatic.com/mapfiles/place_api/icons/v1/png_71/generic_business-71.png", "icon_background_color": "#7B9EB0", "icon_mask_base_uri": "https://maps.gstatic.com/mapfiles/place_api/icons/v2/generic_pinlet", "name": "Olivar-Polideportivo", "photos": [{"height": 1848, "html_attributions": ["<a href=\"https://maps.google.com/maps/contrib/108717692692300947496\">Oskitar HAz</a>"], "photo_reference": "AWn5SU7Xm8cNqrJ9PcgTCc3yEAbMmfSadlaumqReCTAlFMm1cAD5BEzbpq4GQD4cy7WFlZv6_1RIsGtCIQqXmHCQnIjFfl4p2j5_T8D2WVZTyvHgbNDL95Cs9XH3MxgCtMrNd-PAlNMumIId2hGvCiTNsTWPv_112WRe_4QTAgqoO5BVwF2qpioFXEBvtr44HFvWwpcfVgbjfQZn8fFU-RHTULDr1xpEWsQCWG2JwhrwSFOVTu2JoLT_FTCjBdppY_KvwyVqQDjV4qZzcP29rtIusyhcsyEwPMGIpB7hkqk9NRxeHgrIE43vcmPSTKCFnsWuiDYsdqoA0oZsI9XGi7sXbNxaTrah654M6AB9F6kMJ0qxKtrSLfdPweQH-MXJtw3oDRorJuNVNZrNKOzJodWxpNExVKsuMD8dlNZmDKeyTizi86ljFsT9vUSUu0HNubreEFtFUL64G0rcFDVF_IEEw3ItmwgA_B6nd1JZJ1FvDzO0TZysWIcv0jGm9KV0csmHoPYxH5lsP7Zpg67Au-LgWlUYaY-rzQNAyFf9h1t7VT7qcwgu_uG-bv87lYIyvYgYHjgxMdL4h3iP9PqrFIEZzN65TPOQJLoXJL917ilPK5G7_KFrO2NsM8Fe0O6DKqLtbTEEDmUo_Dpyg1rUTM_PplPPsgA", "width": 4000}], "place_id": "ChIJ_zArf0G8QQ0Ry48F-waoXpE", "plus_code": {"compound_code": "8VRC+VP Villamantilla, Spain", "global_code": "8CGQ8VRC+VP"}, "rating": 5, "reference": "ChIJ_zArf0G8QQ0Ry48F-waoXpE", "scope": "GOOGLE", "types": ["transit_station", "point_of_interest", "establishment"], "user_ratings_total": 1, "vicinity": "Spain"}, {"business_status": "OPERATIONAL", "geometry": {"location": {"lat": 40.34219, "lng": -4.12807}, "viewport": {"northeast": {"lat": 40.3435388302915, "lng": -4.126754619708498}, "southwest": {"lat": 40.3408408697085, "lng": -4.129452580291503}}}, "icon": "https://maps.gstatic.com/mapfiles/place_api/icons/v1/png_71/generic_business-71.png", "icon_background_color": "#7B9EB0", "icon_mask_base_uri": "https://maps.gstatic.com/mapfiles/place_api/icons/v2/generic_pinlet", "name": "Olivar-Polideportivo", "place_id": "ChIJU-Sr1kO8QQ0RpZ3ykF5R9NU", "plus_code": {"compound_code": "8VRC+VQ Villamantilla, Spain", "global_code": "8CGQ8VRC+VQ"}, "reference": "ChIJU-Sr1kO8QQ0RpZ3ykF5R9NU", "scope": "GOOGLE", "types": ["transit_station", "point_of_interest", "establishment"], "vicinity": "Spain"}, {"business_status": "OPERATIONAL", "geometry": {"location": {"lat": 40.3468781, "lng": -4.1269431}, "viewport": {"northeast": {"lat": 40.34823188029149, "lng": -4.125630719708498}, "southwest": {"lat": 40.34553391970849, "lng": -4.128328680291503}}}, "icon": "https://maps.gstatic.com/mapfiles/place_api/icons/v1/png_71/bus-71.png", "icon_background_color": "#10BDFF", "icon_mask_base_uri": "https://maps.gstatic.com/mapfiles/place_api/icons/v2/bus_share_taxi_pinlet", "name": "Cedros-PºDe Los Chopos", "photos": [{"height": 3840, "html_attributions": ["<a href=\"https://maps.google.com/maps/contrib/115604546253960523985\">Jorge Ramón García Contreras</a>"], "photo_reference": "AWn5SU7m9XGEOMm-tQMFRycHjni8XcwrBOCqgCMIRzzFFdptrp6dLUkI9hrm8iRZGhQjsXzwq9t6oNJpxyFkp2KooNWtxqKEVV1_lAcMqs5CZpBpx8952jsVnvGMvfLm8iTZsYJrZgWchpTiXJTso_ugG1bCu2JUn9Dz0pRlDOxhBWfPOkXhLRDTGtLrl1ffzcWZ7BgttWi_CYlql-WtDtEenS7wKJrj9j7kEhFgTovnAOeD-JdBmWuzTQlEHgFwBMAx0gi3EF4nklHsBl05V_T3R2LkF9JKWYMOYfPr13qsmcBNfTJGZKw18qG3nIoJYyOamzPmvC5-g-iLBvVkEu9ywkw_HkjXxJqZesqNOP-qQ0cYbRGnxwioh3a1VKX5bI8qGA-Ob9HiF7VwuyZfmNnYcfyRb1E8peOsVEk_hruMbXL9H6W9dTwPJn0pfw4oYdpfcJiOYCIYSvoDJEPh0A5hd8LZgKYNb-8Nf65Epq_f_UEFsYa-ckwATTIrBg4kWbH1FpWATUYQUyLlfmK36KYdn5mw99kSWloG2bXXGYalK948oTu9tT62_SwdeQ4TA8mz1Ai36QKi_5ybMptx_3DSNeHfGhv12hSQJ7YwuDvG9tv2kArEATFsx1w0Qk3ohLAJH4lYyKqQ", "width": 2160}], "place_id": "ChIJgdCpR0O8QQ0RrYkuIl1PXTo", "plus_code": {"compound_code": "8VWF+Q6 Villamantilla, Spain", "global_code": "8CGQ8VWF+Q6"}, "rating": 5, "reference": "ChIJgdCpR0O8QQ0RrYkuIl1PXTo", "scope": "GOOGLE", "types": ["bus_station", "transit_station", "point_of_interest", "establishment"], "user_ratings_total": 1, "vicinity": "Spain"}, {"business_status": "OPERATIONAL", "geometry": {"location": {"lat": 40.3459473, "lng": -4.1048975}, "viewport": {"northeast": {"lat": 40.3473117302915, "lng": -4.103552369708498}, "southwest": {"lat": 40.3446137697085, "lng": -4.106250330291503}}}, "icon": "https://maps.gstatic.com/mapfiles/place_api/icons/v1/png_71/generic_business-71.png", "icon_background_color": "#7B9EB0", "icon_mask_base_uri": "https://maps.gstatic.com/mapfiles/place_api/icons/v2/generic_pinlet", "name": "Ctra.M523-Julio Álvarez Álvarez", "place_id": "ChIJTwdwgrG9QQ0RcEsWfCGsf8k", "plus_code": {"compound_code": "8VWW+92 Villanueva de Perales, Spain", "global_code": "8CGQ8VWW+92"}, "reference": "ChIJTwdwgrG9QQ0RcEsWfCGsf8k", "scope": "GOOGLE", "types": ["transit_station", "point_of_interest", "establishment"], "vicinity": "Spain"}, {"business_status": "OPERATIONAL", "geometry": {"location": {"lat": 40.3460999, "lng": -4.1048765}, "viewport": {"northeast": {"lat": 40.3474555302915, "lng": -4.103540819708498}, "southwest": {"lat": 40.3447575697085, "lng": -4.106238780291503}}}, "icon": "https://maps.gstatic.com/mapfiles/place_api/icons/v1/png_71/generic_business-71.png", "icon_background_color": "#7B9EB0", "icon_mask_base_uri": "https://maps.gstatic.com/mapfiles/place_api/icons/v2/generic_pinlet", "name": "Ctra.M523 -Hnos.Lorenzo Losada", "place_id": "ChIJSdKog7G9QQ0RDhLS6C6o3yY", "plus_code": {"compound_code": "8VWW+C2 Villanueva de Perales, Spain", "global_code": "8CGQ8VWW+C2"}, "reference": "ChIJSdKog7G9QQ0RDhLS6C6o3yY", "scope": "GOOGLE", "types": ["transit_station", "point_of_interest", "establishment"], "vicinity": "Spain"}, {"business_status": "OPERATIONAL", "geometry": {"location": {"lat": 40.34703449999999, "lng": -4.101371299999999}, "viewport": {"northeast": {"lat": 40.3483655802915, "lng": -4.100010669708499}, "southwest": {"lat": 40.3456676197085, "lng": -4.102708630291502}}}, "icon": "https://maps.gstatic.com/mapfiles/place_api/icons/v1/png_71/bus-71.png", "icon_background_color": "#10BDFF", "icon_mask_base_uri": "https://maps.gstatic.com/mapfiles/place_api/icons/v2/bus_share_taxi_pinlet", "name": "Carretas-Parque", "place_id": "ChIJd7MxarC9QQ0REU0Ayte32Js", "plus_code": {"compound_code": "8VWX+RF Villanueva de Perales, Spain", "global_code": "8CGQ8VWX+RF"}, "reference": "ChIJd7MxarC9QQ0REU0Ayte32Js", "scope": "GOOGLE", "types": ["bus_station", "transit_station", "point_of_interest", "establishment"], "vicinity": "Spain"}, {"business_status": "OPERATIONAL", "geometry": {"location": {"lat": 40.34699249999999, "lng": -4.1012173}, "viewport": {"northeast": {"lat": 40.3483506802915, "lng": -4.099875219708498}, "southwest": {"lat": 40.3456527197085, "lng": -4.102573180291502}}}, "icon": "https://maps.gstatic.com/mapfiles/place_api/icons/v1/png_71/generic_business-71.png", "icon_background_color": "#7B9EB0", "icon_mask_base_uri": "https://maps.gstatic.com/mapfiles/place_api/icons/v2/generic_pinlet", "name": "Carretas-Ayuntamiento", "place_id": "ChIJaehXabC9QQ0Ruzs1mmctGsc", "plus_code": {"compound_code": "8VWX+QG Villanueva de Perales, Spain", "global_code": "8CGQ8VWX+QG"}, "rating": 3, "reference": "ChIJaehXabC9QQ0Ruzs1mmctGsc", "scope": "GOOGLE", "types": ["transit_station", "point_of_interest", "establishment"], "user_ratings_total": 2, "vicinity": "Spain"}, {"business_status": "OPERATIONAL", "geometry": {"location": {"lat": 40.3469009, "lng": -4.098613699999999}, "viewport": {"northeast": {"lat": 40.3482134802915, "lng": -4.097237419708497}, "southwest": {"lat": 40.3455155197085, "lng": -4.099935380291502}}}, "icon": "https://maps.gstatic.com/mapfiles/place_api/icons/v1/png_71/generic_business-71.png", "icon_background_color": "#7B9EB0", "icon_mask_base_uri": "https://maps.gstatic.com/mapfiles/place_api/icons/v2/generic_pinlet", "name": "Av.Rafaela De Arocena-PºEnrique Tierno Galván", "place_id": "ChIJWwR57rq9QQ0RxODaX9svPko", "plus_code": {"compound_code": "8WW2+QH Villanueva de Perales, Spain", "global_code": "8CGQ8WW2+QH"}, "reference": "ChIJWwR57rq9QQ0RxODaX9svPko", "scope": "GOOGLE", "types": ["transit_station", "point_of_interest", "establishment"], "vicinity": "Spain"}, {"business_status": "OPERATIONAL", "geometry": {"location": {"lat": 40.3468208, "lng": -4.0985537}, "viewport": {"northeast": {"lat": 40.3482007302915, "lng": -4.097227919708497}, "southwest": {"lat": 40.3455027697085, "lng": -4.099925880291501}}}, "icon": "https://maps.gstatic.com/mapfiles/place_api/icons/v1/png_71/generic_business-71.png", "icon_background_color": "#7B9EB0", "icon_mask_base_uri": "https://maps.gstatic.com/mapfiles/place_api/icons/v2/generic_pinlet", "name": "Av.Rafaela De Arocena-Ctra.M523", "place_id": "ChIJf64X7rq9QQ0R3vLNnzil-zg", "plus_code": {"compound_code": "8WW2+PH Villanueva de Perales, Spain", "global_code": "8CGQ8WW2+PH"}, "reference": "ChIJf64X7rq9QQ0R3vLNnzil-zg", "scope": "GOOGLE", "types": ["transit_station", "point_of_interest", "establishment"], "vicinity": "Spain"}, {"business_status": "OPERATIONAL", "geometry": {"location": {"lat": 40.3026733, "lng": -4.1433287}, "viewport": {"northeast": {"lat": 40.30398638029151, "lng": -4.142015019708497}, "southwest": {"lat": 40.30128841970851, "lng": -4.144712980291501}}}, "icon": "https://maps.gstatic.com/mapfiles/place_api/icons/v1/png_71/generic_business-71.png", "icon_background_color": "#7B9EB0", "icon_mask_base_uri": "https://maps.gstatic.com/mapfiles/place_api/icons/v2/generic_pinlet", "name": "Ctra.M507-Finca El Mirador", "place_id": "ChIJO4eJwbC-QQ0Rhgh-LYrnYPU", "plus_code": {"compound_code": "8V34+3M Urbanización la Malpuesta, Spain", "global_code": "8CGQ8V34+3M"}, "reference": "ChIJO4eJwbC-QQ0Rhgh-LYrnYPU", "scope": "GOOGLE", "types": ["transit_station", "point_of_interest", "establishment"], "vicinity": "Spain"}, {"business_status": "OPERATIONAL", "geometry": {"location": {"lat": 40.3022003, "lng": -4.1428618}, "viewport": {"northeast": {"lat": 40.30357693029149, "lng": -4.141484569708497}, "southwest": {"lat": 40.30087896970849, "lng": -4.144182530291502}}}, "icon": "https://maps.gstatic.com/mapfiles/place_api/icons/v1/png_71/generic_business-71.png", "icon_background_color": "#7B9EB0", "icon_mask_base_uri": "https://maps.gstatic.com/mapfiles/place_api/icons/v2/generic_pinlet", "name": "Ctra.M507-Finca El Mirador", "place_id": "ChIJUR4nxLC-QQ0RcH9wUgxIOB4", "plus_code": {"compound_code": "8V24+VV Urbanización la Malpuesta, Spain", "global_code": "8CGQ8V24+VV"}, "reference": "ChIJUR4nxLC-QQ0RcH9wUgxIOB4", "scope": "GOOGLE", "types": ["transit_station", "point_of_interest", "establishment"], "vicinity": "Spain"}, {"business_status": "OPERATIONAL", "geometry": {"location": {"lat": 40.3007011, "lng": -4.1359177}, "viewport": {"northeast": {"lat": 40.30195448029149, "lng": -4.134584619708498}, "southwest": {"lat": 40.2992565197085, "lng": -4.137282580291503}}}, "icon": "https://maps.gstatic.com/mapfiles/place_api/icons/v1/png_71/generic_business-71.png", "icon_background_color": "#7B9EB0", "icon_mask_base_uri": "https://maps.gstatic.com/mapfiles/place_api/icons/v2/generic_pinlet", "name": "Ctra.M507-Urb.Malpuesta", "photos": [{"height": 1860, "html_attributions": ["<a href=\"https://maps.google.com/maps/contrib/114974318053507810631\">Iosu Blanco</a>"], "photo_reference": "AWn5SU6ixXb_dWhgfWt0cpthpLEDmdjgMF1eX0YW6orTdHK3L5C11WyNqKA8M1EpLgTKvmcHNFD6zbspkHNP_jNxylhzVhRcEdvewxahLlMXdYntmOw0zCsm4Uu0bVUgllkgXG_csLEmYJ0NGRCB6xJihzVIwRJBC4M1P98NBFTQ0hMyyCPuUT8BVzuebhmvLbSQOBJ6G4ecQfWQtfhyNf1qRBA8aBjnt4eObmRu6GXsJgGzDwFTvT8dGCpcRCpMOdT7OQGJ6JbQv4P7F7nlySi6xOxIKcTJxn7QZ4GzlCgI1yidr-W9rdB7yKhI3QSlesBwIlukSC078CYa5XVl9HyLww8UqFvVaGhm2-p3udV7_Y3C7e_0ZQ8EdTLkpVWtrU6TBT4C31lpfeWIMcYnwOOSMaht2YtZmZ0ihSJRTbqs9uU2CMSBWtkocYGN-j1zbCeAilj6or6LZ0CmG1Icip08I5nbQfYrgquTZcRy90JHEqdWBHv4TDE0XYJ4-lYQk4VMaV2m0j2fiPlOVfBLC4S6UO0noFaoSahJJsFdzOxxhcsK2Z1du7cgKw6vIryAENRIqGj8gZpedh-7NkZDiBI3BiHt-C_ekKt7iIkxwkochvcKM8taue-OO9UX8MBc6dpM-wqHHA", "width": 4032}], "place_id": "ChIJHYfisr6-QQ0RZrVOJM9ZXPs", "plus_code": {"compound_code": "8V27+7J Urbanización la Malpuesta, Spain", "global_code": "8CGQ8V27+7J"}, "rating": 4.5, "reference": "ChIJHYfisr6-QQ0RZrVOJM9ZXPs", "scope": "GOOGLE", "types": ["transit_station", "point_of_interest", "establishment"], "user_ratings_total": 2, "vicinity": "Spain"}, {"business_status": "OPERATIONAL", "geometry": {"location": {"lat": 40.3004, "lng": -4.13575}, "viewport": {"northeast": {"lat": 40.30179358029149, "lng": -4.134393619708499}, "southwest": {"lat": 40.2990956197085, "lng": -4.137091580291503}}}, "icon": "https://maps.gstatic.com/mapfiles/place_api/icons/v1/png_71/generic_business-71.png", "icon_background_color": "#7B9EB0", "icon_mask_base_uri": "https://maps.gstatic.com/mapfiles/place_api/icons/v2/generic_pinlet", "name": "Ctra.M507-Urb.Malpuesta", "place_id": "ChIJ7U7XSrm-QQ0RY5VGROC3Akw", "plus_code": {"compound_code": "8V27+5M Urbanización la Malpuesta, Spain", "global_code": "8CGQ8V27+5M"}, "reference": "ChIJ7U7XSrm-QQ0RY5VGROC3Akw", "scope": "GOOGLE", "types": ["transit_station", "point_of_interest", "establishment"], "vicinity": "Spain"}, {"business_status": "OPERATIONAL", "geometry": {"location": {"lat": 40.29875, "lng": -4.117249999999999}, "viewport": {"northeast": {"lat": 40.3000656802915, "lng": -4.115920469708498}, "southwest": {"lat": 40.2973677197085, "lng": -4.118618430291503}}}, "icon": "https://maps.gstatic.com/mapfiles/place_api/icons/v1/png_71/generic_business-71.png", "icon_background_color": "#7B9EB0", "icon_mask_base_uri": "https://maps.gstatic.com/mapfiles/place_api/icons/v2/generic_pinlet", "name": "Ctra.M507-Ermita", "place_id": "ChIJ8yyQ7oy-QQ0RygnOknrNbB0", "plus_code": {"compound_code": "7VXM+F3 Villamanta, Spain", "global_code": "8CGQ7VXM+F3"}, "rating": 4, "reference": "ChIJ8yyQ7oy-QQ0RygnOknrNbB0", "scope": "GOOGLE", "types": ["transit_station", "point_of_interest", "establishment"], "user_ratings_total": 1, "vicinity": "Spain"}, {"business_status": "OPERATIONAL", "geometry": {"location": {"lat": 40.29857, "lng": -4.116709999999999}, "viewport": {"northeast": {"lat": 40.2999307802915, "lng": -4.115359219708497}, "southwest": {"lat": 40.2972328197085, "lng": -4.118057180291501}}}, "icon": "https://maps.gstatic.com/mapfiles/place_api/icons/v1/png_71/generic_business-71.png", "icon_background_color": "#7B9EB0", "icon_mask_base_uri": "https://maps.gstatic.com/mapfiles/place_api/icons/v2/generic_pinlet", "name": "Ctra.M507-Ermita", "photos": [{"height": 4000, "html_attributions": ["<a href=\"https://maps.google.com/maps/contrib/116415875452665153993\">Chistes El Juli</a>"], "photo_reference": "AWn5SU5JY14PZgNzaKOtheSgjxNNy8UA02hNFy4MHhpSgRjtD7O0swY1_nrFF_NmaCpj2kADI7V2jGpiLcTS93ML14SgnzH9woC-sDIDq9U7U_9ZE074bZbnL-p6KdbghcTHvST4G1Rn6q-8Xqudi6WMtOuEp4LwpG9EerB4JeguI0TEYqF7FmwjM6-dZsizyU7rA3VEedEw6A0qDomDcXh3fkSJn_hWXqObr5XyuvhCOPoCauw4AgOoDiHmaFJtTuW-5n1YOeb3kdSOjplFbz5oLRtTlatzh1z9Padi6rk6amqjCjEaOR0bi77MHUO5_vrPdc6DPDknAF47SFt_oeuA7mgBtXek5zxa_7KG4hnMLccadO4FNUyf7hnIXAUa3I5sBUAvIviyHQWhuaG-I_BBHWLbXk1N3G-rMTYsfeO9fKJKanzr5OGA6Uvc2q2JTGypwpORUS6Srzna9bKSuQw8Hb6IqPR9K17yC8-kessEY9pYiqJkQiCKcKz-s9Ex-krSgEyG_h4IITqDfAmshXvwRLDXWoVBLGftkogViLo13jODhRo2V-Sbh1HZidPVPXAVcdDbV2wIp3nV28-5eExVyy1d5B4n_FBglwYMc221gmLP8j_rcBRxShz24_Nhueg67Gi1VKOM", "width": 3000}], "place_id": "ChIJc7Y264y-QQ0R9DMSIYqIdyk", "plus_code": {"compound_code": "7VXM+C8 Villamanta, Spain", "global_code": "8CGQ7VXM+C8"}, "rating": 5, "reference": "ChIJc7Y264y-QQ0R9DMSIYqIdyk", "scope": "GOOGLE", "types": ["transit_station", "point_of_interest", "establishment"], "user_ratings_total": 1, "vicinity": "Spain"}, {"business_status": "OPERATIONAL", "geometry": {"location": {"lat": 40.29827, "lng": -4.10991}, "viewport": {"northeast": {"lat": 40.29957828029149, "lng": -4.108555269708497}, "southwest": {"lat": 40.29688031970849, "lng": -4.111253230291502}}}, "icon": "https://maps.gstatic.com/mapfiles/place_api/icons/v1/png_71/bus-71.png", "icon_background_color": "#10BDFF", "icon_mask_base_uri": "https://maps.gstatic.com/mapfiles/place_api/icons/v2/bus_share_taxi_pinlet", "name": "Av.Libertad-Dr.Carrasco Ortíz", "place_id": "ChIJ2dFQGWC-QQ0RfGj2hZ1WkrE", "plus_code": {"compound_code": "7VXR+82 Villamanta, Spain", "global_code": "8CGQ7VXR+82"}, "rating": 5, "reference": "ChIJ2dFQGWC-QQ0RfGj2hZ1WkrE", "scope": "GOOGLE", "types": ["bus_station", "transit_station", "point_of_interest", "establishment"], "user_ratings_total": 2, "vicinity": "Spain"}, {"business_status": "OPERATIONAL", "geometry": {"location": {"lat": 40.2981071, "lng": -4.110083099999999}, "viewport": {"northeast": {"lat": 40.2994896802915, "lng": -4.108737569708498}, "southwest": {"lat": 40.2967917197085, "lng": -4.111435530291502}}}, "icon": "https://maps.gstatic.com/mapfiles/place_api/icons/v1/png_71/generic_business-71.png", "icon_background_color": "#7B9EB0", "icon_mask_base_uri": "https://maps.gstatic.com/mapfiles/place_api/icons/v2/generic_pinlet", "name": "Av.Libertad-Villamanta Centro", "photos": [{"height": 4032, "html_attributions": ["<a href=\"https://maps.google.com/maps/contrib/110252054424244026193\">Jaime Hernández</a>"], "photo_reference": "AWn5SU7KvT2TtCkJbHTiXIbSI9q4SEnn9sOQ6t8k-Gz0NfiQkfiPhr8cbj-lQAGd4pIWH-9FWluqalMnrO6IZLNxY9UWqEbHJcJ2CoDcfxFLMcPlPGVqdrsESuB4uLsvWNmjAi7Ekk_D7BTkiwjmDH-rG7H1dVRWtMK98XRl7cmqkhMQ1iLKY-ZQO5PJ228m4D5jUxFsrav9Ytql7kbt7UktcKaN7UYBZChmovmeKE7HKOT7ErY02CtHWuQPgSiZtTrqffkBUI_mmIcoT5jpSrgBIz4ofT2aFntcUkzXbr7hPXeBF41a_wBiTEgRhoyVw5z1r7jirnFHmTaGkxsxfDKPrzAxEr5KnkO5k7Vvjbr-cDbPPiPuKMghf8qPUCXZTEkXMJUIXvWI74f_gZLHHmdEDkQKHDxM_8Qa-dRmrM-VuECj3KmMv5UX5yUHwRXelQjUPAdSxtcllsqnbX5HXE9PPRToV_R8PfAV6XKGQrAqaz9AYBye3xKzGmnQW907b5Dp4wixBv8iZnf_iHXPWzdZ3TVWSf9EvJrIRrjx2SI7k4cCtUFh76GJ1y-wWbA0DjSMGglU4brQIvWD318O-xaX7Wd6FyzFpPLvEKB7TkmQDWi25IME0En8Lfyv6nBHoMAKZnBdjbxO", "width": 3024}], "place_id": "ChIJnX2SHGC-QQ0RFnV0ucQb4sM", "plus_code": {"compound_code": "7VXQ+6X Villamanta, Spain", "global_code": "8CGQ7VXQ+6X"}, "rating": 5, "reference": "ChIJnX2SHGC-QQ0RFnV0ucQb4sM", "scope": "GOOGLE", "types": ["transit_station", "point_of_interest", "establishment"], "user_ratings_total": 1, "vicinity": "Spain"}, {"business_status": "OPERATIONAL", "geometry": {"location": {"lat": 40.30026000000001, "lng": -4.096620000000001}, "viewport": {"northeast": {"lat": 40.30162133029149, "lng": -4.095269419708497}, "southwest": {"lat": 40.29892336970849, "lng": -4.097967380291502}}}, "icon": "https://maps.gstatic.com/mapfiles/place_api/icons/v1/png_71/generic_business-71.png", "icon_background_color": "#7B9EB0", "icon_mask_base_uri": "https://maps.gstatic.com/mapfiles/place_api/icons/v2/generic_pinlet", "name": "Urb.Jirfa-Ctra.M507", "place_id": "ChIJZfqVoGm-QQ0RNo60A-5D_Ug", "plus_code": {"compound_code": "8W23+49 Jirfa, Spain", "global_code": "8CGQ8W23+49"}, "reference": "ChIJZfqVoGm-QQ0RNo60A-5D_Ug", "scope": "GOOGLE", "types": ["transit_station", "point_of_interest", "establishment"], "vicinity": "Spain"}]