[{"geometry": {"location": {"lat": 40.7608617, "lng": -3.4656137}, "viewport": {"northeast": {"lat": 40.76273249416787, "lng": -3.460313637924665}, "southwest": {"lat": 40.75776491292859, "lng": -3.470353251417645}}}, "icon": "https://maps.gstatic.com/mapfiles/place_api/icons/v1/png_71/geocode-71.png", "icon_background_color": "#7B9EB0", "icon_mask_base_uri": "https://maps.gstatic.com/mapfiles/place_api/icons/v2/generic_pinlet", "name": "Valdepiélagos", "photos": [{"height": 1335, "html_attributions": ["<a href=\"https://maps.google.com/maps/contrib/103644858766260406648\">Un opinante delirante</a>"], "photo_reference": "AWn5SU6dI1HGoo9sDh9EaLVKDAO6yFz2CNj3DexhOo2W5eFqucAFCDmmwN6_lyZFYftmCaoSAxEyuQAWSOSQrVUXX0Z3W1XlMCFnDPyKRQHvh8mUwyxQpinCLg4mEetSy0SZtQOUTVpnkvcSpR5yLGHqubRE_TovnlIsNkZqI1-V993sS-PA9BiWqBybtAmQYX9DSlLCXNl4O8F4WCPMM14UV62-XuWXSWPtdEhmJI-mer7SlSn3IYmJJt1gpM4cjD25soexJWTGYkDfuhAu6s7fOgi6q07MkNC2e7c8jfqNKU0_tRelIcW2MaNCRlIbLrVdC3LkOVBghppUe7mcmotCcVGjwwm0IL1Y2L6hBHnmDmUZOmxQaLvm4if6NcQ1BSFl0OAAt8hP19CM0NyTuYBjNN-3VsSaDG8nZGSukwZ-dw4pSdWOXL8t4hdMEqwSBlTnYZWZ8pswsN-COfrtaQZcPnIEeI5YneKhBKdXCW3SWrvvpOYJpLy6IxB7aIcJVgsiNsqUEEU87aTmE4ylUQTiIoMfHbgJqyacq_c-xWzPCNGqlG0TeXcQnG0YrxUZ46t_EzKtxZr46a0WmA8BasWi54Sil8MqjszFjeODLEn3jm8GcDvRQQrQE95bHquBI_PYcNbJ-Q", "width": 2726}], "place_id": "ChIJpW8JsjbGQw0R-0-C1ubXWQ4", "reference": "ChIJpW8JsjbGQw0R-0-C1ubXWQ4", "scope": "GOOGLE", "types": ["locality", "political"], "vicinity": "Valdepiélagos"}, {"business_status": "OPERATIONAL", "geometry": {"location": {"lat": 40.75990959999999, "lng": -3.4646527}, "viewport": {"northeast": {"lat": 40.7612684302915, "lng": -3.463299619708498}, "southwest": {"lat": 40.7585704697085, "lng": -3.465997580291502}}}, "icon": "https://maps.gstatic.com/mapfiles/place_api/icons/v1/png_71/lodging-71.png", "icon_background_color": "#909CE1", "icon_mask_base_uri": "https://maps.gstatic.com/mapfiles/place_api/icons/v2/hotel_pinlet", "international_phone_number": "+34 618 64 10 91", "name": "Casa rural San Isidro", "photos": [{"height": 3456, "html_attributions": ["<a href=\"https://maps.google.com/maps/contrib/116056008464807918785\">Javier de la Fuente Jiménez</a>"], "photo_reference": "AWn5SU4JYIecOO0wf0Bm3SlkmmMBEKa2OgyLqJSvi31mNJ_0pwW2UIRFvMW-fqS8hfuzenDiigeus1_djIMCqkP9ALF8kYA23B8QbjoOG3_-dDbAIF_DXH9leKbxmDrqzMucZPISCmMHINRqJVwbQ1sowNA8omsWTAoHwStV_epued9H5z3nmGggFH-F0vfIxXrDs7e5BCqh9AZ_SPzCNePon5k-IT9SslvSb3RJrqvFukI1U-14lsqY3e7yHPPEBVZa7tKd6Va15YvwzHcJKV216Qf1dT6pTkVHHhO5ZiFmS-z0UZ_abBh0_zP9UY1M7l-7-DIE4ne0swzk-CjybEIjDQ0DaSVZbNKD_3tRwRA5zqty52kGXsjssxZNpfx_714UFXXIIQpqm9NDur5146e4L1LMNYxjSUkT5eqSXq94fsb7foqE5z3dWbntytiNWVk5BaEryla_kW6aMgcWK25YgMz_40OrFtHCjdIgSKAH34TwRBNkYrP_0TUtIWxe5lDmcGEIJI2vt4n355HK5FzHH1uN14YU7c9jkuU1tkyu_YkL0bbWoFMi5o2bJyVN8Hy_dOBdmA-fzcu1iqQiDqGsIgb5B-V2uBHdAvGOnE8q_R7U8ObC3LnqozFme6VzwCn6_to_tQ", "width": 4608}], "place_id": "ChIJda3--zPGQw0RyIpEs7PowkY", "plus_code": {"compound_code": "QG5P+X4 Valdepiélagos, Spain", "global_code": "8CGRQG5P+X4"}, "rating": 4.7, "reference": "ChIJda3--zPGQw0RyIpEs7PowkY", "scope": "GOOGLE", "types": ["lodging", "point_of_interest", "establishment"], "user_ratings_total": 40, "vicinity": "Calle Mesones, 18, Valdepiélagos"}, {"business_status": "OPERATIONAL", "geometry": {"location": {"lat": 40.76063540000001, "lng": -3.4659096}, "viewport": {"northeast": {"lat": 40.7618894302915, "lng": -3.464591719708498}, "southwest": {"lat": 40.7591914697085, "lng": -3.467289680291502}}}, "icon": "https://maps.gstatic.com/mapfiles/place_api/icons/v1/png_71/civic_building-71.png", "icon_background_color": "#7B9EB0", "icon_mask_base_uri": "https://maps.gstatic.com/mapfiles/place_api/icons/v2/civic-bldg_pinlet", "international_phone_number": "+34 918 41 60 48", "name": "Valdepiélagos Town Hall", "opening_hours": {"open_now": false}, "photos": [{"height": 2250, "html_attributions": ["<a href=\"https://maps.google.com/maps/contrib/106627645666879690321\">comdef 06</a>"], "photo_reference": "AWn5SU4yx3lMd5LkjkfFcIDbtC1O8ACRW0wDKAxrRPps99liZ_qWdQDE7fVWwq75xIbojNDNrMotNiSbxWQMrNBDLpGxA21G9YAYF9jNeOwsHYxrtzp8yS6L0lucZk03L5OGh7_qNs1BtopX9arLQQRiogLmgtzlLv4p1rRJ0Q-nsJvGcxu6UKMdJyxZFlE8PqGuSYpV_h6HDDiDCo4mY_tZ3NNcHT_l1U77EwUvoz8hirbQoaka9uCs90Fp7BWWLfHs-EJU5bil5LT2PvlSuQZXYnKC09NaKlKZVMeF7VbuNvxEk0iZVboxh1QB5N7JFXRJAuhSjeUYPZb_d1ysmXKSFsNeOjeEP6ocdu2NJx-16TpQwqZqhk22GYotModpPJxNvvD_Ecol7nJ-EfsQWc8y5Lr_QRr_4upPa0eP3Pp9Hz1xcEjJE-1wPh8ZTZDE4bDBoST5tXDGOucVw8tc5HFx84fnpHZLAROJZmuaF42-KnZLm2tSCyRbyLEf9TjLMvl_4jm2lQenR_FNZ7WNOc7g7p03v7RyYzV22WLRF3ELnJgAZKJp5QW_AfpEFNub-Oy3Y2pJzkXPOmswTAR9Nz4bgDwNNFSawLKEJCHM74S6ms_rFHkcAgqebRsa0gn-VKNe2hpUWg", "width": 4000}], "place_id": "ChIJBZtyBDTGQw0RZcpR69pn0pw", "plus_code": {"compound_code": "QG6M+7J Valdepiélagos, Spain", "global_code": "8CGRQG6M+7J"}, "rating": 4.5, "reference": "ChIJBZtyBDTGQw0RZcpR69pn0pw", "scope": "GOOGLE", "types": ["city_hall", "local_government_office", "point_of_interest", "establishment"], "user_ratings_total": 54, "vicinity": "Plaza Mayor, 1, Valdepiélagos"}, {"business_status": "OPERATIONAL", "geometry": {"location": {"lat": 40.7525808, "lng": -3.4888139}, "viewport": {"northeast": {"lat": 40.75387233029149, "lng": -3.487413569708498}, "southwest": {"lat": 40.7511743697085, "lng": -3.490111530291502}}}, "icon": "https://maps.gstatic.com/mapfiles/place_api/icons/v1/png_71/generic_business-71.png", "icon_background_color": "#7B9EB0", "icon_mask_base_uri": "https://maps.gstatic.com/mapfiles/place_api/icons/v2/generic_pinlet", "international_phone_number": "+34 622 19 36 29", "name": "SK Flamenco", "place_id": "ChIJc2mA6BrGQw0RDtCWg16GhN4", "plus_code": {"compound_code": "QG36+2F Talamanca de Jarama, Spain", "global_code": "8CGRQG36+2F"}, "rating": 4.7, "reference": "ChIJc2mA6BrGQw0RDtCWg16GhN4", "scope": "GOOGLE", "types": ["point_of_interest", "establishment"], "user_ratings_total": 3, "vicinity": "km 2,2 Carretera M 120, Talamanca de Jarama"}, {"business_status": "OPERATIONAL", "geometry": {"location": {"lat": 40.7606875, "lng": -3.4657478}, "viewport": {"northeast": {"lat": 40.7620562302915, "lng": -3.464407569708498}, "southwest": {"lat": 40.7593582697085, "lng": -3.467105530291502}}}, "icon": "https://maps.gstatic.com/mapfiles/place_api/icons/v1/png_71/shopping-71.png", "icon_background_color": "#4B96F3", "icon_mask_base_uri": "https://maps.gstatic.com/mapfiles/place_api/icons/v2/shoppingcart_pinlet", "international_phone_number": "+34 918 41 60 31", "name": "Supermercado Araceli", "opening_hours": {"open_now": false}, "place_id": "ChIJDzYHsTbGQw0RoONJVrR4ZJk", "plus_code": {"compound_code": "QG6M+7P Valdepiélagos, Spain", "global_code": "8CGRQG6M+7P"}, "rating": 4.8, "reference": "ChIJDzYHsTbGQw0RoONJVrR4ZJk", "scope": "GOOGLE", "types": ["grocery_or_supermarket", "store", "food", "point_of_interest", "establishment"], "user_ratings_total": 36, "vicinity": "Calle del Cubillo, 1, Valdepiélagos"}, {"business_status": "OPERATIONAL", "geometry": {"location": {"lat": 40.76063540000001, "lng": -3.4659096}, "viewport": {"northeast": {"lat": 40.7618894302915, "lng": -3.464591719708498}, "southwest": {"lat": 40.7591914697085, "lng": -3.467289680291502}}}, "icon": "https://maps.gstatic.com/mapfiles/place_api/icons/v1/png_71/park-71.png", "icon_background_color": "#4DB546", "icon_mask_base_uri": "https://maps.gstatic.com/mapfiles/place_api/icons/v2/tree_pinlet", "international_phone_number": "+34 918 41 60 48", "name": "Finca agroecológica demostrativa \"La granja de Alejandro\"", "opening_hours": {"open_now": false}, "photos": [{"height": 2268, "html_attributions": ["<a href=\"https://maps.google.com/maps/contrib/110646163461789112910\">Marcos Martínez</a>"], "photo_reference": "AWn5SU5g0BfewWwGscFX2mDp96nK-FxLfxm9rjhT6IPDAzo2ZWBxdK338w8zyRerw0-FZa-MYwckoKQJn-b7NCqH8_V7H1ofEDyYideV-RgzsblRIG3hzg5zc2hngJFntv5yQ_3-in6nxn1kib-4xm36Ry62InZiDwDDFeg1kfID5BCUrfcfRCTSvfnz1RSGB47SWdgIX9kvpEIpk620jwgKYxDWHRtQeG6FXGq7VTEoLqKvU98nK0dCAGqxoTTIBBXX4ITJ1GMvNHl2pdVpIQaT7XWfEgxhnyyzmF3aS2_p500x6-_To-woFzluZBeWwT14LBozIKjnMbSscrA1Xyx5Js-Xcv7cmaEWE_En-pRY5_1LT91jxbN7z9jIyrA0UW12mCYAZ0pVaHewaK0fGjRvfcYtKojS3gt2YNDhJnrMPD64raERBMCN99IkwYCB3-sOn4PSs6KYhpXrfpoJzlvmAke5DecisICJ_RhR6yU8QZIL5kpv-redkd6FJ2QBoGhcvWO3OpiOpHTc-xKb5grRvPvcbwdj9BwMk90lPt5U7Q0OAaCxnpDxMET73GKXsYzLMMZMRSd2hqvkrxeivsCjhZxJqRhtgQ1XBid15Ev7ZVpKW7tCxLK3dAaRAFAOeQgl", "width": 4032}], "place_id": "ChIJ6TswT9_JQw0RwMWR_M1B4X4", "plus_code": {"compound_code": "QG6M+7J Valdepiélagos, Spain", "global_code": "8CGRQG6M+7J"}, "rating": 5, "reference": "ChIJ6TswT9_JQw0RwMWR_M1B4X4", "scope": "GOOGLE", "types": ["park", "point_of_interest", "establishment"], "user_ratings_total": 1, "vicinity": "Plaza Mayor, 1, Valdepiélagos"}, {"business_status": "OPERATIONAL", "geometry": {"location": {"lat": 40.7604914, "lng": -3.4659701}, "viewport": {"northeast": {"lat": 40.7618273302915, "lng": -3.464625419708498}, "southwest": {"lat": 40.7591293697085, "lng": -3.467323380291502}}}, "icon": "https://maps.gstatic.com/mapfiles/place_api/icons/v1/png_71/generic_business-71.png", "icon_background_color": "#7B9EB0", "icon_mask_base_uri": "https://maps.gstatic.com/mapfiles/place_api/icons/v2/generic_pinlet", "name": "Valdepielagos", "photos": [{"height": 3096, "html_attributions": ["<a href=\"https://maps.google.com/maps/contrib/103644858766260406648\">Un opinante delirante</a>"], "photo_reference": "AWn5SU4o6jw_-llelsuZ6jzLWjmb5hybdN3s7o5VqQzB_n_og6VnOsqfeax0q9rR2iOQASmeF3BKMzMvE06Kmb722CEkCWFAlRBoCiXC-DYXaGque6Wcv8lrUmSd8uSLdB6p41KlRGAPaplXAReOAKyNUy7QZ9dzWMJ3YY_55GvwxvDvkv_gJyYLbWljUzBwAXFYGLGImx0J_eTfztBZZAHt8Nk7bd1QdwHU9Erdm08MbJ62DANiPYXcIHeMEy5NC2OWMkIVOXcpPDs879kfmsAb0bUBsBhP-WJHExDDNDm3Q0tS_GoMa5kCLqRD1mPuZ__RKiTiuXN8ihpFnpvVbNfYbKHaEUtinTHw1fR5UoqbaB6059iYQEIPzrMvRSgwYm0A9nL7ZO9_cw0Xu1kLvU8etAsoOM96MoXA-i9bO8Ku3Nl6TaYhKkUFovoM5OKPGGKDp6rY17PYk3phgyjRw7QlI4MwN3FMyx2RpCDnU3gRW3C1QU_2OfOt9aEIMnLySI3FoKsoYrtkCdzQFuU_dlT0JaENNoeLP-EM5bdesmbFjWTI6wWE6A3oBwHMu4kzikBpBds13fQut4XHneXUdB35ZNpWfNp0onrLA2TjkomBGuXCuIOTw6FqPBqUBxNlzwHfIv9f9w", "width": 4128}], "place_id": "ChIJURkQtDbGQw0RyNGQ2vf6uuI", "plus_code": {"compound_code": "QG6M+5J Valdepiélagos, Spain", "global_code": "8CGRQG6M+5J"}, "rating": 4, "reference": "ChIJURkQtDbGQw0RyNGQ2vf6uuI", "scope": "GOOGLE", "types": ["transit_station", "point_of_interest", "establishment"], "user_ratings_total": 2, "vicinity": "Spain"}, {"business_status": "OPERATIONAL", "geometry": {"location": {"lat": 40.7607027, "lng": -3.4657445}, "viewport": {"northeast": {"lat": 40.7620585302915, "lng": -3.464398569708498}, "southwest": {"lat": 40.7593605697085, "lng": -3.467096530291502}}}, "icon": "https://maps.gstatic.com/mapfiles/place_api/icons/v1/png_71/generic_business-71.png", "icon_background_color": "#7B9EB0", "icon_mask_base_uri": "https://maps.gstatic.com/mapfiles/place_api/icons/v2/generic_pinlet", "international_phone_number": "+34 918 41 61 85", "name": "Peluqueria Beatriz Bodas", "opening_hours": {"open_now": false}, "photos": [{"height": 1080, "html_attributions": ["<a href=\"https://maps.google.com/maps/contrib/110712085299692275690\">Nuria Garcia Mora</a>"], "photo_reference": "AWn5SU4vw4WObrwjB5PoRrpJ1goSCkqZt39N0tTi5h71n-CzMkxKZpk2WUR1WFEeQfmBJtpYkwlB3ucwnIkFjqDKidgM6a0JxMDDTdjczQONqtUDey3K0fiS0lknirO1Fe2GaGYT2kNS2bBd7yKAOfOFS7u3cvZ19Ie2UcD2ysVXELhrD5BY0FQXIRMJBnm_Wz63aWJQNBSF5Ch4salT739LWG0TjL-cUZ7t11Oh3C_PrBG236bb5bM5XfvBlh9UaSRhxzkU6AgkLUXvleyAfc_5RbkmIATjJWSm9kjKqbzdytN2XwzXeqoLS4ilSO95N-S56qGfYcapMBVgB3z0Q6RRG5qLCJ1xyX1M6bV_7J_DUQzys71PN3vjcjZGuxdxP6E8XG2eyr0ZxRckhWSEGVmxlr4aDhAqoOYTNdOiFAD9bL_HUIJOPAValrEqcHI74lfhw-8l6YRIsvIfDF_kUBqMT6jiCzb7XqBKYOptGhyzXlwInLZTx_c-Z7pE0qOBJGkYMSvGwA1NdUZObwTYoHItph1cyTyKR6QMqo8uwZbxwjYwOFN5TRRUrTeBfmkZArgYtbfr6LUxo361PSWvNxP2ubOBGjDQ22hS1j2TwtXjiqVk1dmAfislpd7ZknMmMlYD", "width": 1920}], "place_id": "ChIJ1zpTsDbGQw0RKTWO3Aptf7k", "plus_code": {"compound_code": "QG6M+7P Valdepiélagos, Spain", "global_code": "8CGRQG6M+7P"}, "rating": 4.7, "reference": "ChIJ1zpTsDbGQw0RKTWO3Aptf7k", "scope": "GOOGLE", "types": ["hair_care", "point_of_interest", "establishment"], "user_ratings_total": 50, "vicinity": "Calle del Cubillo, 1, Valdepiélagos"}, {"business_status": "OPERATIONAL", "geometry": {"location": {"lat": 40.7604972, "lng": -3.466084099999999}, "viewport": {"northeast": {"lat": 40.7618451302915, "lng": -3.464735169708498}, "southwest": {"lat": 40.75914716970851, "lng": -3.467433130291502}}}, "icon": "https://maps.gstatic.com/mapfiles/place_api/icons/v1/png_71/generic_business-71.png", "icon_background_color": "#7B9EB0", "icon_mask_base_uri": "https://maps.gstatic.com/mapfiles/place_api/icons/v2/generic_pinlet", "name": "Valdepielagos - Ayuntamiento", "place_id": "ChIJXzgttDbGQw0RIGXab7Z7aQ4", "plus_code": {"compound_code": "QG6M+5H Valdepiélagos, Spain", "global_code": "8CGRQG6M+5H"}, "reference": "ChIJXzgttDbGQw0RIGXab7Z7aQ4", "scope": "GOOGLE", "types": ["transit_station", "point_of_interest", "establishment"], "vicinity": "Spain"}, {"business_status": "OPERATIONAL", "geometry": {"location": {"lat": 40.7609607, "lng": -3.4653917}, "viewport": {"northeast": {"lat": 40.7622818802915, "lng": -3.463986619708498}, "southwest": {"lat": 40.7595839197085, "lng": -3.466684580291502}}}, "icon": "https://maps.gstatic.com/mapfiles/place_api/icons/v1/png_71/restaurant-71.png", "icon_background_color": "#FF9E67", "icon_mask_base_uri": "https://maps.gstatic.com/mapfiles/place_api/icons/v2/restaurant_pinlet", "international_phone_number": "+34 622 76 39 74", "name": "El Rincón de las Tapas", "opening_hours": {"open_now": false}, "photos": [{"height": 3096, "html_attributions": ["<a href=\"https://maps.google.com/maps/contrib/103644858766260406648\">Un opinante delirante</a>"], "photo_reference": "AWn5SU6svQ0MKf7gjOIx-09UvJKnpRRt3JXdU2-K4W7WlqTf3BuqAFHe8hYq_8UYniI8JqglslE4w_RStuF0VYeXCWORk5y9dZ2k_SvgyNs6tNG1XWHYcDT67fcKK6q8SdtTzdMvRI_RyF7NpbvrcV83rtzHZVNgR-v05WAahSOWdGIqR5PLbMdGpy8wHlbbQTpqkIpmF8CtKT5Sb1T0UNvDGMEP8mvtKQHxn13x0g_KywBBbQq8-DHl-1YltZ6eBw1Yug-nco0hMzlE7P-EJvbkVRWlfJAGe6LctuQSFoAsdiPWHPYabNZnYIDc0eywYb_VH9VNPCi_W5e5FVPgps02L2exuOAemKClBmohITOUe0ZBlkiAC6-WtXsB9ZkhJLZBEKpaL7sJXSuGT03P8QBCUqJiLMKkjSuXgdOXy32lmmRnhb3hy3X44WB3vL7U33aBeep5urrTIw23LxAl0CWFaOoEQprfAgSSp65guTzxqYpQNg0GE6_GhDnr5V-v9iv5caKDqT9u1_aCy4vyOw6SWYvlEEP87cEDzCZ0BDvzE7kRuBKTStpne_xLvK-XVTGYxaydAwJuy-Ga9Ao-2_6YS06Lv3YcB00YKGGR2WdFIHp-giqzdJR0NHYm8e2QQq4tmNqfOA", "width": 4128}], "place_id": "ChIJV8LqMDrHQw0RINqy6c8_kVc", "plus_code": {"compound_code": "QG6M+9R Valdepiélagos, Spain", "global_code": "8CGRQG6M+9R"}, "price_level": 1, "rating": 4.2, "reference": "ChIJV8LqMDrHQw0RINqy6c8_kVc", "scope": "GOOGLE", "types": ["restaurant", "food", "point_of_interest", "establishment"], "user_ratings_total": 81, "vicinity": "Calle del Cubillo, 11, Valdepiélagos"}, {"business_status": "OPERATIONAL", "geometry": {"location": {"lat": 40.7602368, "lng": -3.466679}, "viewport": {"northeast": {"lat": 40.7616660302915, "lng": -3.465370269708498}, "southwest": {"lat": 40.7589680697085, "lng": -3.468068230291502}}}, "icon": "https://maps.gstatic.com/mapfiles/place_api/icons/v1/png_71/generic_business-71.png", "icon_background_color": "#7B9EB0", "icon_mask_base_uri": "https://maps.gstatic.com/mapfiles/place_api/icons/v2/generic_pinlet", "name": "Centro Cultural José María Herradas", "place_id": "ChIJG5lSJsDHQw0RMOtV_LE23bI", "plus_code": {"compound_code": "QG6M+38 Valdepiélagos, Spain", "global_code": "8CGRQG6M+38"}, "reference": "ChIJG5lSJsDHQw0RMOtV_LE23bI", "scope": "GOOGLE", "types": ["point_of_interest", "establishment"], "vicinity": "Calle Mayor, 5, Valdepiélagos"}, {"business_status": "OPERATIONAL", "geometry": {"location": {"lat": 40.7602838, "lng": -3.4667256}, "viewport": {"northeast": {"lat": 40.7616866302915, "lng": -3.465403619708498}, "southwest": {"lat": 40.7589886697085, "lng": -3.468101580291501}}}, "icon": "https://maps.gstatic.com/mapfiles/place_api/icons/v1/png_71/generic_business-71.png", "icon_background_color": "#7B9EB0", "icon_mask_base_uri": "https://maps.gstatic.com/mapfiles/place_api/icons/v2/generic_pinlet", "name": "APAVAL", "photos": [{"height": 2160, "html_attributions": ["<a href=\"https://maps.google.com/maps/contrib/114770271522937139756\">APAVAL</a>"], "photo_reference": "AWn5SU5tiaI0C9PQgJ6hvpKc1DjD_HANzqALXi-MovwNHDn20fATwcAplTpS8LK74nN2dv0JsSjVlVq03aGJtiGQMNfEvPX_QZVh6Esup9v2t-ZsYLbyglqlW9L51supE2jiOeYDd4npm2X66u8wEyVmvaxWv8WWMWGyu_aHv_0mjInqLZh4Y74QU50WYCubv0UpA89C2IleuJa2wwraAMjJxflgZ8-bWc6r464QPhSDSe4h2FeJU4Yiih-CqtMw2SxqtpWpNr3hYuoc0WtO_WLukUPNlJNG3MN03KEBnFjex2t5xuB0WSLhm7Y5iQWPQDiLyvLkIoLvYgQ", "width": 3840}], "place_id": "ChIJUfPQ9kLHQw0RnejXR2qLRdo", "plus_code": {"compound_code": "QG6M+48 Valdepiélagos, Spain", "global_code": "8CGRQG6M+48"}, "reference": "ChIJUfPQ9kLHQw0RnejXR2qLRdo", "scope": "GOOGLE", "types": ["point_of_interest", "establishment"], "vicinity": "Calle Mayor, 5, Valdepiélagos"}, {"business_status": "OPERATIONAL", "geometry": {"location": {"lat": 40.7601616, "lng": -3.4651928}, "viewport": {"northeast": {"lat": 40.7615313802915, "lng": -3.463877169708498}, "southwest": {"lat": 40.7588334197085, "lng": -3.466575130291502}}}, "icon": "https://maps.gstatic.com/mapfiles/place_api/icons/v1/png_71/shopping-71.png", "icon_background_color": "#4B96F3", "icon_mask_base_uri": "https://maps.gstatic.com/mapfiles/place_api/icons/v2/shopping_pinlet", "international_phone_number": "+34 918 41 61 99", "name": "Carnicería Y Autoservicio Pascual", "opening_hours": {"open_now": false}, "photos": [{"height": 3096, "html_attributions": ["<a href=\"https://maps.google.com/maps/contrib/103644858766260406648\">Un opinante delirante</a>"], "photo_reference": "AWn5SU6HyZj7DcukB8JtvJTxO4iZEc6lzwNbxDAt1w42eDyzfQudicn0MvZ6D36qiZ7w7hUs-rZJPf38IIgTqnwqr5ObumVVpBrxxz9t7dlDcsmGPpb5S8a-iZsEVeKqc0vstC_gavdYDsrGcjeP0GoHi_U8TOeLAyY1tweRjgpH6JALXxxjnnBQfUmm57rUUm0lS905J1dns_2302RzPnRkrEaaCBOygm3VF1-LOlD_Sj82gKLOz9orerLiu8ohpQWxJA-3LLidumi7eBE5UnrRnFLFMwi_vF__6XTG77zXxomyQ2WzXq3iGoKlWrc0c_DwoHXKzyFGdbGCTPMEr7-cNTYHTyTlNzSMy566SfjVh9Jwv1-wBE4gtZcGHMqCsGyUbZzvhQ3kuv9FKzj4aMsp2B6FSa7G35Gmc00ocDkHusfyTgkfCA8GUbeKMvVc3Mf2b7ch3l11iGR5ciHwa5PjvzgWAVqWVX9LWmiRweN79nTUzTVdfU-fkoFqppT7h9M0DQjt-sxqehGIES-0R3vigvaO9PMazBePNbIwoWC6MP2ovenwm-3iMXP6mqXmWwji_BKVIpmJ-1Plihbz12MeDmKYo1zU_CxToVzrMXbcZboauAVOEwn-fVfTtVQAbN2EKYS2yg", "width": 4128}], "place_id": "ChIJ66ZwVTHGQw0RZUZb4vGllWM", "plus_code": {"compound_code": "QG6M+3W Valdepiélagos, Spain", "global_code": "8CGRQG6M+3W"}, "rating": 4.7, "reference": "ChIJ66ZwVTHGQw0RZUZb4vGllWM", "scope": "GOOGLE", "types": ["store", "food", "point_of_interest", "establishment"], "user_ratings_total": 138, "vicinity": "Calle Mesones, 9, Valdepiélagos"}, {"business_status": "OPERATIONAL", "geometry": {"location": {"lat": 40.7601925, "lng": -3.465155299999999}, "viewport": {"northeast": {"lat": 40.76154068029149, "lng": -3.463923169708498}, "southwest": {"lat": 40.75884271970849, "lng": -3.466621130291502}}}, "icon": "https://maps.gstatic.com/mapfiles/place_api/icons/v1/png_71/shopping-71.png", "icon_background_color": "#4B96F3", "icon_mask_base_uri": "https://maps.gstatic.com/mapfiles/place_api/icons/v2/shopping_pinlet", "name": "Carnicería Charcutería", "photos": [{"height": 3096, "html_attributions": ["<a href=\"https://maps.google.com/maps/contrib/103644858766260406648\">Un opinante delirante</a>"], "photo_reference": "AWn5SU5JwXOea4vYeakWUwOBnxxK7-kfJmIWpNllNCPEybJtOPWi6P0H2I7GgrI-Lu5YeiRLjNSVsjf9KveUpSBSW4_oZ9PF5Yf6nC7xNDu4n6OWnhKyEUtQ7tKf72lKSPgTDRonDBx0SW2JjiwSFXP69sGBxSLQ9yg4EdFBLCbQaHkkqFINkQy_uog5DXLUscGVupDWtequYwod2wNNbem20AKmkLXmBsBqltxKGlZlf6UZ0eFaKxkVepN0nB9x4BejDVNhpVrLKT8vGRfhkxDszlV_BrJZZi5mn0-UDGx9YiwaI4XQfbn7CAnkVsWopfuEjcnMQW42tMOAE0Xj2HZLnC_b_pr7G1YOOa5JeZNwG6eWbAyNooGyYqUPKXAfKcjn3AaB1d7CX6A13vIGYuwvcUAvFq3FmxDFOHi6gv9z0wPXXxRKkMgOdZP6U4MM4SPikCT5-of_DLFSLN_7qDgSvAoIFbDR-TQo7DtuL0KtIPpQglVvKQK3zdhn71u39BDR_xCAoeUWg0fU6vlAMqez4-yVf9ktzoU3D6MbF0UE4Y4uV49Fdhh0MidWQpNZ8LLX6zYWv5iOvDtIpQqXSZmlqJHCPctE20mFurbY8m9_ldy2Q021YmrgjgBqfm2kQMGc0Z3MMTB3", "width": 4128}], "place_id": "ChIJc4DbVDHGQw0RuziuOQNxm5Q", "plus_code": {"compound_code": "QG6M+3W Valdepiélagos, Spain", "global_code": "8CGRQG6M+3W"}, "rating": 5, "reference": "ChIJc4DbVDHGQw0RuziuOQNxm5Q", "scope": "GOOGLE", "types": ["store", "food", "point_of_interest", "establishment"], "user_ratings_total": 2, "vicinity": "Calle Mesones, 9, Valdepiélagos"}, {"business_status": "OPERATIONAL", "geometry": {"location": {"lat": 40.76045179999999, "lng": -3.4668376}, "viewport": {"northeast": {"lat": 40.7617671302915, "lng": -3.465471769708499}, "southwest": {"lat": 40.7590691697085, "lng": -3.468169730291502}}}, "icon": "https://maps.gstatic.com/mapfiles/place_api/icons/v1/png_71/worship_general-71.png", "icon_background_color": "#7B9EB0", "icon_mask_base_uri": "https://maps.gstatic.com/mapfiles/place_api/icons/v2/worship_christian_pinlet", "name": "Iglesia de Nuestra Señora de la Asunción", "photos": [{"height": 4608, "html_attributions": ["<a href=\"https://maps.google.com/maps/contrib/116056008464807918785\">Javier de la Fuente Jiménez</a>"], "photo_reference": "AWn5SU7aCRQskRKnAti9NoyA0eMcqtSF5J2tRppthIIg5uz7W6zahDRkx5CEGnMjN7zkWkIh4q7790FZTm8-pLgCwM3pwEWudWtlkBCANxAXLx6XnKK9gX9qjn2OjhpH4LEAUqj_6N1KxRFGLP_rMopOeVzAXOQ89iPWIVmzFsB-SE_qq8KLdKhmAF2VCQL1_99bR8VFi1lunBhGQQZUX7mPNM10STgCUZh-Gm01YKAiPElhSYigjLM5xiRG8gsHHX2WMCOolURgqEcNbZ4xfObiGr8AwNoe1VBRdUVqDyG6s1pfvpfRZKYAi60uRqsq5Ys3D9sShoF_TTD2EMCr_5V7VRAmvb5WKCiGFR_t1YeoQwh7YKw_xl0714Z7KXhVy0TZNnO-WsEQaBcJnI_xVdowIn_MXXizNU2wnqN-mlZTuju_TZZuc4RnWXhbqaTVvUVlglN5yllKoPsbJqsyt7ujhE-ukG-ru3Wp9EQqRim3Bq0HdXuvljCNFzTM9RrkJ7kUlC-po4chDL50Zk8w0ejVak9y405gP9caUbZ3t6y0aHrMPgBGxH3OnD9irsxy3d_jUKwGwLXhw-CQmbhmrhikFuHqk3rdQQDW9LfYKxHc7KKfQX-SX8mrTCCWNXEpmN6liNSWpA", "width": 3456}], "place_id": "ChIJHY3JlY7HQw0RgY8Vd4tN-nU", "plus_code": {"compound_code": "QG6M+57 Valdepiélagos, Spain", "global_code": "8CGRQG6M+57"}, "rating": 4.5, "reference": "ChIJHY3JlY7HQw0RgY8Vd4tN-nU", "scope": "GOOGLE", "types": ["church", "place_of_worship", "point_of_interest", "establishment"], "user_ratings_total": 2, "vicinity": "Calle Mayor, 5, Valdepiélagos"}, {"business_status": "OPERATIONAL", "geometry": {"location": {"lat": 40.7600554, "lng": -3.4666659}, "viewport": {"northeast": {"lat": 40.7613869302915, "lng": -3.465406869708499}, "southwest": {"lat": 40.7586889697085, "lng": -3.468104830291503}}}, "icon": "https://maps.gstatic.com/mapfiles/place_api/icons/v1/png_71/school-71.png", "icon_background_color": "#7B9EB0", "icon_mask_base_uri": "https://maps.gstatic.com/mapfiles/place_api/icons/v2/school_pinlet", "international_phone_number": "+34 918 41 60 48", "name": "CRA El Jarama, escuela de Valdepielagos (Primaria)", "place_id": "ChIJzX7IskjHQw0RxH1x5Ak61mg", "plus_code": {"compound_code": "QG6M+28 Valdepiélagos, Spain", "global_code": "8CGRQG6M+28"}, "reference": "ChIJzX7IskjHQw0RxH1x5Ak61mg", "scope": "GOOGLE", "types": ["primary_school", "school", "point_of_interest", "establishment"], "vicinity": "Calle de la Iglesia, 3, Valdepiélagos"}, {"business_status": "OPERATIONAL", "geometry": {"location": {"lat": 40.76064059999999, "lng": -3.464508399999999}, "viewport": {"northeast": {"lat": 40.76201363029149, "lng": -3.463204769708498}, "southwest": {"lat": 40.75931566970849, "lng": -3.465902730291501}}}, "icon": "https://maps.gstatic.com/mapfiles/place_api/icons/v1/png_71/pharmacy-71.png", "icon_background_color": "#F88181", "icon_mask_base_uri": "https://maps.gstatic.com/mapfiles/place_api/icons/v2/pharmacy_pinlet", "international_phone_number": "+34 918 41 61 84", "name": "Farmacia", "opening_hours": {"open_now": false}, "photos": [{"height": 1900, "html_attributions": ["<a href=\"https://maps.google.com/maps/contrib/115085428164456002220\">Juan Carlos Marcos</a>"], "photo_reference": "AWn5SU7tJg8o93N2Qdbdg92OWs0fopVkxf1aqKw_cL-hOq4Yns2hh0lZc4RscH7TBd6rNJIafjms4mVAfLpYtRRatfV0d28dIQaYwuq4E4xKTfmaNFr6lctosyAxoifY7d0tvhHyv52JiQ1QjMzGgqszJ0TWkqMtFEJfeGPm-M8zFXYuzHf25j8-jbKgMZmGb896DHaybVZKI81hfQ9_OUs7yTppYbnLPOGQzv7hA3qzGOcpIiltd1fhAa2iMvQ6Amm5AWI0ILxZ61eI2x5y-pWWaxb9ioph_jRfXDIZNp1spGXZKrYJTHNr2TsWDJrt8Eaohpyz95XCpgiX3bfRUrlAC1-hq8Lvg2j8cCog6ccr9MQtxcjZsUjolsGtIhiUAVnEQGPjVZ0nPTwuQcfqvra2-tWbgzVs95iHUwQ4zyKY7Gr2xjLRoIWMtrsa_rPLGrjaYau7Ks-EaBbgwhkCQv-yOjtJskIE3uwFxsSzXIL-WWli3CrhpeVwNa1RA7tcoh06alzLBo8mRabJ40MdB-zJT9szFbH1c7aKLFSDE2sKdm5xSZkH1e9WBlf5lLxHOPOIusc91yM8DopQXdBdY3cOE_hr43QO21i6KHiepr-8nmJ3B45PKCUh-exxLa0IkXzsZKwDhw", "width": 1702}], "place_id": "ChIJ1Xx4tjbGQw0RF5yqRCiGyGE", "plus_code": {"compound_code": "QG6P+75 Valdepiélagos, Spain", "global_code": "8CGRQG6P+75"}, "rating": 4.8, "reference": "ChIJ1Xx4tjbGQw0RF5yqRCiGyGE", "scope": "GOOGLE", "types": ["pharmacy", "store", "point_of_interest", "health", "establishment"], "user_ratings_total": 16, "vicinity": "Calle de las Parras, 16, Valdepiélagos"}, {"business_status": "OPERATIONAL", "geometry": {"location": {"lat": 40.761214, "lng": -3.467497299999999}, "viewport": {"northeast": {"lat": 40.76253408029149, "lng": -3.466147119708499}, "southwest": {"lat": 40.7598361197085, "lng": -3.468845080291502}}}, "icon": "https://maps.gstatic.com/mapfiles/place_api/icons/v1/png_71/generic_business-71.png", "icon_background_color": "#13B5C7", "icon_mask_base_uri": "https://maps.gstatic.com/mapfiles/place_api/icons/v2/generic_pinlet", "name": "Fuentevieja", "place_id": "ChIJ89dW-LHHQw0R1f_MwFS1qKM", "plus_code": {"compound_code": "QG6M+F2 Valdepiélagos, Spain", "global_code": "8CGRQG6M+F2"}, "rating": 4.5, "reference": "ChIJ89dW-LHHQw0R1f_MwFS1qKM", "scope": "GOOGLE", "types": ["tourist_attraction", "point_of_interest", "establishment"], "user_ratings_total": 2, "vicinity": "Avenida Comunidad de Madrid, 12, Valdepiélagos"}, {"business_status": "OPERATIONAL", "geometry": {"location": {"lat": 40.75940839999999, "lng": -3.464570299999999}, "viewport": {"northeast": {"lat": 40.7607834302915, "lng": -3.463193219708498}, "southwest": {"lat": 40.7580854697085, "lng": -3.465891180291501}}}, "icon": "https://maps.gstatic.com/mapfiles/place_api/icons/v1/png_71/generic_business-71.png", "icon_background_color": "#13B5C7", "icon_mask_base_uri": "https://maps.gstatic.com/mapfiles/place_api/icons/v2/generic_pinlet", "name": "Fuente de El Pilar", "opening_hours": {"open_now": true}, "place_id": "ChIJc8CfLxPHQw0RAdbNZx348uA", "plus_code": {"compound_code": "QG5P+Q5 Valdepiélagos, Spain", "global_code": "8CGRQG5P+Q5"}, "reference": "ChIJc8CfLxPHQw0RAdbNZx348uA", "scope": "GOOGLE", "types": ["point_of_interest", "establishment"], "vicinity": "Calle del Pilar, Valdepiélagos"}, {"business_status": "OPERATIONAL", "geometry": {"location": {"lat": 40.75943669999999, "lng": -3.4645063}, "viewport": {"northeast": {"lat": 40.76077293029149, "lng": -3.463173219708498}, "southwest": {"lat": 40.7580749697085, "lng": -3.465871180291502}}}, "icon": "https://maps.gstatic.com/mapfiles/place_api/icons/v1/png_71/school-71.png", "icon_background_color": "#7B9EB0", "icon_mask_base_uri": "https://maps.gstatic.com/mapfiles/place_api/icons/v2/school_pinlet", "international_phone_number": "+34 918 41 61 45", "name": "Escuela De Educación Infantil Casa De Niños Valdepiélagos", "photos": [{"height": 1920, "html_attributions": ["<a href=\"https://maps.google.com/maps/contrib/108053275938028969300\">U. H. Süßmann</a>"], "photo_reference": "AWn5SU5dfTxFMIaN_cfqeSGM7WD9AY8YmpX6MrVXiOxxoDYAF9nHmo4bqfXeAoZrc6_p5X1qZMKKpbtXbBQVIwcdlY3DL9FvQqsWIza6cYD9yq0HU6xZqmaNcv_f2zeaa81cmN241ITgpFnCYPBuBTWppygE26rdt4yfLmGp38fHS6Pv5xg-R_x1qMIzkwXc0KCY8C_-xQCvgok6gdH7zCHHB8xIhfzw_yqPk5X2GmQxodTsMPqvTpDpDE0bpAp1VoaioCP8hEn3nLm0laRSwCKm4G7HcjUMMc0z9n6x5e85HLOZ1UY9b7E3HKNxhlf59FAUNRHRqdsG05Sl8cM8XfLQq0EuWff8n1sjI5vdoH-FaSllJW71g54vhHL_1wQF6qddXC16sa3e7xQu8WXrUVBT6cGBARmYVd60LMc59Xm6gfGkBS-IN6xlqpvfLO_Bd21mJqsknybDAo8UmXOgRPflIl_m6w2n6D-zVw7KNdXt9lhxJ-Qd2lYfi1CKM2gzvWjAk98zT_nNzRdr2F9poT7EqEl56ve-dwGu7BTDs0ahVSajn9OCLy4eynG1bdYh7TlY48DMK06J_UGYsmqlw0nlsNcRmQIEvBclwcOWpv754ec0sO6PwxK2mayrqCw-ArLymEXtsA", "width": 2560}], "place_id": "ChIJz0et5TPGQw0Rt2XlCO5tgVg", "plus_code": {"compound_code": "QG5P+Q5 Valdepiélagos, Spain", "global_code": "8CGRQG5P+Q5"}, "reference": "ChIJz0et5TPGQw0Rt2XlCO5tgVg", "scope": "GOOGLE", "types": ["school", "point_of_interest", "establishment"], "vicinity": "Calle del Casar, 0, Valdepiélagos"}]