[{"business_status": "OPERATIONAL", "geometry": {"location": {"lat": 40.7269151, "lng": -3.8696454}, "viewport": {"northeast": {"lat": 40.72841373029151, "lng": -3.868225519708498}, "southwest": {"lat": 40.72571576970851, "lng": -3.870923480291502}}}, "icon": "https://maps.gstatic.com/mapfiles/place_api/icons/v1/png_71/park-71.png", "icon_background_color": "#4DB546", "icon_mask_base_uri": "https://maps.gstatic.com/mapfiles/place_api/icons/v2/tree_pinlet", "name": "Prado Puente", "opening_hours": {"open_now": true}, "photos": [{"height": 3024, "html_attributions": ["<a href=\"https://maps.google.com/maps/contrib/111211880693932481244\">Jaime</a>"], "photo_reference": "AWn5SU7ZemCqXigkSl2oUvBmK8l33jD6aQNBOEHdHpR42MEz-dukhZTSQB1KFAKjKvTGtdUqJmMkFjewzlNS1vjxf2LKH57_pdayGsbQZPlENa2ihVw7MJGyjqscJP-xKPyk_7qkT5pdsj6lW0Rwlfvov1-dA96yvPB-wm3PuSlxknulmm4iptYc0KIsN9MwQwv3SVQGlBIRIwDfCHwGWDHs_CHWmi1BkEIiaQ-cX7crU73bRlSNpcHDA30NBV9SzLy24EpD4e2iThdZ04vo8PD0vODxkl_k3Q0d2eKi6ivsVzTS2mN3Y9Nu2ZG2nmqpc58mJq7J4is4q6g36nmg6PoUL95pQJbctr3pVtc8uen_UQB2kAt1qfo0H2xuoKgq1yBfO-VSH5mbkXYxEkzVG2SzoJqTlA8LrXEZo-Qmz_-kkCXfdcjH9aY759amAi8pTJL_fqIyTXr42otV9wUnnG8IFiHunFTjeGFQK5p81ABhIeNu2Py3d_Jnid-5HHcEBXIBb8NH0Y0aiIXP_RAHA_QhohglK27zjVFnr2bTB-_k_R3Xo9-fo8mTa3h8uhT8QMt53-jjyKbvrukWYATHUdXFzryAR11Qs0tfKSAovMJvTh5-SAeF-Qi6KqqLzIR1BD8x", "width": 4032}], "place_id": "ChIJkYNOodZ6QQ0ROGoU7Brocxs", "plus_code": {"compound_code": "P4GJ+Q4 Manzanares el Real, Spain", "global_code": "8CGRP4GJ+Q4"}, "rating": 4.3, "reference": "ChIJkYNOodZ6QQ0ROGoU7Brocxs", "scope": "GOOGLE", "types": ["park", "tourist_attraction", "point_of_interest", "establishment"], "user_ratings_total": 346, "vicinity": "Avenida de la Pedriza, 1, Manzanares el Real"}, {"business_status": "OPERATIONAL", "geometry": {"location": {"lat": 40.76416539999999, "lng": -3.905161900000001}, "viewport": {"northeast": {"lat": 40.76512453029149, "lng": -3.904122150000001}, "southwest": {"lat": 40.7624265697085, "lng": -3.908281149999999}}}, "icon": "https://maps.gstatic.com/mapfiles/place_api/icons/v1/png_71/park-71.png", "icon_background_color": "#4DB546", "icon_mask_base_uri": "https://maps.gstatic.com/mapfiles/place_api/icons/v2/tree_pinlet", "name": "Green Pond (waterfall)", "opening_hours": {"open_now": true}, "photos": [{"height": 4032, "html_attributions": ["<a href=\"https://maps.google.com/maps/contrib/105007193107604910122\">Marta Hoyos Pascual</a>"], "photo_reference": "AWn5SU75tw2TQ6A0_1ZJQriz9W86iulwcjpCd_AeeRaqEinxaaivqAUs1rkA0pNB-X8eAM3TyoPfMNJLsEkFR1cdAueB_CslysIFp-YzeanbgLsjqZui5w-u9zD029XUA4-qRunkpNwJhIBBNaE8Y6IDFlDUkllGWHYbUC2-YGybmEhISsQgxBhfZZ9T48gSX-gu6NiFsjdNxN1zB2E68zHaj4AHT5QmAa_JxQdXke5sjouCxrIEnO0hQ4V6RsDsIaefe0kkRUvk3P5yTFU21Qej5nUXOrS8aK0TjipdKA2vewEoy2Oik20i4LZXTJD12z983tvYuPJFQTqRao-auYwVqC4rVMxPrSVt07d9MoqWZr7ASL6tf51h2ryUoYPHD_Lqu6dR9Rv9hzy0CTiXW6Smuwe5mnTxbCMO90hlwiMObcklEJB5nwMzkzpnsMh53Z1tEcwL1SSO8gwzhBHYt4CohVB7Saui0-AXyAheDFFm3eUZw3xIekDIi4o0V_yljiyGCOl2L10IC-90ogortpqZQ7f-L3HDU7qqimSiXB4TFiMpNPT3lFLPKuM2w2p4FySTJPpapzb7S9bR8ikgMgDgqbM_eWsEn1S7IM7JzgxGeAP18czC-lh-MMAT4HjuamPbi7NUbMXe", "width": 3024}], "place_id": "ChIJvb9n_IlvQQ0RzqYn8KiteQQ", "plus_code": {"compound_code": "Q37V+MW Manzanares el Real, Spain", "global_code": "8CGRQ37V+MW"}, "rating": 4.7, "reference": "ChIJvb9n_IlvQQ0RzqYn8KiteQQ", "scope": "GOOGLE", "types": ["park", "point_of_interest", "establishment"], "user_ratings_total": 759, "vicinity": ""}, {"business_status": "OPERATIONAL", "geometry": {"location": {"lat": 40.72628579999999, "lng": -3.864689299999999}, "viewport": {"northeast": {"lat": 40.7275769802915, "lng": -3.863337519708498}, "southwest": {"lat": 40.7248790197085, "lng": -3.866035480291502}}}, "icon": "https://maps.gstatic.com/mapfiles/place_api/icons/v1/png_71/park-71.png", "icon_background_color": "#4DB546", "icon_mask_base_uri": "https://maps.gstatic.com/mapfiles/place_api/icons/v2/tree_pinlet", "name": "El Hipopótamo", "opening_hours": {"open_now": true}, "photos": [{"height": 1134, "html_attributions": ["<a href=\"https://maps.google.com/maps/contrib/100338126605347315403\">Ian Hinton</a>"], "photo_reference": "AWn5SU7ZSV236hwkzrVqKjBduJS-PEIC3dOQYG_IPrQK9RS3jBCW9evgt5FUOUk_4ABFo-xsLxDklsbJhHysGjnnrdCnFk1KX6uPIX7TaPA-NOQ7rPAt07_dsRAv3cSmIMt_PqN_y4DjWpwxqvS0yV0Z8C64zD2UhopQeTn-gkNfwjVWrunPC9bWK76D7QZIJM8yp4YveRvpO1P_021Q_ACd6R52MPQjsxQ2t3R94qaqTIXd7w8rx4swr42f10z1zilHpFGWSpf1pC3ctdnQGAEPBdQuX8Nqqm9qOnqFG6wjhbDKbV2M1JQqoKFMMPfR8RyqJOfjif9Z5flHqr0LQWUDNyOB2eyHaDQimvz8azK6gPjRB-n-sobNVPlQRFgdWYfYIHrU1ucyZWTiSlZMeYLRQyh1hm-3Wg1DIj9H6jG8iPHmQlKVgjUZQZKYGzbUXS797CR8hqDYBpqe8aq1Uq4x8Uh9PPdc0WYeCkg3ieyhuz_LRrpfhy-TUs8mE1v3c8zULueHG6FXPRvv-_MsCCq4k20dYWsQVguL65-a4-sW8QOtgC-vc78X-jP4m6LlYUPrYxPcYkZNoHeS-iIq9u4VYzcb0jiGDiPZICcu4Q90Z1rpyHgsrZujPQ90HYAdg1MoIyRpWQ", "width": 2016}], "place_id": "ChIJg6YOC_J7QQ0RkZApCFw0DiI", "plus_code": {"compound_code": "P4GP+G4 Manzanares el Real, Spain", "global_code": "8CGRP4GP+G4"}, "reference": "ChIJg6YOC_J7QQ0RkZApCFw0DiI", "scope": "GOOGLE", "types": ["park", "point_of_interest", "establishment"], "vicinity": "Manzanares el Real"}, {"business_status": "OPERATIONAL", "geometry": {"location": {"lat": 40.72628579999999, "lng": -3.864689299999999}, "viewport": {"northeast": {"lat": 40.7275769802915, "lng": -3.863337519708498}, "southwest": {"lat": 40.7248790197085, "lng": -3.866035480291502}}}, "icon": "https://maps.gstatic.com/mapfiles/place_api/icons/v1/png_71/park-71.png", "icon_background_color": "#4DB546", "icon_mask_base_uri": "https://maps.gstatic.com/mapfiles/place_api/icons/v2/tree_pinlet", "name": "Ruta cantocochino", "place_id": "ChIJb_8hWpB7QQ0Rlb2Kz8_ptxo", "plus_code": {"compound_code": "P4GP+G4 Manzanares el Real, Spain", "global_code": "8CGRP4GP+G4"}, "reference": "ChIJb_8hWpB7QQ0Rlb2Kz8_ptxo", "scope": "GOOGLE", "types": ["park", "point_of_interest", "establishment"], "vicinity": "Manzanares el Real"}, {"business_status": "OPERATIONAL", "geometry": {"location": {"lat": 40.7262666, "lng": -3.8651799}, "viewport": {"northeast": {"lat": 40.72763293029149, "lng": -3.863784919708498}, "southwest": {"lat": 40.72493496970849, "lng": -3.866482880291503}}}, "icon": "https://maps.gstatic.com/mapfiles/place_api/icons/v1/png_71/park-71.png", "icon_background_color": "#4DB546", "icon_mask_base_uri": "https://maps.gstatic.com/mapfiles/place_api/icons/v2/tree_pinlet", "name": "Фонтан", "photos": [{"height": 2252, "html_attributions": ["<a href=\"https://maps.google.com/maps/contrib/112493483946092771602\">Galinka Chucha</a>"], "photo_reference": "AWn5SU7Kq0-ohM11zXOwDxbsh8t2SDy7hOH6okJ15aVs9gFGOvDN1sKcIUTtHLSBFnYS5Jp1JbRNT5HiKa_k8tqEUkM0y-vRjCrVHVTVyiue-vl3_YepT-s1xoTOUDf0gn4LB6ChiXEkaSov1E7Dk_hwgYlpvrI4ffviO8cKuJO3kjcd1JldyAYAGMBRkiCLv3mx5u0F6k6VTDYl04DvRknyo1aHuTw8NqL8Fw8LknD71Kl1hgmi_jWCh_kTIbpNw5Sh8tXfUepar8FQLyWVPHguKvSP6Pcb3nZD0_YrPnZr87zjasXrSGj70cVYAtAJlZmd1XZHyEV6lA3SgSnrEuVb3KmfT9wSX4792qh7oEI8WHPo-MI6h2daSo8Yb0wk0WQCt7__9QtpNgXZ9aZ8FZc3IsO-pKHWdybhIzuHp6OU21_UlIOlD2uRmAN6gcae-_XMgBzMQvj7SGpiUGW6YgaO_wt4PigRwRGl-q_RLZK4dpwHM_noDbqwbVt_6FIGYj-_bggBAqa-6VyEwRpeNCxGbIsjL1AwlSkY11Y4omdvpG54qh6PsgXiu231ZPgcIp08ir0iOt1NTWnZJomjsQQKKJa-Tj6nUCgE6gJ2di9yaC5XkRzK-yAqkxXQW5jltMQ2QakOX60h2JE7HPdHjMvjGg", "width": 4000}], "place_id": "ChIJEZiIcwB7QQ0RkSw5GvUwy4I", "plus_code": {"compound_code": "P4GM+GW Manzanares el Real, Spain", "global_code": "8CGRP4GM+GW"}, "reference": "ChIJEZiIcwB7QQ0RkSw5GvUwy4I", "scope": "GOOGLE", "types": ["park", "point_of_interest", "establishment"], "vicinity": "Plaza del Raso, 1, Manzanares el Real"}, {"business_status": "OPERATIONAL", "geometry": {"location": {"lat": 40.7265265, "lng": -3.8638683}, "viewport": {"northeast": {"lat": 40.7277221302915, "lng": -3.862539419708497}, "southwest": {"lat": 40.7250241697085, "lng": -3.865237380291501}}}, "icon": "https://maps.gstatic.com/mapfiles/place_api/icons/v1/png_71/park-71.png", "icon_background_color": "#4DB546", "icon_mask_base_uri": "https://maps.gstatic.com/mapfiles/place_api/icons/v2/tree_pinlet", "name": "Cañada Real segoviana o de las merinas", "photos": [{"height": 806, "html_attributions": ["<a href=\"https://maps.google.com/maps/contrib/117353380988194004178\">Humberto Carpio</a>"], "photo_reference": "AWn5SU6RNIDhIGkpDnfc_70HhlGbS1_Y5smVeJ_CFyo0N1jSS-wVF6HS8TBpzBADTdYsPVBPPx2eGXBtSJp77ORPDX4VhK0W7xGGC2rMQNS1zj6t_c8pvo7vgzRghGD_lM_n1UmY2yFLmVqdm461toQ4U0gqweiC77Awr-UjC0hoN3P9tMLZAV33F-4pJdT26sRMWxUjO43PwfHUvRgSrS7dvFp-VYNcyi5wU5JbtkarDVulfhipN8JE10ctTqbdNpNdF6Knn-SkksjgAdei7aA_HNiV5-QNzANebSFj33M3W6U_kHnip8A39khOm95KYTFYVVctobQbTGdINZXiwNgt5P-38BldCcaEcRyKY0JxuUiGOOL5jnBK-0TuUdRuQ_dcmJw4roh7HMJFbvU6dEicOKyJ5oqAcwDruq8qBfwD052_3CTDLQYYFMAsCg4LeCJgmEW-F3jAFjC8SNpueCL_TJqnQh8VxAeQVzydBKz7DIE8ippYkYlYccwkK9fYJndbrRP9Febr3Z9vBRvubcnuyL9y4SNZlPPOpRlwhalpAijWfD6G95mjCzUMJ7VgOGoFWz4HSFTBfqfP1J5i0kAnDq2xofe6e1OhldayJHj9gSpEp_7H4PjiW3COp6WI1zmV8fdRK12K", "width": 1327}], "place_id": "ChIJSTd5VAB7QQ0RW-a57COBj_Y", "plus_code": {"compound_code": "P4GP+JF Manzanares el Real, Spain", "global_code": "8CGRP4GP+JF"}, "rating": 5, "reference": "ChIJSTd5VAB7QQ0RW-a57COBj_Y", "scope": "GOOGLE", "types": ["park", "point_of_interest", "establishment"], "user_ratings_total": 1, "vicinity": "Avenida de Madrid, 7, Manzanares el Real"}, {"business_status": "OPERATIONAL", "geometry": {"location": {"lat": 40.7262236, "lng": -3.8679083}, "viewport": {"northeast": {"lat": 40.7276976302915, "lng": -3.866405969708498}, "southwest": {"lat": 40.7249996697085, "lng": -3.869103930291502}}}, "icon": "https://maps.gstatic.com/mapfiles/place_api/icons/v1/png_71/park-71.png", "icon_background_color": "#4DB546", "icon_mask_base_uri": "https://maps.gstatic.com/mapfiles/place_api/icons/v2/tree_pinlet", "name": "Las Mozas", "opening_hours": {"open_now": true}, "photos": [{"height": 4032, "html_attributions": ["<a href=\"https://maps.google.com/maps/contrib/117072756465832072266\">Álex López Mendoza</a>"], "photo_reference": "AWn5SU4yy52ggup_TajIENiDyVaKU_4-ODBTFGSTe2mtu2Xb0fxK_zRUvCvqbjdGPddqL6ixAb-IpxZN_JHNAe_wptr7HU0h0oAk2tltaE9IAoSR7pGmEPhkrbaIngUP6mDfc7n2jmmGtepCQcm5XCeSVQZgVdFChctAzczUlua4JVWBC82Hzj2G37i8ScJv_K7SMxsYsNcQe-NEJJQHBTLb7PqAvb51maTtMEhVAOcXo9rd43HKz9s5viHClx-0I1wTGBVRvIjegApuEATmIlkI5TAnIP8jU7QAwh9Qke2vS6rNCTJHUl9hcZNLr-EdLe79Jjis6rdJCuWX0HrAjnuNUQjj1LND397ohxJ98e7_2HfsK-CIzt9pNSpxncfvUYqlN3FYk5yl2p85ALW8QEw3eiHJAwpisWhlKz5SJwWOb-_RtbajDgn8joFIvaUb5f31GlL1uQQJyvq4pgWl20389VLoICYTgLQTEKa_6ehs9BQDvf-NnCpzyzN2Hz-jYzMwTx-XSoP3qXcXlLYDIyfeEugNucK1z9AK2hsXM4pNil1MNCVcXgTi-Tki1FhaLRGUut7efmZODHbROLmZmBDTOtU_PuCzjg5hZIbqVkekKxArCvw-ofWFwTYpgLrePnGZusQJYw", "width": 3024}], "place_id": "ChIJj5-mYNB7QQ0RIKh0Y5kzc8I", "plus_code": {"compound_code": "P4GJ+FR Manzanares el Real, Spain", "global_code": "8CGRP4GJ+FR"}, "rating": 4.3, "reference": "ChIJj5-mYNB7QQ0RIKh0Y5kzc8I", "scope": "GOOGLE", "types": ["park", "point_of_interest", "establishment"], "user_ratings_total": 18, "vicinity": "Manzanares el Real"}, {"business_status": "OPERATIONAL", "geometry": {"location": {"lat": 40.7275901, "lng": -3.860739499999999}, "viewport": {"northeast": {"lat": 40.7287716802915, "lng": -3.859181119708498}, "southwest": {"lat": 40.7260737197085, "lng": -3.861879080291502}}}, "icon": "https://maps.gstatic.com/mapfiles/place_api/icons/v1/png_71/park-71.png", "icon_background_color": "#4DB546", "icon_mask_base_uri": "https://maps.gstatic.com/mapfiles/place_api/icons/v2/tree_pinlet", "name": "Cañada Real segoviana o de las merinas", "place_id": "ChIJgYbdYQB7QQ0RUiu3Dn6DoEM", "plus_code": {"compound_code": "P4HQ+2P Manzanares el Real, Spain", "global_code": "8CGRP4HQ+2P"}, "reference": "ChIJgYbdYQB7QQ0RUiu3Dn6DoEM", "scope": "GOOGLE", "types": ["park", "point_of_interest", "establishment"], "vicinity": "Finca La Camorza, Jardines del castillo, Extrarradio, 0, 28410, Manzanares el Real"}, {"business_status": "OPERATIONAL", "geometry": {"location": {"lat": 40.7277253, "lng": -3.8604816}, "viewport": {"northeast": {"lat": 40.72891613029149, "lng": -3.858943769708497}, "southwest": {"lat": 40.7262181697085, "lng": -3.861641730291502}}}, "icon": "https://maps.gstatic.com/mapfiles/place_api/icons/v1/png_71/park-71.png", "icon_background_color": "#4DB546", "icon_mask_base_uri": "https://maps.gstatic.com/mapfiles/place_api/icons/v2/tree_pinlet", "name": "castillo Garden", "photos": [{"height": 3024, "html_attributions": ["<a href=\"https://maps.google.com/maps/contrib/103659005972534907659\">alvaro anfora</a>"], "photo_reference": "AWn5SU4L-fhLTGmNsJ0zxAG4tOO13NfFkRWB-NNfc1199cA1ufo2iqXHB5PWntJ8IdacxiEEMLZsKuds6I1odzohHuUnIrqZJgPfb-rg1hZhnV6n7M2zwPf6vV22tzX6Gvtkhmx1a8qmOqZQEPhIFUbhlqd4NK21wBcaAaprRi-cDVOkVtOdBklo4MOq4cU9RvawQdx9D4v7GEsmBnJVoe_nfEBycoLTUQA4FKEZDLEeF88kjhr9wtxSL1k6y2KAIb1ge03u1FNYTAxTyKZJBuaf-YAtjsoc9fm_1u5ejMG0k6-eQaU5VeER8IkUijLg_4XJn8bD9n130qbvixapY7kRr8iBMixuYMj-4e6rDNXuKtFA0EVMofQ34ShO6DeutCAkmcxIEMUZQSUVaH7WsaJkUgM-wqKtIQyb06-4pFwp4LeXuDlWH_t5ngWttkziid_1Tt_lIZXGtsxQRu_yHz17JVGieTh7io0_OTiKc4QA7w5xQDj4430OSklVmAOpT01YyUzwr73F5RT7IfKTDlBx-W0WnAQwSkn04foIoWwhuelk_LR7P4K_HxgvB7Ftp3_KeUfqpvDVWxyWPUw9HnyCqJqTCYeEoryKZ3B_DREDf_ELOvBcd5GQaKvx5xSxh06-TOjTzA", "width": 4032}], "place_id": "ChIJk1-CnLN7QQ0Rx5uDf9ioPe8", "plus_code": {"compound_code": "P4HQ+3R Manzanares el Real, Spain", "global_code": "8CGRP4HQ+3R"}, "rating": 4.9, "reference": "ChIJk1-CnLN7QQ0Rx5uDf9ioPe8", "scope": "GOOGLE", "types": ["park", "point_of_interest", "establishment"], "user_ratings_total": 7, "vicinity": "Manzanares el Real, Extrarradio Finca La Camorza, 0, 28410"}, {"business_status": "OPERATIONAL", "geometry": {"location": {"lat": 40.7304983, "lng": -3.8673194}, "viewport": {"northeast": {"lat": 40.7317688302915, "lng": -3.865952719708498}, "southwest": {"lat": 40.7290708697085, "lng": -3.868650680291502}}}, "icon": "https://maps.gstatic.com/mapfiles/place_api/icons/v1/png_71/park-71.png", "icon_background_color": "#4DB546", "icon_mask_base_uri": "https://maps.gstatic.com/mapfiles/place_api/icons/v2/tree_pinlet", "international_phone_number": "+34 665 42 64 17", "name": "ARBA Manzanares el real", "opening_hours": {"open_now": false}, "photos": [{"height": 1984, "html_attributions": ["<a href=\"https://maps.google.com/maps/contrib/113403256838206258206\">ARBA Manzanares el real</a>"], "photo_reference": "AWn5SU7zwop9y51yr12WoM0NZ4fC2cic7K9krew8otuuS4DLfsS6Fq-VSZy40v0-_gfxAgE0F_cJaHdv5JOanY-Sfs9TRKphfsoNYA-bMOC7-BPyzs76OXFOHkEKRmUj8tv8iA9JmIqVuB7o0u03BLBxHKrIOMcRJ8xmsuCNrPGvCoKMX1XFmFiLAHfL2l0kppwC1XJ8QPzslK7msIDg3a-Jy9JhnoUXBXqVbIxh7l-OcHn3JDtgfCJLAdd0CGn3HQHjQOlIyDKpHKCpnot9_cwx8KcmkGNjgkrLYNhFAoVtA5M-NHmHA3uvVZfM8yc0-nvg_NmzzVkNjhU", "width": 2968}], "place_id": "ChIJUaiNT_Z7QQ0RFgq_MrCXr8k", "plus_code": {"compound_code": "P4JM+53 Manzanares el Real, Spain", "global_code": "8CGRP4JM+53"}, "reference": "ChIJUaiNT_Z7QQ0RFgq_MrCXr8k", "scope": "GOOGLE", "types": ["park", "point_of_interest", "establishment"], "vicinity": "Calle de la Luz, 14, Manzanares el Real"}, {"business_status": "OPERATIONAL", "geometry": {"location": {"lat": 40.7237308, "lng": -3.8599425}, "viewport": {"northeast": {"lat": 40.7250662302915, "lng": -3.858595169708496}, "southwest": {"lat": 40.7223682697085, "lng": -3.861293130291501}}}, "icon": "https://maps.gstatic.com/mapfiles/place_api/icons/v1/png_71/park-71.png", "icon_background_color": "#4DB546", "icon_mask_base_uri": "https://maps.gstatic.com/mapfiles/place_api/icons/v2/tree_pinlet", "name": "Senda del embalse de Manzanares el Real", "opening_hours": {"open_now": true}, "photos": [{"height": 3000, "html_attributions": ["<a href=\"https://maps.google.com/maps/contrib/106400301367177474574\">Miriam Esteban</a>"], "photo_reference": "AWn5SU7nXPrCwRSo1a8KkqL2UGqssS5tahytsnb1CJ_ps52VV3dtceDe-RBzaE4dxrIe7bNUe8LaoEhBNDLvdFQRX2GJ77zTkxA98_nlLRjwYlFyrl60AH-UxEcBwyxS7jSPNNnmFKb5oqfgJS_Zr1-lzENHI8u3s0fOyEX2SAcNGov4_-yCYMo06ZD808Gzgf1C_wEzzFLEN1C4wWLW2brQU3zOLW4AV46WFkHtM_QqtmaGhAgOxF3FkpkTvvdbDauYvS-pKcn6nP7Ag6OmfRq1vOUtSBFDSmiqlO-mabSEMiStOamYT8D6RE2y0B8O5QYqQgyMh6oUKgr7XCjyQZPcd5fpeRePkMM5xHnW8kE5OZped1qoK3SC3EwN4oTa40QaKVB0u9qrSHUULSkHfFr8kQHlkhbVPL7QQwPu-wSP5pWdDj0ZqaJIgBUSZohUKku1Y92kDa_8NSt-xGclbJdo5Q4v9_p6Ivw9J_RbIv3P9iBRS9vzXjQ0C_NImCzYwc_Cz9HPDcP1l2vJJ3EFcni4WeeucUdDWxMCyPP34rTwtF3dc1OOODltQUBTDNk5JZicgJWOwEffBDie0XY3KGL5uLVRBBOYrEa9taXGK3jquNnE8LFDWnb2GkZ2TX5HOyzMXhF1PDY8", "width": 4496}], "place_id": "ChIJ_YTLbIB7QQ0RzlzJ8HWH-u4", "plus_code": {"compound_code": "P4FR+F2 Manzanares el Real, Spain", "global_code": "8CGRP4FR+F2"}, "rating": 3.8, "reference": "ChIJ_YTLbIB7QQ0RzlzJ8HWH-u4", "scope": "GOOGLE", "types": ["park", "point_of_interest", "establishment"], "user_ratings_total": 5, "vicinity": "Calle de Colmenar, 12, Manzanares el Real"}, {"business_status": "OPERATIONAL", "geometry": {"location": {"lat": 40.7321684, "lng": -3.867125100000001}, "viewport": {"northeast": {"lat": 40.7335068802915, "lng": -3.865774469708498}, "southwest": {"lat": 40.7308089197085, "lng": -3.868472430291503}}}, "icon": "https://maps.gstatic.com/mapfiles/place_api/icons/v1/png_71/generic_business-71.png", "icon_background_color": "#7B9EB0", "icon_mask_base_uri": "https://maps.gstatic.com/mapfiles/place_api/icons/v2/generic_pinlet", "international_phone_number": "+34 636 20 60 42", "name": "River Jardín", "opening_hours": {"open_now": false}, "photos": [{"height": 4000, "html_attributions": ["<a href=\"https://maps.google.com/maps/contrib/114143430836025428659\">River Jardín</a>"], "photo_reference": "AWn5SU7irKiFdfCSx8W5uK2aKXPibtT2fQaIzwuYTLvzHHG81u58KMegy44iY6OmEea2Fhd14-m8i_Wv9DbfzcnSWlf-OTQucjXEaD3c-gDhCISY_4J1d54p1Ho7MtGWQ209VrnejP3VqY548B-7uP7xnNSqAlcW6UluucS1y76HIDGR6u6N4Lyt2N4TKCqHKDswXqD-Kik8BqNSEuGSxSPLeG3Hwso0OBFObOGmSxD31rfGuv91bQ6i40o0JxuPsebRwkKgDzN6mdzQG7X_7vU2XNhyZPgOazodB5U1yriTb2IbWOSBiSbcn_loII4xhYP-XNYzjDgdYJY", "width": 3000}], "place_id": "ChIJJSwohgN7QQ0Ro1MvMJ5Bqn4", "plus_code": {"compound_code": "P4JM+V4 Manzanares el Real, Spain", "global_code": "8CGRP4JM+V4"}, "rating": 1, "reference": "ChIJJSwohgN7QQ0Ro1MvMJ5Bqn4", "scope": "GOOGLE", "types": ["general_contractor", "park", "point_of_interest", "establishment"], "user_ratings_total": 1, "vicinity": "Calle del Yelmo, Manzanares el Real"}, {"business_status": "OPERATIONAL", "geometry": {"location": {"lat": 40.7298412, "lng": -3.8534931}, "viewport": {"northeast": {"lat": 40.7313540302915, "lng": -3.852350919708497}, "southwest": {"lat": 40.7286560697085, "lng": -3.855048880291502}}}, "icon": "https://maps.gstatic.com/mapfiles/place_api/icons/v1/png_71/park-71.png", "icon_background_color": "#4DB546", "icon_mask_base_uri": "https://maps.gstatic.com/mapfiles/place_api/icons/v2/tree_pinlet", "name": "Acceso peatonal embalse Santillana", "opening_hours": {"open_now": true}, "photos": [{"height": 3024, "html_attributions": ["<a href=\"https://maps.google.com/maps/contrib/106836348065777398933\">BlondΛrt</a>"], "photo_reference": "AWn5SU7SMd6QTMs_Vy180qEfjxuqDUb-TVcoN4IrCP6ZNIS5gPSu6D1zEGQQqrlrkpFeNF0meQ5AYe5aL5B3L0scxEhI31WHj6J_uzbwjQb68lI6nu3bnyuTvtlsrbXbThfIkSjN3QPDl80B44vwVXbcCx0npAjSLkEXEbGvVz5Q0A_zP2Aho766cL4SojaTlDPH1p57Fp3r-mw0dDPYpUqqgkVItVjwtbEh6gy5CPUDfztWp4piYvgRU44DgY-kJEBaA2_f-iIE-lRRNMAk5QQJXWAHCOAw9wP8C-fj3WbIqXsGqnFyRTLMPBEnGF0yt6X8rL5eMRNNAobms8v2QmYbrKHyoKRN6CxuIpaxEPagi9gqF9eVdhuq0_csnLBk_toZRhzG36cyp7k4JcA1Kpm_9vSsqDwc1KAQC20mVhSjLWTR_p8hgKlxZA3c7uhc3oL3l1WiWSqOmqn2PPMsZwwvy3S3moicwaRjmtXv53MeJP-PU_Bs_QSNuxOC9ytT3GSZkj_H_bQgDI5mcpZkvZewGWrprw38-Evk4hkLMtdmCHYQnKlFeKc_u0_ZpZpxGweg5DrspWHO0Zlcin4HxZQVXP6Azv_vEYOm49qj6DS83SdMkqkLmOntpKZmd48GNTlPDd17Clr3", "width": 4032}], "place_id": "ChIJm6sYqjN7QQ0RwRIrFM9xfiI", "plus_code": {"compound_code": "P4HW+WJ Manzanares el Real, Spain", "global_code": "8CGRP4HW+WJ"}, "rating": 4.2, "reference": "ChIJm6sYqjN7QQ0RwRIrFM9xfiI", "scope": "GOOGLE", "types": ["park", "point_of_interest", "establishment"], "user_ratings_total": 27, "vicinity": "Avenida de Madrid, 125, Manzanares el Real"}, {"business_status": "OPERATIONAL", "geometry": {"location": {"lat": 40.73352939999999, "lng": -3.8557405}, "viewport": {"northeast": {"lat": 40.7348581802915, "lng": -3.854283619708498}, "southwest": {"lat": 40.7321602197085, "lng": -3.856981580291502}}}, "icon": "https://maps.gstatic.com/mapfiles/place_api/icons/v1/png_71/park-71.png", "icon_background_color": "#4DB546", "icon_mask_base_uri": "https://maps.gstatic.com/mapfiles/place_api/icons/v2/tree_pinlet", "international_phone_number": "+34 617 18 69 76", "name": "Ikigai Bonsai", "opening_hours": {"open_now": false}, "photos": [{"height": 4000, "html_attributions": ["<a href=\"https://maps.google.com/maps/contrib/117166206281310022594\">Lau Laurita</a>"], "photo_reference": "AWn5SU4E9kcYSLM2glf8bux2_Hx9TYpp6-717drnseYPqrU-LfQt495pAij_G2t_RCIeO2DdApAJwFXbrxFNhSDLlNL8XBdeTVWs2-Rm0yueeCcYVuJiI3wLwHmyqA94OsWPRXVWHfGfrOJ3KhjHbFZ9C_Y5YQOFZJs4EQoGYME1rZpwfKaAVQLCejr-vuKRamF0BdCIoirFQLX7I6hPCJ9Mj5-jUb0_orJj-KTCG9RUHBsZtCGfbGCPK39-L8JjhVkOCTT4y3_s3daTbHzNYdDJ0nsdfBwlR-irsLIenLrEps82uNpmCy3iq5zrSTp5e7IbjeWJ0aE5Q5CuYBegksbLoM1bwdZSP-D0Z7Vy1myT8xpZuIkanNKDoGLlcH7xO3DlYRrKau6gXXxuqIOj2tB9VrcZNAGgRMO7lw3WHGYqg1YphwRdYKCpNWVL-sCuvbSvreH10Mg6dDBi-03Whh5CBRe-VlRf_7t3oqjQMw4pL6aBD6IDfoqAEILN55BJJbkmOwyXrPD8qBpglTVRvM6dUhK0-4DliaAkFZTkunjM4xzAfTQZxxP8Yfn6gf1JAD3J1YmYgr31RrsNCOUV82Hbc88aTCTtSKzLxqw87kkYshe5NMErSFZsS5Rj0N83afNGMBwr4msC6JBUPqeQJz8Ydg", "width": 3000}], "place_id": "ChIJd2h8hcZlQQ0RqHTLnwWTci8", "plus_code": {"compound_code": "P4MV+CP Manzanares el Real, Spain", "global_code": "8CGRP4MV+CP"}, "rating": 5, "reference": "ChIJd2h8hcZlQQ0RqHTLnwWTci8", "scope": "GOOGLE", "types": ["park", "point_of_interest", "establishment"], "user_ratings_total": 37, "vicinity": "Calle del Milano, 2, Manzanares el Real"}, {"business_status": "OPERATIONAL", "geometry": {"location": {"lat": 40.7378085, "lng": -3.8657385}, "viewport": {"northeast": {"lat": 40.7391535802915, "lng": -3.864402019708498}, "southwest": {"lat": 40.73645561970851, "lng": -3.867099980291502}}}, "icon": "https://maps.gstatic.com/mapfiles/place_api/icons/v1/png_71/park-71.png", "icon_background_color": "#4DB546", "icon_mask_base_uri": "https://maps.gstatic.com/mapfiles/place_api/icons/v2/tree_pinlet", "name": "Acceso Senda Maeso (PR-M1)", "opening_hours": {"open_now": true}, "photos": [{"height": 3000, "html_attributions": ["<a href=\"https://maps.google.com/maps/contrib/108120952985739657062\">Wayne Sentance</a>"], "photo_reference": "AWn5SU4a1ZaT-BJ2kzJqFeKD26N_vPtIYCS1ne3vDxHhokf3rBb17lsRelUJ1QO-megJ0HKyNUFIIWbrgS8aMGjlga5t5JTMJ-3tu_JgXdrNahCfx9QrMIEwr2Myh28FI3EDX0QpzI79nXHFoUJeRhwqfrXyHdd1jTzy6gEk89drFAbkMng8D8sPYRS4tSKpVOhqKsY9IH3LTCDN5VXdRBqSFmFsDmfyZRdrDmew7soMhB1N9M6NA4hkbGaUiPoiV4oizc6ObeHIbWS_kMg9rwvrDj6j856Sw2GqvJznq5r5Soa3HGTRm292LVio1MhCmXAg3teiumfb9IsKRGDfdOXaq96zUAuFTkTVqK70Y5-Zop6Jm76Dx2l7zujKTcgDh88DxrgcJ9J3g9BmUOql_afVf7QkLc3HyAJLGyHDPDIT3MhnouUjPMabjpfysoo74zu4Sg_8tsbMdRtJpRaXfBkD4TIILZGsbGyI7BYFK9vpGErzc82B2ucRypU2EzGThwKuGPtChtYyaedao5fQ_WeNtoxreR3RSS75WHWgUNLh950qpyIpJP_sL9YXq7bsG2B6W19dIfOOEQ5zSfLjwtciNj5jrl7f_2yUHXX9oWp_3xwC_liWkX9RCxgWS4yk0EyDDg6NcQ", "width": 4000}], "place_id": "ChIJYYA5_CllQQ0RD7VRwc4Nm48", "plus_code": {"compound_code": "P4QM+4P Manzanares el Real, Spain", "global_code": "8CGRP4QM+4P"}, "rating": 4.5, "reference": "ChIJYYA5_CllQQ0RD7VRwc4Nm48", "scope": "GOOGLE", "types": ["park", "point_of_interest", "establishment"], "user_ratings_total": 378, "vicinity": "Calle de Menéndez Pidal, 14, Manzanares el Real"}, {"business_status": "OPERATIONAL", "geometry": {"location": {"lat": 40.71781769999999, "lng": -3.8540945}, "viewport": {"northeast": {"lat": 40.7191752302915, "lng": -3.852750719708498}, "southwest": {"lat": 40.71647726970851, "lng": -3.855448680291502}}}, "icon": "https://maps.gstatic.com/mapfiles/place_api/icons/v1/png_71/park-71.png", "icon_background_color": "#4DB546", "icon_mask_base_uri": "https://maps.gstatic.com/mapfiles/place_api/icons/v2/tree_pinlet", "name": "Paseo embalse de Santillana", "opening_hours": {"open_now": true}, "photos": [{"height": 2268, "html_attributions": ["<a href=\"https://maps.google.com/maps/contrib/117710025803999159179\">Jose Antonio González</a>"], "photo_reference": "AWn5SU4vf01r9Etsw7AvHUxK_ov2dEAWN1sfPlTMGFCkD0wM4pQRF-6kuK8GsjPvtGOScnUVfxdDgPGbjRfde-_hJSdNiumLLiBNOkCoUE_vXM5gxxTqveBMFHoap6hKmLZsIkEhiqT0RTCrswljPMDEn2gqB42WWT_4RC_sSQZwxPAN4Z4lc2PjFyiN5hv9HJywuvHPe_sgNp2WvXfzZtWQCuWNgQG6oNZgVEzbXmm_KHgVUz_e0BVQvcYNYDWOwqmOwM--MNkXF_WGJU7oQ_N2ipwNJnzzmsHv_nTHwY_V9dJFVd4RLmc9oKbP_WYkIapBtOFYbWO0l0IFoLm8uWFLEIq8t4Ztw2hLJU_o6NzSg7Az7_d1NE8rvEnUsvE3ocz2UFl756KKOv13luyZ_LwfJHVWnGsCYqNz5fJ2q28brHPzYMfANCjrfwaMOGXxRGYcJs9QVgIS7nNFw9yte7kFybpWqOCxBrF0xguzoQyjdsBW2R8midnskb4OoAnLILeMDIk0znJKGoJn-6bjwy9AsitN0aR6Hsgq9_XcFgzemf5vXoqIuyWNjPmlXwN0kKT21nZHxXI_bzyVYFpHKGT8YbOepbWnUcZ8-xcxy5X19Fnwg1QvdpFQFRi9ZxDybknK", "width": 4032}], "place_id": "ChIJn04sVBl7QQ0REEDFJax3ito", "plus_code": {"compound_code": "P49W+49 Manzanares el Real, Spain", "global_code": "8CGRP49W+49"}, "rating": 4.8, "reference": "ChIJn04sVBl7QQ0REEDFJax3ito", "scope": "GOOGLE", "types": ["park", "point_of_interest", "establishment"], "user_ratings_total": 34, "vicinity": "Manzanares el Real, Unnamed Road, 28410"}, {"business_status": "OPERATIONAL", "geometry": {"location": {"lat": 40.7383494, "lng": -3.857948500000001}, "viewport": {"northeast": {"lat": 40.73931125, "lng": -3.856920569708498}, "southwest": {"lat": 40.73546385, "lng": -3.859618530291502}}}, "icon": "https://maps.gstatic.com/mapfiles/place_api/icons/v1/png_71/park-71.png", "icon_background_color": "#4DB546", "icon_mask_base_uri": "https://maps.gstatic.com/mapfiles/place_api/icons/v2/tree_pinlet", "name": "Pradera de el Rodaje", "opening_hours": {"open_now": true}, "photos": [{"height": 2592, "html_attributions": ["<a href=\"https://maps.google.com/maps/contrib/104461146615760564668\">Pedro Madrid (Kwisatz Haderach)</a>"], "photo_reference": "AWn5SU4dqgrOCNzimO-lB4pC-sqbVr7zDZxfx5dkpRhF_z0MZeWwz4CdLgDfHgw3Gzl8Hoi2O42GE7s6nMM985LuI-EDfd6TnWMhqvFS2xcRecTu6-9TrDqMyv65dObCmplsyxXQgtjWOE__rmxdZ1IcsH1OwCLY0e2zdWF8bHSIcFHPQRS61jKvvsvO9MOz3S-Bgu-5JMfek_Xg90TWRVxTszr5cAThgvHi4hXORBDQvpyzJzokLpSwb0FFEO_oGTdGnXjzIfTw-hNaXDISGfdb9c8BIwSYvFfeqguDshYfQi485hJCfxRtW_L0R0wo__oPn2rkdR3taUNiXJYflWctdyI6P6v2VkinvcJ3vSPz8ZXjWmeLBTIgZ8808mMn6qiTVzoAlKsfLIogqgJi7-QojMLCsh037HrartrnHCnrTk2CKslcBc0YQBA8tKxCodcvSXe9jxWmpx_s3VOJLkZl7AjxxA_cxxl8DCBkL6I1xPZ1G67InoncAN49aD4FAzjvB_p0NhYrkXwe-ER23Aa1cAQusbNhdGhgl8CHGnD_NSZmctGTTrj-CUcimRo1WXgK4pAFK6tABJ5JogspP6vX82pOiyJtgsYgSljr1r67Xl9vudI22iy3dfTPx4DMLzBIwFiZ4w", "width": 4608}], "place_id": "ChIJTwV_GKtlQQ0RaCe36_miW4Q", "rating": 4.2, "reference": "ChIJTwV_GKtlQQ0RaCe36_miW4Q", "scope": "GOOGLE", "types": ["park", "point_of_interest", "establishment"], "user_ratings_total": 14, "vicinity": "P4QR+8R, Manzanares el Real"}, {"business_status": "OPERATIONAL", "geometry": {"location": {"lat": 40.7145851, "lng": -3.871730800000001}, "viewport": {"northeast": {"lat": 40.7159379302915, "lng": -3.870344019708497}, "southwest": {"lat": 40.7132399697085, "lng": -3.873041980291501}}}, "icon": "https://maps.gstatic.com/mapfiles/place_api/icons/v1/png_71/park-71.png", "icon_background_color": "#4DB546", "icon_mask_base_uri": "https://maps.gstatic.com/mapfiles/place_api/icons/v2/tree_pinlet", "name": "El Chaparral", "opening_hours": {"open_now": true}, "photos": [{"height": 3120, "html_attributions": ["<a href=\"https://maps.google.com/maps/contrib/108622257337208160945\">JAIME L. C.</a>"], "photo_reference": "AWn5SU4c7_kVaE6Jj0aoMerR4zbKgvK2DAx9FYU6clKUtIGCjdaj23l7fzUhpzxqWCcMVfxsmkDfEBfoME32WMu6jNgCK1VYePo_Q0WQqERbcNOasAGXQGhYxzhU9fZoAp9y4W293bnmsgONxNiS-PBCmE1Fqj8ssA7ZmRY-xPCJavgVrho4YU7VFABiDqZqV3I52V_rL6D2GtCOxnyCUJCDDWlOeuBSGQGKETULz6J3k07R5sCe_ZzCwUz2rjI5Rmw2k-TfSKxiR1H64jkZXpRdSmDewYCIOcu1cbDzW_6gSgbln_H6AR4RTzDGXKqbuIijJbIvvMD3xKKaMcWuyi_4grrvWYi1h2zZxWaU-_pE-528Ko1mvkEzMkUBRqYQavFMcRumEd18pMhUnLKH4_RmSNoUccs7rqKh5Lj8KbM-k9SNtxXSaRR5k6I4QwMt2mrxPEl-LHC-nYxLPMSqk3RKh7VvKMg6lKRrLHNsoxmRFtRNXYC1zFveWLPoWh6TwYRxbVHyaamyllWDVrRSd4HugJ_59QVp21F5aEKVfmpxZQjAJnmEhm_PsVKFcx1RBEJEEWY1wXKLXnhT6c3Di9kRGmx7GgGd_4fl45FT2HE9PT8OAK48kUG54LKlXF5GnJn4SkPJmg", "width": 4160}], "place_id": "ChIJeTDZteh7QQ0Rs0uxZbEsjUs", "plus_code": {"compound_code": "P47H+R8 Manzanares el Real, Spain", "global_code": "8CGRP47H+R8"}, "rating": 5, "reference": "ChIJeTDZteh7QQ0Rs0uxZbEsjUs", "scope": "GOOGLE", "types": ["park", "point_of_interest", "establishment"], "user_ratings_total": 4, "vicinity": "Calle de la Paz, Manzanares el Real"}, {"business_status": "OPERATIONAL", "geometry": {"location": {"lat": 40.7405278, "lng": -3.866861099999999}, "viewport": {"northeast": {"lat": 40.7418311, "lng": -3.86452275}, "southwest": {"lat": 40.7366179, "lng": -3.867640549999999}}}, "icon": "https://maps.gstatic.com/mapfiles/place_api/icons/v1/png_71/park-71.png", "icon_background_color": "#4DB546", "icon_mask_base_uri": "https://maps.gstatic.com/mapfiles/place_api/icons/v2/tree_pinlet", "name": "Miramar, 1148 msnm", "place_id": "ChIJ-QaccEFlQQ0RuVT8QHp9VGY", "reference": "ChIJ-QaccEFlQQ0RuVT8QHp9VGY", "scope": "GOOGLE", "types": ["park", "point_of_interest", "establishment"], "vicinity": "P4RM+67, Manzanares el Real"}, {"business_status": "OPERATIONAL", "geometry": {"location": {"lat": 40.74169369999999, "lng": -3.8588292}, "viewport": {"northeast": {"lat": 40.74304268029149, "lng": -3.857480219708497}, "southwest": {"lat": 40.74034471970849, "lng": -3.860178180291502}}}, "icon": "https://maps.gstatic.com/mapfiles/place_api/icons/v1/png_71/park-71.png", "icon_background_color": "#4DB546", "icon_mask_base_uri": "https://maps.gstatic.com/mapfiles/place_api/icons/v2/tree_pinlet", "name": "Recodo", "opening_hours": {"open_now": true}, "place_id": "ChIJZWprEZZlQQ0RtQ-YRsb-P_E", "reference": "ChIJZWprEZZlQQ0RtQ-YRsb-P_E", "scope": "GOOGLE", "types": ["park", "point_of_interest", "establishment"], "vicinity": "P4RR+MF, Manzanares el Real"}]