[{"business_status": "OPERATIONAL", "geometry": {"location": {"lat": 40.2303448, "lng": -3.99153}, "viewport": {"northeast": {"lat": 40.23164403029151, "lng": -3.990138769708498}, "southwest": {"lat": 40.22894606970851, "lng": -3.992836730291502}}}, "icon": "https://maps.gstatic.com/mapfiles/place_api/icons/v1/png_71/bank-71.png", "icon_background_color": "#909CE1", "icon_mask_base_uri": "https://maps.gstatic.com/mapfiles/place_api/icons/v2/bank-intl_pinlet", "international_phone_number": "+34 918 12 24 31", "name": "Eurocaja Rural", "opening_hours": {"open_now": false}, "place_id": "ChIJUf8sYVfrQQ0Rea4IP-4bGz8", "plus_code": {"compound_code": "62J5+49 El Álamo, Spain", "global_code": "8CGR62J5+49"}, "rating": 4.3, "reference": "ChIJUf8sYVfrQQ0Rea4IP-4bGz8", "scope": "GOOGLE", "types": ["bank", "atm", "finance", "point_of_interest", "establishment"], "user_ratings_total": 12, "vicinity": "Calle de las Escuelas, 14, El Álamo"}, {"business_status": "OPERATIONAL", "geometry": {"location": {"lat": 40.2310839, "lng": -3.989171499999999}, "viewport": {"northeast": {"lat": 40.23237908029149, "lng": -3.987802119708498}, "southwest": {"lat": 40.22968111970849, "lng": -3.990500080291503}}}, "icon": "https://maps.gstatic.com/mapfiles/place_api/icons/v1/png_71/atm-71.png", "icon_background_color": "#909CE1", "icon_mask_base_uri": "https://maps.gstatic.com/mapfiles/place_api/icons/v2/atm_pinlet", "international_phone_number": "+34 902 24 68 10", "name": "Bankia ATM", "opening_hours": {"open_now": true}, "photos": [{"height": 382, "html_attributions": ["<a href=\"https://maps.google.com/maps/contrib/104681020608872809504\">ATM CaixaBank - Cajero</a>"], "photo_reference": "AWn5SU4q0zR1icVwdGvGMkdX01PrWjcs0_6ZNzXj1wc2VcfdayV7by3IUMl-9LFiq8jq-feiHGGpgBGF8WhPjoiepUz_dPOZZRfOIEYIyWPK3HdNGolZ-m5wjpbRWqlUc6BTwXCE6oR8hwH1-0YhyJqQikaN1HiDQYuf78QxrSx7SatBW0dvarfPb7Yd0tBtShxn1bnlUYZcHNajjtsHUpGVyyRR2n3iJOcp7b9DF6mTgUWENqoJP5hqVRG7LCYjsN8Q7PeXEF-PJxdrK1PJ2NXwDfiB1rQD_Rky2s3Woef3AqoB1AF4RjNVI46FxC1p7ItvrQQ-r1G5vHQ", "width": 680}], "place_id": "ChIJmac66VfrQQ0R-TF2uFMtm1g", "plus_code": {"compound_code": "62J6+C8 El Álamo, Spain", "global_code": "8CGR62J6+C8"}, "rating": 3, "reference": "ChIJmac66VfrQQ0R-TF2uFMtm1g", "scope": "GOOGLE", "types": ["atm", "bank", "finance", "point_of_interest", "establishment"], "user_ratings_total": 2, "vicinity": "Avenida de Madrid, 25, El Álamo"}, {"business_status": "OPERATIONAL", "geometry": {"location": {"lat": 40.2309704, "lng": -3.9905054}, "viewport": {"northeast": {"lat": 40.2323111302915, "lng": -3.989091419708498}, "southwest": {"lat": 40.2296131697085, "lng": -3.991789380291502}}}, "icon": "https://maps.gstatic.com/mapfiles/place_api/icons/v1/png_71/bank-71.png", "icon_background_color": "#909CE1", "icon_mask_base_uri": "https://maps.gstatic.com/mapfiles/place_api/icons/v2/bank-intl_pinlet", "international_phone_number": "+34 918 12 24 24", "name": "Banco Santander Agentes", "opening_hours": {"open_now": false}, "photos": [{"height": 720, "html_attributions": ["<a href=\"https://maps.google.com/maps/contrib/114500466064166481383\">Banco Santander Agentes</a>"], "photo_reference": "AWn5SU6-X_KuXwLsSF8qX2u_C5mBBlMixoiILZUkW9W-V4iqkkHHun6RrLu-R4MT2NETx9OP9M9x6jbFtAIYoOVtTYyYH7RmJmWZ94iU1X3fPsgks9bpIarHc33eJqkPMPbwDC4F18moGChp7pFV9rId-hINNhuiloipNuVXWZBX8Wkfg6J-cUnAb1H-dNqMK2BZXaidFnA7Acc_qjveuQPHwvFT795O_OI-ggTfB7Hwslks3WVmkCpmMHUdFMwd8G3qY7dVaP1bLKuj6liX1JHIVU2RniuoS3jXDeJEQZ1Ix_bcup9cxjQXFthaGFC9-B2_uMpH9FH_mx0", "width": 1280}], "place_id": "ChIJRUARdlfrQQ0RkGuYnh4vPqc", "plus_code": {"compound_code": "62J5+9Q El Álamo, Spain", "global_code": "8CGR62J5+9Q"}, "rating": 1.8, "reference": "ChIJRUARdlfrQQ0RkGuYnh4vPqc", "scope": "GOOGLE", "types": ["bank", "atm", "finance", "point_of_interest", "establishment"], "user_ratings_total": 8, "vicinity": "Plaza de la Constitución, 8, El Álamo"}, {"business_status": "OPERATIONAL", "geometry": {"location": {"lat": 40.2309533, "lng": -3.9905123}, "viewport": {"northeast": {"lat": 40.2323100802915, "lng": -3.989094869708498}, "southwest": {"lat": 40.2296121197085, "lng": -3.991792830291502}}}, "icon": "https://maps.gstatic.com/mapfiles/place_api/icons/v1/png_71/atm-71.png", "icon_background_color": "#909CE1", "icon_mask_base_uri": "https://maps.gstatic.com/mapfiles/place_api/icons/v2/atm_pinlet", "name": "Santander ATM", "place_id": "ChIJ_-5xdlfrQQ0RGZy45q-7ANU", "plus_code": {"compound_code": "62J5+9Q El Álamo, Spain", "global_code": "8CGR62J5+9Q"}, "reference": "ChIJ_-5xdlfrQQ0RGZy45q-7ANU", "scope": "GOOGLE", "types": ["atm", "finance", "point_of_interest", "establishment"], "vicinity": "Plaza de la Constitución, 8, El Álamo"}]