[{"business_status": "OPERATIONAL", "geometry": {"location": {"lat": 40.498563, "lng": -4.065809}, "viewport": {"northeast": {"lat": 40.4999690302915, "lng": -4.064521469708498}, "southwest": {"lat": 40.4972710697085, "lng": -4.067219430291503}}}, "icon": "https://maps.gstatic.com/mapfiles/place_api/icons/v1/png_71/school-71.png", "icon_background_color": "#7B9EB0", "icon_mask_base_uri": "https://maps.gstatic.com/mapfiles/place_api/icons/v2/school_pinlet", "international_phone_number": "+34 657 98 00 93", "name": "Atlas gym Valdemorillo", "opening_hours": {"open_now": false}, "photos": [{"height": 2048, "html_attributions": ["<a href=\"https://maps.google.com/maps/contrib/112138771985922222785\">elena bernabeu brotons</a>"], "photo_reference": "AWn5SU6jBD2EipfeF7zttHr-VZCwP1LG6X_2wlfX96--bUbfCAu5uPTWuQU3DulZgjq5Q6nWLhCbmHZG5LFmUmzv6E36tR35_aZgBhk4yiU1sh8QQ9MswK0NTvib27hH_9GxeKTwT4lZu0MenpIOSemOb2UtU6hwoWLw7NUz4qFCg880cHT7soXhhbuoxtY5893X5c4VaWPPUKjFSpjHSzzSRa7_KNRVWRSwzi5kVeAP6CCqUHcWhdnE1N5OpeD_baUj6nlrax9krh2HiKyX_xbUalgiI_d23w-pgRcwHoRtx1OD1a5P7Q6WT3Ot3iXaEULXWeEwMnu2od6TCuPG0N1n1YALsgCG6M3Y-_9VaxGtZC2YU0l9rZx8s5BI2DDTwzaTAieUroU3KbRS4ix-x3o5uIBx4LFj4oOBPEKd0Qzx1Ud0fUCy6D7-4OrYXDsttrU4H2jfcfY_jAdXF4jfA-Ecz3kg2J7mfiUE0etu7-XXDh8Dy-BfMKora2qKB4Uzylu9UeAyq4D8e-ZGlnINxkM8z6WuGU2P-DNdZQd4cIAv7IIwWcPwOKhRrZfXpwoEy-X_3m5GNyccNjhWHKUVVWmVfJV7p5Ki1w8ddqfKnebkLBHuOonxBSyuI64LKf6IJkYprtPK4B0I", "width": 2048}], "place_id": "ChIJU1P16l6fQQ0RQ3sYjlvfTKw", "plus_code": {"compound_code": "FWXM+CM Valdemorillo, Spain", "global_code": "8CGQFWXM+CM"}, "rating": 4.9, "reference": "ChIJU1P16l6fQQ0RQ3sYjlvfTKw", "scope": "GOOGLE", "types": ["gym", "health", "point_of_interest", "establishment"], "user_ratings_total": 106, "vicinity": "Calle la Fuente, 39, Valdemorillo"}, {"business_status": "OPERATIONAL", "geometry": {"location": {"lat": 40.50882189999999, "lng": -3.9879263}, "viewport": {"northeast": {"lat": 40.5101893302915, "lng": -3.986559819708497}, "southwest": {"lat": 40.5074913697085, "lng": -3.989257780291502}}}, "icon": "https://maps.gstatic.com/mapfiles/place_api/icons/v1/png_71/generic_business-71.png", "icon_background_color": "#7B9EB0", "icon_mask_base_uri": "https://maps.gstatic.com/mapfiles/place_api/icons/v2/generic_pinlet", "international_phone_number": "+34 604 82 64 04", "name": "Desafio Paintball Madrid", "opening_hours": {"open_now": false}, "photos": [{"height": 600, "html_attributions": ["<a href=\"https://maps.google.com/maps/contrib/116004716835667044914\">Desafio Paintball Madrid</a>"], "photo_reference": "AWn5SU4WmNFQbi77mUPntiW342NtW_rSEW1al3q4PQ3J5vTVUTB6czcl6NGO2BdteGlcIvfL1Gpb5lxgb2kD7krxoujjC196NdvJ34n7WpX4oz-hyxV1SIt-9Xfj53pZsUSJtXVGZzw5ckA-rNOoxL1u2n125oUIL8LOZwlvogdIvW2Lw8GSiEZlA_0XXqhZVkyr7G1feBPOtvcjXCXPWljcvY2Ie3kIGW6Gs5IYGtjnpcfJ-mK8Z78fSFjJOUk7NhXfF0vJKGoVp3sYkiSWsi5VIDjq3GfgvwG-nn5zcVihdsD9IeaZMk78h_xexMCPwz9XEayq6lhn", "width": 800}], "place_id": "ChIJPxpvIJ6eQQ0R87DD7SUYlB8", "plus_code": {"compound_code": "G256+GR Las Cuestas, Spain", "global_code": "8CGRG256+GR"}, "rating": 4.9, "reference": "ChIJPxpvIJ6eQQ0R87DD7SUYlB8", "scope": "GOOGLE", "types": ["gym", "health", "point_of_interest", "establishment"], "user_ratings_total": 1107, "vicinity": "Camino de Cerro Tablado, S/N"}, {"business_status": "OPERATIONAL", "geometry": {"location": {"lat": 40.5011262, "lng": -4.0671358}, "viewport": {"northeast": {"lat": 40.5023600302915, "lng": -4.065703019708497}, "southwest": {"lat": 40.4996620697085, "lng": -4.068400980291502}}}, "icon": "https://maps.gstatic.com/mapfiles/place_api/icons/v1/png_71/generic_business-71.png", "icon_background_color": "#7B9EB0", "icon_mask_base_uri": "https://maps.gstatic.com/mapfiles/place_api/icons/v2/generic_pinlet", "name": "Eras", "place_id": "ChIJLXFqOQCfQQ0REKywUawT7KI", "plus_code": {"compound_code": "GW2M+F4 Valdemorillo, Spain", "global_code": "8CGQGW2M+F4"}, "reference": "ChIJLXFqOQCfQQ0REKywUawT7KI", "scope": "GOOGLE", "types": ["gym", "health", "point_of_interest", "establishment"], "vicinity": "Valdemorillo"}, {"business_status": "OPERATIONAL", "geometry": {"location": {"lat": 40.5013504, "lng": -4.068922400000001}, "viewport": {"northeast": {"lat": 40.5026853302915, "lng": -4.067519969708497}, "southwest": {"lat": 40.4999873697085, "lng": -4.070217930291502}}}, "icon": "https://maps.gstatic.com/mapfiles/place_api/icons/v1/png_71/school-71.png", "icon_background_color": "#7B9EB0", "icon_mask_base_uri": "https://maps.gstatic.com/mapfiles/place_api/icons/v2/school_pinlet", "international_phone_number": "+34 644 35 15 21", "name": "So Ham Shala", "opening_hours": {"open_now": true}, "photos": [{"height": 1701, "html_attributions": ["<a href=\"https://maps.google.com/maps/contrib/109990624935269821026\">So Ham Shala</a>"], "photo_reference": "AWn5SU7UaKSbNS9ABzIeY2Qd9qyW02NwiPtLnpukLvkB07IYLgcm8pYEAsRrJmUnDyTV4gdYBWa19Oj2z5lPWa8isuAhvnBGZN32jM4JjtOc0elTei_1IpXZgk_Vst6uQUDaeEkGiHxAWEUpwUiiTgA2G6oa2ndlO3k5HMvsYVm_amhjSpo_OR3WUhHd2quboL0DIKJ4pIV9yXESCxkhhzT4YidqxYy_AhqlLgJl0BnwNneO715wY2ao8N0Hvlb3X7ua4beDTM0g-yKqnM_Hh1v0G15tvyiqYkRv4P9-PvPOzMLm4p5d3plmme-GudcYWLjOhKh3MfNBwNg", "width": 3024}], "place_id": "ChIJdQtDXoKfQQ0RnT_SwcC0Yg4", "plus_code": {"compound_code": "GW2J+GC Valdemorillo, Spain", "global_code": "8CGQGW2J+GC"}, "rating": 5, "reference": "ChIJdQtDXoKfQQ0RnT_SwcC0Yg4", "scope": "GOOGLE", "types": ["gym", "health", "point_of_interest", "establishment"], "user_ratings_total": 50, "vicinity": "Calle la Nava, 4, bajo A, Valdemorillo"}, {"business_status": "CLOSED_TEMPORARILY", "geometry": {"location": {"lat": 40.4996171, "lng": -4.0683901}, "viewport": {"northeast": {"lat": 40.5009488302915, "lng": -4.067079819708498}, "southwest": {"lat": 40.4982508697085, "lng": -4.069777780291503}}}, "icon": "https://maps.gstatic.com/mapfiles/place_api/icons/v1/png_71/generic_business-71.png", "icon_background_color": "#7B9EB0", "icon_mask_base_uri": "https://maps.gstatic.com/mapfiles/place_api/icons/v2/generic_pinlet", "international_phone_number": "+34 693 33 97 07", "name": "Tu Otra Opción", "permanently_closed": true, "place_id": "ChIJq0g1QV6fQQ0RZFz07iIYlUc", "plus_code": {"compound_code": "FWXJ+RJ Valdemorillo, Spain", "global_code": "8CGQFWXJ+RJ"}, "reference": "ChIJq0g1QV6fQQ0RZFz07iIYlUc", "scope": "GOOGLE", "types": ["gym", "health", "point_of_interest", "establishment"], "vicinity": "Calle Pozo de la Nieve, 16, Valdemorillo"}, {"business_status": "OPERATIONAL", "geometry": {"location": {"lat": 40.498821, "lng": -4.0704038}, "viewport": {"northeast": {"lat": 40.50021728029149, "lng": -4.069087219708497}, "southwest": {"lat": 40.49751931970849, "lng": -4.071785180291502}}}, "icon": "https://maps.gstatic.com/mapfiles/place_api/icons/v1/png_71/generic_business-71.png", "icon_background_color": "#7B9EB0", "icon_mask_base_uri": "https://maps.gstatic.com/mapfiles/place_api/icons/v2/generic_pinlet", "international_phone_number": "+34 699 10 26 44", "name": "Pilates Valdemorillo.", "photos": [{"height": 2448, "html_attributions": ["<a href=\"https://maps.google.com/maps/contrib/114506081267777870954\">VIVIENDO EL PILATES Elena Cortes Garcia</a>"], "photo_reference": "AWn5SU6NNtNnOKfhzyfoDskMHnecQv2GgNUWbg0uWVvqM88x1s5-WqnaiEOIf0Z7a1eRz2_l1HGIjVhfJsit4semv_q8OGHXXQdiRuLnQx4Mt11cvTU3QvzcDvbloOF6lNZOIvzHVvINoQsGKylz4SRhywhMaU5t6_GXlrR0n0JNB1KvgxwdH5PguM-9EbHZsP43uW6Rn2mx5KiW79wH2Su-dn6zaCQm3DXg-HRjEEWHUMMxnKaVumobtbs7ZL8GPb_kpWT7iPycd8jzIMeWvCW_E2BDin-76IWC-aKZ92eYu_c_TYPfTNlQBSQ8q0uBJs5DPEpHFyC7cU91Mki_iGuesREgkzyJp7yJVKbZiLZaDfHej2_tcZWIFkdFACwPRwItaETxas1VQPbO6GNWOGYo22BrSBIt88_AxROKhDQqgkFKCC_azi5ZA66Yg32-aOyU51OKIcuQIenWBT2B1UEYYKk-tysCreL2yxkS2wC2FoDbJpClaykW4DdRVddN7nUwdZWYd7mIX7-ADJWXI3wMKdenI0gA3z2zffl4iIlyx-7bCzJuzHabsefK4PCi2IVbSQgyatdJdRS_mCoFOaGeYgiys_7AacUfz5DfEgzhfvvM_EGS_n7hXyJAFIuOORLkGKqfZsWh", "width": 3264}], "place_id": "ChIJgyrc1uqhQQ0RVXNs3uOGHws", "plus_code": {"compound_code": "FWXH+GR Valdemorillo, Spain", "global_code": "8CGQFWXH+GR"}, "rating": 4.5, "reference": "ChIJgyrc1uqhQQ0RVXNs3uOGHws", "scope": "GOOGLE", "types": ["gym", "health", "point_of_interest", "establishment"], "user_ratings_total": 15, "vicinity": "Avenida de Toros, 43, Valdemorillo"}, {"business_status": "OPERATIONAL", "geometry": {"location": {"lat": 40.4967568, "lng": -4.069415399999999}, "viewport": {"northeast": {"lat": 40.4981392802915, "lng": -4.068148219708497}, "southwest": {"lat": 40.4954413197085, "lng": -4.070846180291502}}}, "icon": "https://maps.gstatic.com/mapfiles/place_api/icons/v1/png_71/school-71.png", "icon_background_color": "#7B9EB0", "icon_mask_base_uri": "https://maps.gstatic.com/mapfiles/place_api/icons/v2/school_pinlet", "international_phone_number": "+34 604 27 85 09", "name": "FITNESS CLUB IVAN PERUJO VALDEMORILLO", "opening_hours": {"open_now": false}, "photos": [{"height": 1242, "html_attributions": ["<a href=\"https://maps.google.com/maps/contrib/103663065027227834002\">FITNESS CLUB IVAN PERUJO VALDEMORILLO</a>"], "photo_reference": "AWn5SU5tYF-j-vGxvIckDjTOlcvBpLZjPa1FRXv2BPV98TysagYWZA-rGzXqieKXGewb2Pw1mlkzvxmuupZxyTWQ1fz85pQY95vp7h1yUSaC1KeIqVCtURraYFoZqCut44qpvKINvHznLPXtacG0Vc7Jdgs50eB7SCYf4FlhZGp8f-zTmUDEHBdG5nB54-Uo4kAl0kRVkYIptCDM8jBJs0LSLvLsDt2AMG05ieYX4Mucc25iKrMUD2nepX4TKVa41MYzV6KLN5ZoJH5Idjy98aMZDjNBtOw7aSGMpTrRPCC_S7zNrbw_rKLq4STEiDDtLSJQ14yVerFh2vA", "width": 1242}], "place_id": "ChIJ28_sVr2fQQ0Rtf8A8jK8yMc", "plus_code": {"compound_code": "FWWJ+P6 Valdemorillo, Spain", "global_code": "8CGQFWWJ+P6"}, "rating": 4.6, "reference": "ChIJ28_sVr2fQQ0Rtf8A8jK8yMc", "scope": "GOOGLE", "types": ["gym", "health", "point_of_interest", "establishment"], "user_ratings_total": 174, "vicinity": "Camino Robledo de Chavela, 109, Valdemorillo"}, {"business_status": "OPERATIONAL", "geometry": {"location": {"lat": 40.4967568, "lng": -4.069415399999999}, "viewport": {"northeast": {"lat": 40.4981392802915, "lng": -4.068148219708497}, "southwest": {"lat": 40.4954413197085, "lng": -4.070846180291502}}}, "icon": "https://maps.gstatic.com/mapfiles/place_api/icons/v1/png_71/generic_business-71.png", "icon_background_color": "#7B9EB0", "icon_mask_base_uri": "https://maps.gstatic.com/mapfiles/place_api/icons/v2/generic_pinlet", "international_phone_number": "+34 633 70 00 16", "name": "ON SALUD ~ FISIOTERAPIA, OSTEOPATIA Y PILATES TERAPEUTICO", "opening_hours": {"open_now": false}, "photos": [{"height": 2268, "html_attributions": ["<a href=\"https://maps.google.com/maps/contrib/101154241716981339940\">ON SALUD ~ FISIOTERAPIA, OSTEOPATIA Y PILATES TERAPEUTICO</a>"], "photo_reference": "AWn5SU7ScNM0ThlCU_I3yx0xPOlrubQlyQwPLhyCjUM3p5u83MjmVuKlELnyZdZ7D5fwOjf0m83p894bGBLvhWgezMJdxmtrdMKW6cRXDA7lg8odOWgQWlYSfqB7yrzoAwaMemwcLONFEDQyStWOFnpox_YdH3loBjRlbcImKKo2Me5XinvJbqmSOw-UGCoP7rKrVV69tveLVdfkM9yCvvv5c4lArqfV-stejU19e3fT0la3VHV6cg1xsun1632EGsdWpeTNokeJTnyPSHGlWG4a4pT81h4M6fcLPi9Ye2ekeN6LmQxoMtLM5YXeTeadycp02ty1zRrB6hw", "width": 4032}], "place_id": "ChIJeU-Z9CyfQQ0RjDK7hPs9-DI", "plus_code": {"compound_code": "FWWJ+P6 Valdemorillo, Spain", "global_code": "8CGQFWWJ+P6"}, "rating": 5, "reference": "ChIJeU-Z9CyfQQ0RjDK7hPs9-DI", "scope": "GOOGLE", "types": ["gym", "health", "point_of_interest", "establishment"], "user_ratings_total": 48, "vicinity": "Camino Robledo de Chavela, 109, Valdemorillo"}, {"business_status": "OPERATIONAL", "geometry": {"location": {"lat": 40.4961423, "lng": -4.0408152}, "viewport": {"northeast": {"lat": 40.4974883802915, "lng": -4.039477219708497}, "southwest": {"lat": 40.49479041970851, "lng": -4.042175180291501}}}, "icon": "https://maps.gstatic.com/mapfiles/place_api/icons/v1/png_71/school-71.png", "icon_background_color": "#7B9EB0", "icon_mask_base_uri": "https://maps.gstatic.com/mapfiles/place_api/icons/v2/school_pinlet", "name": "Miyoga Wasi | Clases Online de Kundalini Yoga y Sanación Emocional", "opening_hours": {"open_now": true}, "photos": [{"height": 506, "html_attributions": ["<a href=\"https://maps.google.com/maps/contrib/110339782425936485585\">Miyoga Wasi | Clases Online de Kundalini Yoga y Sanación Emocional</a>"], "photo_reference": "AWn5SU7xLiO__HqlaoqcvT0J7JOEA-GVWQibdGcnSeT1wMN2tqRqVy3rFG_pD28kHL1pDV9uAM-Rq8AqgSSj3X1yMOiJ0bTTCBgWqsz3Sz39cjS107VsM92HUnoe7FswWQTjcy7Y7SOWkAwYL3hm5mG-4WG2VZ297AKfXomBUTJu3QyCClCvajiDhAiD7J-p9aF9GWK9mLAsL7EGV9Hq6_vSXmOCTXIaQaB79_M0DKnZd_SyTge6DjbEswdjzKVmLKZ83wWqkdOXkJVSLxvJQzqQkoHDFkKMYM4_MF-QcSd27h1GPRDETzsdN5CrBB6xlnsExqBshYVf2a0", "width": 828}], "place_id": "ChIJ31RrtMmdQQ0R0QJKJNY9OGU", "plus_code": {"compound_code": "FXW5+FM Valdemorillo, Spain", "global_code": "8CGQFXW5+FM"}, "rating": 5, "reference": "ChIJ31RrtMmdQQ0R0QJKJNY9OGU", "scope": "GOOGLE", "types": ["gym", "health", "point_of_interest", "establishment"], "user_ratings_total": 16, "vicinity": "Calle Jaras, 2, Valdemorillo"}, {"business_status": "OPERATIONAL", "geometry": {"location": {"lat": 40.4843312, "lng": -4.0376273}, "viewport": {"northeast": {"lat": 40.4857210802915, "lng": -4.036310119708497}, "southwest": {"lat": 40.4830231197085, "lng": -4.039008080291501}}}, "icon": "https://maps.gstatic.com/mapfiles/place_api/icons/v1/png_71/shopping-71.png", "icon_background_color": "#4B96F3", "icon_mask_base_uri": "https://maps.gstatic.com/mapfiles/place_api/icons/v2/shopping_pinlet", "international_phone_number": "+34 618 19 43 63", "name": "Classic Line Pilates", "opening_hours": {"open_now": false}, "photos": [{"height": 1536, "html_attributions": ["<a href=\"https://maps.google.com/maps/contrib/109785531741330032027\">Classic Line Pilates</a>"], "photo_reference": "AWn5SU5Dd09ZGyUoVaAd76eIXypybgOIFwBGMpoKFN4mKqFncO4mXV1Yc4HfL6BLqeJngIaFIDLS3mU8u0-OHhV_SRFVSeeqOa_ZIJBqU-KeKNO_CCLKy9lj7SHFBJOqHk5UTJ-Q9-KHn4QXgSCwtjsLwjYzYgsurTRNcgUChg0atielSvkzEpskQOaUKUUXSNQTMcwKgtwCqJIuBxE3HE9E6RWLYOU2drs4UiijtuI2GufG1ZHBml_rzpwiSpIM-Y3_SjT2wprTP3iF_aHBbuV8feQuCSkeGrcxBRHRXWm2gyPD0WEh66FF-31a6d_CxUVKTMTkRKiLUp0", "width": 2048}], "place_id": "ChIJo_UM-7WfQQ0Ryeh87rffVjY", "plus_code": {"compound_code": "FXM6+PW Madrid, Spain", "global_code": "8CGQFXM6+PW"}, "rating": 5, "reference": "ChIJo_UM-7WfQQ0Ryeh87rffVjY", "scope": "GOOGLE", "types": ["gym", "health", "point_of_interest", "store", "establishment"], "user_ratings_total": 17, "vicinity": "Calle Azor, 5, Madrid"}, {"business_status": "OPERATIONAL", "geometry": {"location": {"lat": 40.4867642, "lng": -4.032722300000001}, "viewport": {"northeast": {"lat": 40.4881390302915, "lng": -4.031303369708498}, "southwest": {"lat": 40.4854410697085, "lng": -4.034001330291503}}}, "icon": "https://maps.gstatic.com/mapfiles/place_api/icons/v1/png_71/school-71.png", "icon_background_color": "#7B9EB0", "icon_mask_base_uri": "https://maps.gstatic.com/mapfiles/place_api/icons/v2/school_pinlet", "international_phone_number": "+34 686 31 68 81", "name": "Edu Ramos Training Studio | Entrenador personal Valdemorillo", "opening_hours": {"open_now": false}, "photos": [{"height": 4672, "html_attributions": ["<a href=\"https://maps.google.com/maps/contrib/115147862870885811157\">Edu Ramos Training Studio | Entrenador personal Valdemorillo</a>"], "photo_reference": "AWn5SU4RC3j43DYrhGJmaXniDnAI72CrtfSWj9amhO5WIkttbV4668X0tc0qJGRrwb4Sa0CHwLDzyoj72_WWiN3tAtqoBzHCfn2LxOuMwkg7GfLmFYVYf4vKcd_ZVdmmrpUSl0cKHarUCIBmex24YcBFOZ8MDX6JGGrbY4UjhEzmj8lanstE1fz4nfUKKTc7K3OGCYOcwBMefomQPaxlJwqlE3tIAkC0RAEt9PEzS_mkgsnVm7rUyaA9ktP_bfBWuQzo7TUOs_ftwxd_f11hQiWuxIuOjdyhF9hI1SBGJPZo6Ngo687kVuXN1rxEJrKs_cVBQj264iFRfXE", "width": 7008}], "place_id": "ChIJAe9Nb5efQQ0RB5rBwe6H8rw", "plus_code": {"compound_code": "FXP8+PW Valdemorillo, Spain", "global_code": "8CGQFXP8+PW"}, "rating": 5, "reference": "ChIJAe9Nb5efQQ0RB5rBwe6H8rw", "scope": "GOOGLE", "types": ["gym", "health", "point_of_interest", "establishment"], "user_ratings_total": 72, "vicinity": "Calle Fresno del Mirador, 13, Valdemorillo"}, {"business_status": "OPERATIONAL", "geometry": {"location": {"lat": 40.48379, "lng": -4.0348}, "viewport": {"northeast": {"lat": 40.4851363302915, "lng": -4.033442169708498}, "southwest": {"lat": 40.4824383697085, "lng": -4.036140130291503}}}, "icon": "https://maps.gstatic.com/mapfiles/place_api/icons/v1/png_71/school-71.png", "icon_background_color": "#7B9EB0", "icon_mask_base_uri": "https://maps.gstatic.com/mapfiles/place_api/icons/v2/school_pinlet", "international_phone_number": "+34 618 19 43 63", "name": "Estudio de Pilates y Fisioterapia", "opening_hours": {"open_now": false}, "photos": [{"height": 1057, "html_attributions": ["<a href=\"https://maps.google.com/maps/contrib/103321793749051917947\">Estudio de Pilates y Fisioterapia</a>"], "photo_reference": "AWn5SU64eOPg8WCiexr0RdsBLcSzsoNDFyRBT1ZON2tahOZ0hK9WrCTXOOP_1MRygzlmhzwqujhWo8jKv0FVgrooI3Fi_3l3bQhNfqnETQ86UTPPuTZGWRfcXKjcIgGkuLp0pS47Se2zyxwGM5tHX6k4Ucua2LdVI4ms278bLjUxJQtAFxXbwD-c6JuBlUk-zXJGUkdu8y1mDIUP0Ck5xqtLndo9GPgq4eX9rKfOpmC2xQzDdA9BuRGghWALXo0ZQYEETCZuxhU_1o8mK7XEjAYFX9qbA1oo5QO6D-Qv0-nOlVhh_Nbdn6tL1M84yTymCICcukwWf4nrb14", "width": 1879}], "place_id": "ChIJYV5pabefQQ0R5n1IpozQFbw", "plus_code": {"compound_code": "FXM8+G3 Valdemorillo, Spain", "global_code": "8CGQFXM8+G3"}, "rating": 5, "reference": "ChIJYV5pabefQQ0R5n1IpozQFbw", "scope": "GOOGLE", "types": ["gym", "health", "point_of_interest", "establishment"], "user_ratings_total": 12, "vicinity": "Calle AZOR, URB. MIRADOR DEL ROMERO, 5, Navarredonda"}, {"business_status": "OPERATIONAL", "geometry": {"location": {"lat": 40.5362333, "lng": -4.101345799999999}, "viewport": {"northeast": {"lat": 40.5376205802915, "lng": -4.099947119708498}, "southwest": {"lat": 40.5349226197085, "lng": -4.102645080291502}}}, "icon": "https://maps.gstatic.com/mapfiles/place_api/icons/v1/png_71/school-71.png", "icon_background_color": "#7B9EB0", "icon_mask_base_uri": "https://maps.gstatic.com/mapfiles/place_api/icons/v2/school_pinlet", "international_phone_number": "+34 635 61 96 18", "name": "Mind and Consciousness", "photos": [{"height": 2592, "html_attributions": ["<a href=\"https://maps.google.com/maps/contrib/112759536608319633146\">Mente y Consciencia</a>"], "photo_reference": "AWn5SU6u_ns4zosbrzA7idPpP7kV0D5PI3KOwxyNTvgvebeFQdgii8n65EYIxh1GJPd7hn05u98xG_YFkAxWQ8TFc9r14WaTpAjbDR0iXh3yZqaKYoj1uKYTunvUXMH1mk2NJhOqugq9Ei8BJJn44depGXLCWklsTbe04gp_MNbSaawmf6wAt-9ZHLEgUpG-DZ1RN449J1hfw8PJrtpXsFOOSbm6S4DJK49q48xSHA8j5iLJXwJQkIdNLQraIsX0sfVTRbtuZCe55xpB2V2SPzmAfl837xMCggdkCTKz_Ea0gkMRNgNvU9_QCoAwSP8TCJmmJCUKMb9HrSM", "width": 1936}], "place_id": "ChIJ-UdVXFugQQ0RZkiAbPhb-ZQ", "plus_code": {"compound_code": "GVPX+FF Alcor, Spain", "global_code": "8CGQGVPX+FF"}, "rating": 5, "reference": "ChIJ-UdVXFugQQ0RZkiAbPhb-ZQ", "scope": "GOOGLE", "types": ["gym", "health", "point_of_interest", "establishment"], "user_ratings_total": 26, "vicinity": "Urb. Mojadillas, Valdemorillo/El Escorial"}, {"business_status": "OPERATIONAL", "geometry": {"location": {"lat": 40.4681627, "lng": -4.126979599999999}, "viewport": {"northeast": {"lat": 40.4695143802915, "lng": -4.125595169708497}, "southwest": {"lat": 40.4668164197085, "lng": -4.128293130291501}}}, "icon": "https://maps.gstatic.com/mapfiles/place_api/icons/v1/png_71/school-71.png", "icon_background_color": "#7B9EB0", "icon_mask_base_uri": "https://maps.gstatic.com/mapfiles/place_api/icons/v2/school_pinlet", "international_phone_number": "+34 685 57 85 27", "name": "La Leyenda Boxing", "opening_hours": {"open_now": false}, "photos": [{"height": 3000, "html_attributions": ["<a href=\"https://maps.google.com/maps/contrib/105856857600275551798\">La Leyenda Boxing</a>"], "photo_reference": "AWn5SU6_5vuWq1EAWzh9CxoSrGprRsD2j1grrpiTCpn6WOPJtOou90oOjcvXs5UQH_E7yEHt5ReUOSJx1xjyD1enyqNxBQhO69vD344GsLrOuCGgKLhY3YpZPvm-_Rq4W4THvfBqE9Gn9L21PNiwIsP5zKPQcCuASM4CdtNuLI9uO6Wg_oT3_s2VEQAQfwI8FaPWYFCdkFJNnfUBF5qTyLBbc9GAdxeZ8KyY8bWkcMMzi2w2tYaP7qKxJBYBGD5sbYCkawKFdC2eVYb5n0ceNGrV6cKBE8s_zo1jBU4JhewNY6L28ePeZCulygEoCeyItvC5o6KiZCC-7Ss", "width": 4000}], "place_id": "ChIJ0e8ADhWjQQ0RYeqGJCAi4SY", "plus_code": {"compound_code": "FV9F+76 Navalagamella, Spain", "global_code": "8CGQFV9F+76"}, "rating": 5, "reference": "ChIJ0e8ADhWjQQ0RYeqGJCAi4SY", "scope": "GOOGLE", "types": ["gym", "health", "point_of_interest", "establishment"], "user_ratings_total": 3, "vicinity": "M-521, 1, Navalagamella"}]