[{"business_status": "OPERATIONAL", "geometry": {"location": {"lat": 40.3139471, "lng": -3.4751122}, "viewport": {"northeast": {"lat": 40.3152267302915, "lng": -3.473793919708498}, "southwest": {"lat": 40.3125287697085, "lng": -3.476491880291501}}}, "icon": "https://maps.gstatic.com/mapfiles/place_api/icons/v1/png_71/school-71.png", "icon_background_color": "#7B9EB0", "icon_mask_base_uri": "https://maps.gstatic.com/mapfiles/place_api/icons/v2/school_pinlet", "international_phone_number": "+34 918 71 53 12", "name": "IES La Poveda", "opening_hours": {"open_now": false}, "place_id": "ChIJd_w4K5U-Qg0Rnkh1FldiyH4", "plus_code": {"compound_code": "8G7F+HX Arganda del Rey, Spain", "global_code": "8CGR8G7F+HX"}, "reference": "ChIJd_w4K5U-Qg0Rnkh1FldiyH4", "scope": "GOOGLE", "types": ["secondary_school", "school", "point_of_interest", "establishment"], "vicinity": "Calle Monte Potrero, s/n, Arganda del Rey"}, {"business_status": "OPERATIONAL", "geometry": {"location": {"lat": 40.34214, "lng": -3.51721}, "viewport": {"northeast": {"lat": 40.3434511802915, "lng": -3.515838869708499}, "southwest": {"lat": 40.3407532197085, "lng": -3.518536830291503}}}, "icon": "https://maps.gstatic.com/mapfiles/place_api/icons/v1/png_71/school-71.png", "icon_background_color": "#7B9EB0", "icon_mask_base_uri": "https://maps.gstatic.com/mapfiles/place_api/icons/v2/school_pinlet", "international_phone_number": "+34 918 92 50 07", "name": "Asociación Aranjuez Personas con Discapacidad Intelectual.", "place_id": "ChIJtbNQdvQ7Qg0R7LVXEMiYgd4", "plus_code": {"compound_code": "8FRM+V4 Madrid, Spain", "global_code": "8CGR8FRM+V4"}, "reference": "ChIJtbNQdvQ7Qg0R7LVXEMiYgd4", "scope": "GOOGLE", "types": ["secondary_school", "school", "point_of_interest", "establishment"], "vicinity": "Avenida 1º de Mayo, Nº 3, Madrid"}, {"business_status": "OPERATIONAL", "geometry": {"location": {"lat": 40.3678326, "lng": -3.5326439}, "viewport": {"northeast": {"lat": 40.36934018029149, "lng": -3.531478769708498}, "southwest": {"lat": 40.3666422197085, "lng": -3.534176730291502}}}, "icon": "https://maps.gstatic.com/mapfiles/place_api/icons/v1/png_71/school-71.png", "icon_background_color": "#7B9EB0", "icon_mask_base_uri": "https://maps.gstatic.com/mapfiles/place_api/icons/v2/school_pinlet", "international_phone_number": "+34 916 66 52 59", "name": "IES Duque De Rivas", "opening_hours": {"open_now": false}, "photos": [{"height": 1368, "html_attributions": ["<a href=\"https://maps.google.com/maps/contrib/111486704403978345305\">Yolanda Calvo</a>"], "photo_reference": "AWn5SU5oTrkL0dE32AOAVEUyg7mDF9ML0yGragZq6DqgdjmyqcCh3d9f47HQVoQKFfadaSHKSSpxJDtucLWteuYwnn_xGvmmeJrAteh2s6epuExqgqoDc_NTyABS16ihV0gqmY8QQ6t9dQHnQLJtlcUZej3LY6JNcKEVzktOJj5qATtOuKzjT-gc9aRkVztiBVDez4XCm99Ov8Df8apfmcLZ4YNRrFnNSDHgsaZOiLbtXsbVi23NzGW6kqornbyMyTXL3rZireyHX8pktNT4WLuXRGiitYZb58NbZUtcesOq3W1XP5Wn9vFW-3xBAiA7aE8rNP8C4ZUPmf6kH4J1p6069yFaeL8sfdb-iG29tTBHidaIv69FjabaeeNH--GzRqiYirWaY-TRkawCAR_90bpBsRkGsZYWrI2FrCO5n6omDyEQFcq75aOKne6dMK7zcuQESR-18MFcMiuoT5t_FRpBrBAgkmAfPBmCd_8HnJKzdtYUGRLwtARq4_yxlQqKOFHTxxyfN2GDw_tSng2w7cqsheOE2YadCOvFUIIPc2OhQtWX1Wz0QH-8YuCUJnTZQCBR0z0sbOZ93AtVOIPQwpyoXZtUVHd8DNthnU_yLwUiShmX4tNVwZrmSqjD7ssyNFHg2OiP4A", "width": 1824}], "place_id": "ChIJT679ZK87Qg0RAKVHuu3DCLo", "plus_code": {"compound_code": "9F98+4W Rivas-Vaciamadrid, Spain", "global_code": "8CGR9F98+4W"}, "reference": "ChIJT679ZK87Qg0RAKVHuu3DCLo", "scope": "GOOGLE", "types": ["secondary_school", "school", "point_of_interest", "establishment"], "vicinity": "Paseo de la Chopera, 64, Rivas-Vaciamadrid"}, {"business_status": "OPERATIONAL", "geometry": {"location": {"lat": 40.3563955, "lng": -3.528779}, "viewport": {"northeast": {"lat": 40.35802178029151, "lng": -3.527605219708498}, "southwest": {"lat": 40.35532381970851, "lng": -3.530303180291501}}}, "icon": "https://maps.gstatic.com/mapfiles/place_api/icons/v1/png_71/school-71.png", "icon_background_color": "#7B9EB0", "icon_mask_base_uri": "https://maps.gstatic.com/mapfiles/place_api/icons/v2/school_pinlet", "international_phone_number": "+34 916 70 27 56", "name": "IES Europa", "opening_hours": {"open_now": false}, "photos": [{"height": 886, "html_attributions": ["<a href=\"https://maps.google.com/maps/contrib/114564670650312459590\">Alejandro Mercado</a>"], "photo_reference": "AWn5SU4iHHOoVt_1rFmDe7173X3tO9pvywzvw2s_3fP734hezI_W1WhC9mEM65Y7oo3GMw7csiwTACH4j8Y0QNkAQprc2rfvexkvPtgDLJ9dwdK4Vmn25iKjGbg2-aLoOXHmAhMf4fC2nL8j6HoH9Tnok9TTTTwFpn6tTvJXUv8kZWVbNlJ3tS-EOiN5cXMfO6DamKaBZlHtOP78_ZLERHF0kT-LuE2twc9Ymc7JRlB3X-ybrx29e8msoHxnble-3XdRG2vCdL2qKkgO7f9XQRpbGzAl4xD9g-6nB4koTgTrrdPpqSLV5Gbvk0es_xJSZBXTaIGFRMHDQSlf1-E8VHX96DRJr0PqCOun6K3oGJvBxFrsr09ZE7mo7d0WGCHS_jl3ODThHvT7BMDqFKD59BLjKadtV-PxrFxFBfhVFCQWljAowiDNbNQUCw0bM0OPQybfLAna2ybe1Mi12UEyL_9CbZiuE8N8lznVSM0FQNg9wwMZJpI1-uyGkEuQm5-1N1tk3DhIYeJbwYNHFf9IihJBgc_j5FS6Po5cqm-j6dwp04b6L5kTO4hX3okRobx9gRR6CndhZWzKCVT1WrY5cnu-ihyLaMpVLXEGPt1ukOBqVnVlD6IIP7ZpsMkSK6SnXEGE4p9Ictyl", "width": 1181}], "place_id": "ChIJUSvLbb47Qg0RIqRpZkwuHtM", "plus_code": {"compound_code": "9F4C+HF Rivas-Vaciamadrid, Spain", "global_code": "8CGR9F4C+HF"}, "reference": "ChIJUSvLbb47Qg0RIqRpZkwuHtM", "scope": "GOOGLE", "types": ["secondary_school", "school", "point_of_interest", "establishment"], "vicinity": "Avenida Cerro del Telégrafo, 2, Rivas-Vaciamadrid"}, {"business_status": "OPERATIONAL", "geometry": {"location": {"lat": 40.3718289, "lng": -3.4833984}, "viewport": {"northeast": {"lat": 40.3731322302915, "lng": -3.482318269708498}, "southwest": {"lat": 40.3704342697085, "lng": -3.485016230291502}}}, "icon": "https://maps.gstatic.com/mapfiles/place_api/icons/v1/png_71/school-71.png", "icon_background_color": "#7B9EB0", "icon_mask_base_uri": "https://maps.gstatic.com/mapfiles/place_api/icons/v2/school_pinlet", "international_phone_number": "+34 916 60 89 87", "name": "IES Ana María Matute", "opening_hours": {"open_now": false}, "place_id": "ChIJOTXwt3M5Qg0RVX_2Nxy5ZIw", "plus_code": {"compound_code": "9GC8+PJ Velilla de San Antonio, Spain", "global_code": "8CGR9GC8+PJ"}, "reference": "ChIJOTXwt3M5Qg0RVX_2Nxy5ZIw", "scope": "GOOGLE", "types": ["secondary_school", "school", "point_of_interest", "establishment"], "vicinity": "Calle Olivar, 14, Velilla de San Antonio"}, {"business_status": "OPERATIONAL", "geometry": {"location": {"lat": 40.36226850000001, "lng": -3.5476847}, "viewport": {"northeast": {"lat": 40.3638357302915, "lng": -3.546408219708499}, "southwest": {"lat": 40.3611377697085, "lng": -3.549106180291502}}}, "icon": "https://maps.gstatic.com/mapfiles/place_api/icons/v1/png_71/school-71.png", "icon_background_color": "#7B9EB0", "icon_mask_base_uri": "https://maps.gstatic.com/mapfiles/place_api/icons/v2/school_pinlet", "international_phone_number": "+34 916 66 00 03", "name": "IES Lagunas", "opening_hours": {"open_now": false}, "photos": [{"height": 792, "html_attributions": ["<a href=\"https://maps.google.com/maps/contrib/114564670650312459590\">Alejandro Mercado</a>"], "photo_reference": "AWn5SU5teKItHcTdiPSiX4wl2LsmJkOQcMqLgPKJQ8xssFoTGOwdTtMXnGBhWhzm9FITx_DdYhWvnpjjnhg72J0iRSRipzkDIHJSV7UV6UbnrfJV_55i5LGwdtyOyrK3CoZILo1RC5NOuJs_0pImec_kO90QnDgIUxRwwl9c8tKUg5FQeKDyYlv1kRS_HzDxXMQfldJW8cse442OzPThjq4znZdkRIcHLDTDPWUpeFI60YkpNq2NXQAIZ1IRJ3XHxU_NqUWGtoEVMn2JU3nApTZ0BVdgmW2oRJWZADZFWLpuvXbfkNZ-n4AZpvNjgUR8EmoFn1Ej2e4O5yQuK60iSXMKblAEFsSXZnQsCeUL9b8wUCO1Uui8D90liCHSZEci1EzD89_61ypwI2qgWAn5DNXdhp-Cd29uCxGSjrPt2hLttGDTAWyZ1Susb_i274uOs6Iffyw-TBOeprJ5Uqkt_I8wZIOykjRiRqP4_DuSNj3SEqnRLdtJnZR3vQT6PMZ0GaqDhvq5LoGyDLVSuPP63ByiAyWNA9zxAYvg6J2xMYkQgYEWP7thVQaODmvPieG0Qzsh2nNVy72TnnAgNrMdzbAqgpNZcEhnHo6YvnEdRdPcnaJEhNvVCvHBRSmpAnMInFLc", "width": 1056}], "place_id": "ChIJVYJ03A07Qg0RaZYGXt_TQm4", "plus_code": {"compound_code": "9F62+WW Rivas-Vaciamadrid, Spain", "global_code": "8CGR9F62+WW"}, "reference": "ChIJVYJ03A07Qg0RaZYGXt_TQm4", "scope": "GOOGLE", "types": ["secondary_school", "school", "point_of_interest", "establishment"], "vicinity": "Avenida de Gabriel García Márquez, s/n, Rivas-Vaciamadrid"}, {"business_status": "OPERATIONAL", "geometry": {"location": {"lat": 40.39066949999999, "lng": -3.4845098}, "viewport": {"northeast": {"lat": 40.39212248029149, "lng": -3.482838869708498}, "southwest": {"lat": 40.38942451970849, "lng": -3.485536830291502}}}, "icon": "https://maps.gstatic.com/mapfiles/place_api/icons/v1/png_71/school-71.png", "icon_background_color": "#7B9EB0", "icon_mask_base_uri": "https://maps.gstatic.com/mapfiles/place_api/icons/v2/school_pinlet", "international_phone_number": "+34 916 68 01 43", "name": "IES Miguel Delibes", "opening_hours": {"open_now": false}, "photos": [{"height": 808, "html_attributions": ["<a href=\"https://maps.google.com/maps/contrib/107010113161042437384\">Raquel Blanco</a>"], "photo_reference": "AWn5SU6n_p_JvMb276UEdf9-1_OKn8i1AITOrXCcyLzs85boZTqAUuYl_k5ffAzDAhBSKH5CFImA0jQQX-0Dc2AZTE7rm7FA7kEFTrPFcRtCk1KaRaDJYmqKs5VpcWUm_JlTboiS-NOfjtuh3mYnc-dra0pljaQ_HbO0-EIOkTFgGiMqcm1HgDTYot3rfz5ZTLBh1RvuZvvwQS3ST0ifypRqRUcgfYJscuJJuhtf-q3-9Fd9oIAX47YOGgTBv0yw1Oavf4FcpFP90y90el-QHZmZ2_kQlC6HOXp-_lYGR5vIfRLPlBnkaYv_GqHbuRkT9o-nNirFX4eMz0WKKIxmvoWyX4GK1ZEHudRpSEjwoJt6rLvSYpqP3Yd1jFafUqUBycSLbDG-IMSurr7t47Q9rWGBdRwqKGE9pnTVJrV0n_9AYoL7J49fUqWiQmU2B0ndItWKAw2fUmXxxaoRH0Dx1x-uD0wfrc4yA4I3lFmpPUgMD2yE1SST1TZaG7HE6SWw2cdUjLxm2MwhAvp5XPGKutDy6oEJg69-VPYTR7M8u6zjKw1FZzkk_QOUNCEEIF4MIbaSNqosGz5DEzRHKeFYXjGg6i5uozi1bxcDItTp4OEl4TfcN-LoGgka8TvJeluJ7mdjPw0aAw", "width": 675}], "place_id": "ChIJZSqqIpc5Qg0RkD4kEUKWYTQ", "plus_code": {"compound_code": "9GR8+75 Mejorada del Campo, Spain", "global_code": "8CGR9GR8+75"}, "reference": "ChIJZSqqIpc5Qg0RkD4kEUKWYTQ", "scope": "GOOGLE", "types": ["secondary_school", "school", "point_of_interest", "establishment"], "vicinity": "Avenida Juan Gris, 44, Mejorada del Campo"}, {"business_status": "OPERATIONAL", "geometry": {"location": {"lat": 40.35275780000001, "lng": -3.515587600000001}, "viewport": {"northeast": {"lat": 40.3542543302915, "lng": -3.514453269708498}, "southwest": {"lat": 40.3515563697085, "lng": -3.517151230291502}}}, "icon": "https://maps.gstatic.com/mapfiles/place_api/icons/v1/png_71/school-71.png", "icon_background_color": "#7B9EB0", "icon_mask_base_uri": "https://maps.gstatic.com/mapfiles/place_api/icons/v2/school_pinlet", "international_phone_number": "+34 914 99 69 34", "name": "IES Antares", "opening_hours": {"open_now": false}, "photos": [{"height": 500, "html_attributions": ["<a href=\"https://maps.google.com/maps/contrib/114564670650312459590\">Alejandro Mercado</a>"], "photo_reference": "AWn5SU4NxiR7Ie3KzpLbKO39aO1QLmnxERHsLrmzRLMK3wTSWvJTRRS2vhq4Ayg9id1i8ga83vhN2zeis4Zi9DsKUTOpDnYKNpCbYLe4Gd1o5E46c6ZBhuYwkua-vR4jI3P00sErEBz45svn-OCfkYwhZGVglMqo4VWCKrTMd5D6ylcOD2v2Vq-pOSrdvHmTqPjBt1eXClyC46E3-kjDdQ2NFDXVb0CFs4CyLqSr4NmpQe034pEO0iHJmVYCUBjS-K2KpOdhsZq_Too3hdzAsI532isiInZa2eLmCaS8ORh0LEvmWok9aVnL8CylG0aH6Y0U3dpHc5V-t-A6ctyAZApt0D8W6f8iuAI42fqOCw6wlxfHXC-MlFTVTH8XpbGtqUQ7LQiRJVigyucpVUaqxbB2xQHpNabsg31kK_CMnTZovtUTRJ_ik-u5Lt3cnVZFG71EdB9Enl2qbDNS1iiMS0rNBqWa_qUBApSbshxAsTIPMHkFJbeDM4U4Z7tl-IMl4-iCUc3Zyp13j2ucUzwADaGtBEuPwzRfyMrV2X-ccw04bvOR_J4nxA8coPEjcMf-lOh1GEuKScULqRgeAdCkWwBEaUth_0eUvQEDlIf4YrNNy_zJepT9zUjZK7A0t6ss_nOJ", "width": 793}], "place_id": "ChIJAwKKCOw7Qg0ReYwRudiKrEY", "plus_code": {"compound_code": "9F3M+4Q Rivas-Vaciamadrid, Spain", "global_code": "8CGR9F3M+4Q"}, "reference": "ChIJAwKKCOw7Qg0ReYwRudiKrEY", "scope": "GOOGLE", "types": ["secondary_school", "school", "point_of_interest", "establishment"], "vicinity": "Calle Fernando Trueba, 10, Rivas-Vaciamadrid"}, {"business_status": "OPERATIONAL", "geometry": {"location": {"lat": 40.3965068, "lng": -3.486805}, "viewport": {"northeast": {"lat": 40.3977886302915, "lng": -3.485441369708498}, "southwest": {"lat": 40.3950906697085, "lng": -3.488139330291502}}}, "icon": "https://maps.gstatic.com/mapfiles/place_api/icons/v1/png_71/school-71.png", "icon_background_color": "#7B9EB0", "icon_mask_base_uri": "https://maps.gstatic.com/mapfiles/place_api/icons/v2/school_pinlet", "international_phone_number": "+34 916 79 22 63", "name": "Colegio Público Jarama", "opening_hours": {"open_now": false}, "place_id": "ChIJQ1XGppM5Qg0RZfnsUIzwtx0", "plus_code": {"compound_code": "9GW7+J7 Mejorada del Campo, Spain", "global_code": "8CGR9GW7+J7"}, "reference": "ChIJQ1XGppM5Qg0RZfnsUIzwtx0", "scope": "GOOGLE", "types": ["secondary_school", "school", "point_of_interest", "establishment"], "vicinity": "Calle de la Virgen de las Angustias, 2, Mejorada del Campo"}, {"business_status": "OPERATIONAL", "geometry": {"location": {"lat": 40.3745541, "lng": -3.5390049}, "viewport": {"northeast": {"lat": 40.3759294802915, "lng": -3.537787669708498}, "southwest": {"lat": 40.3732315197085, "lng": -3.540485630291502}}}, "icon": "https://maps.gstatic.com/mapfiles/place_api/icons/v1/png_71/school-71.png", "icon_background_color": "#7B9EB0", "icon_mask_base_uri": "https://maps.gstatic.com/mapfiles/place_api/icons/v2/school_pinlet", "international_phone_number": "+34 916 66 58 59", "name": "Colegio y institulo público La Luna", "opening_hours": {"open_now": false}, "photos": [{"height": 1527, "html_attributions": ["<a href=\"https://maps.google.com/maps/contrib/116967071413835206013\">chicopequeno</a>"], "photo_reference": "AWn5SU4hUCEba5lQP5BBqQznhvSsOQ5u4N0RnyidDfQ-H8zh_thdhRepvyGQ3WfagpOdWquh5EmXYQYxcYt7dfQWG95mC1SRW70gyEuysL8fIRoneIIG6QMuAO-0Pco4c9NaVGXooYTlo45mdhYsSZiqJXoDk5M1zcwCJTXQ5pW7Jjn_q2BpgMqhr5UjyB0gCI3TwrQKc8eq_XRgY2q5l2v7MS_P4ffaSiOR0Oe9ZpRzRrCK6h5Fpt9zRinEA2jxlgkSMPvx-HgYwtf3PG9muzDmDn2lxterdaLQ61e7_rcgsWoovZB8XTxGxEBFE2AuoafiYGMK0x5WIvvozLP5_bHsZI0qTDz-rroOnYcYlRZbmeRuhLuJriPsP6aod6dUSP0j8fVxkyftppbzzbVG4g86nE5m_UMrWZWsSom0sM9ktdXFPQ2A4_KSAfpb44VF9lzzEgI1rmtqMQmaQCB_Qiyg294hDPa5RObG2OBxps6omstZColZalxZnd3Z6M19INaD43VsbZFmY2y0sOilOje3h2q9ZoEyQXYBOkIghLeo0fGhb1_d-pQqjPCtVOb_3iDohUzAwkwqV-bOmQGmXB3E82-f61CqNl9lSOwzozXzOrtGDVL475tWb4I6w9yu0D5CuZsZWg", "width": 1125}], "place_id": "ChIJC2fLl0U7Qg0RqNDjgN69qyw", "plus_code": {"compound_code": "9FF6+R9 Madrid, Spain", "global_code": "8CGR9FF6+R9"}, "reference": "ChIJC2fLl0U7Qg0RqNDjgN69qyw", "scope": "GOOGLE", "types": ["secondary_school", "school", "point_of_interest", "establishment"], "vicinity": "Av.tierra-dulce Chacón, Madrid"}, {"business_status": "OPERATIONAL", "geometry": {"location": {"lat": 40.33242489999999, "lng": -3.5142087}, "viewport": {"northeast": {"lat": 40.3338241302915, "lng": -3.513015269708498}, "southwest": {"lat": 40.3311261697085, "lng": -3.515713230291502}}}, "icon": "https://maps.gstatic.com/mapfiles/place_api/icons/v1/png_71/school-71.png", "icon_background_color": "#7B9EB0", "icon_mask_base_uri": "https://maps.gstatic.com/mapfiles/place_api/icons/v2/school_pinlet", "international_phone_number": "+34 916 70 41 12", "name": "IES Professor Julio Pérez", "opening_hours": {"open_now": false}, "photos": [{"height": 600, "html_attributions": ["<a href=\"https://maps.google.com/maps/contrib/114564670650312459590\">Alejandro Mercado</a>"], "photo_reference": "AWn5SU47orgMc4ECZYKjWbPEn8YJ8IUqLkoK2nBlEiEBlGjex0x6Dkj7uyXw-5aYVjPoUEWuXnBh62dwVD29JMJvqsC1ZwSc_T6XV-isqZU0x_hplwz1iv39l0Kg-zxBBvPG3zBjwasqo-ViacYbY9lTCFcKfZPCbd4xhk1pdP3JPud3Mi_PZUG19Beifwp6Sfu8uh3dkCfzJsVgSsxvhyOExz3y4LMibtiMqQxvRQaFKd9Q-JboyP_77vnxo_UqKx7F4iLKhLQXlm6GSz9fFk2s44SlxeeVmdPJdL_MKp5cLDDjqic6f4tZQrJxUm-LtlOjbt2lBUGcpZU1emHD3v3HT0XeMmOR8eEH6LeaUX06Uq25zjFF4a-Bw5FZqFpMcWMRr2oe51eVAjdLaG0eY82Gos8M8qnrz9ohoDIT9Ea7Ht09TiavU0Zp_EPbwaZyLXOTkHuPwAaAps_en4vg17v2q_g1lhVGdBlZNE_uor6fuJo3Z4X1EuWsz65fEAjlbmByuLmD0NVI63B5JqY1LXyCDg8yqwMROOnxmcNYXnZ4Eg9N54swet2oghybjyvmaNcZ9touJv-odG9xKogSJ7c7HSZDaEGvKdkwQ6P2uPYBVMwyNEBwLezkQdkHBwEKGFu8C49fAQ", "width": 800}], "place_id": "ChIJW9W9gBo8Qg0RY5NTM1eE0KI", "plus_code": {"compound_code": "8FJP+X8 Rivas-Vaciamadrid, Spain", "global_code": "8CGR8FJP+X8"}, "reference": "ChIJW9W9gBo8Qg0RY5NTM1eE0KI", "scope": "GOOGLE", "types": ["secondary_school", "school", "point_of_interest", "establishment"], "vicinity": "Avenida de Levante, 141, Rivas-Vaciamadrid"}, {"business_status": "OPERATIONAL", "geometry": {"location": {"lat": 40.344553, "lng": -3.5329849}, "viewport": {"northeast": {"lat": 40.34596803029149, "lng": -3.531754319708498}, "southwest": {"lat": 40.3432700697085, "lng": -3.534452280291502}}}, "icon": "https://maps.gstatic.com/mapfiles/place_api/icons/v1/png_71/school-71.png", "icon_background_color": "#7B9EB0", "icon_mask_base_uri": "https://maps.gstatic.com/mapfiles/place_api/icons/v2/school_pinlet", "international_phone_number": "+34 634 40 64 12", "name": "Grado medio", "place_id": "ChIJ0cYGKwA7Qg0RR6NcIgDmx9s", "plus_code": {"compound_code": "8FV8+RR Rivas-Vaciamadrid, Spain", "global_code": "8CGR8FV8+RR"}, "reference": "ChIJ0cYGKwA7Qg0RR6NcIgDmx9s", "scope": "GOOGLE", "types": ["secondary_school", "school", "point_of_interest", "establishment"], "vicinity": "Calle Mariano Fortuny, 4, Rivas-Vaciamadrid"}, {"business_status": "OPERATIONAL", "geometry": {"location": {"lat": 40.4146752, "lng": -3.5210316}, "viewport": {"northeast": {"lat": 40.4161356302915, "lng": -3.519718369708498}, "southwest": {"lat": 40.4134376697085, "lng": -3.522416330291501}}}, "icon": "https://maps.gstatic.com/mapfiles/place_api/icons/v1/png_71/school-71.png", "icon_background_color": "#7B9EB0", "icon_mask_base_uri": "https://maps.gstatic.com/mapfiles/place_api/icons/v2/school_pinlet", "international_phone_number": "+34 916 72 35 39", "name": "IES Jaime Ferran i Clua", "opening_hours": {"open_now": false}, "photos": [{"height": 2592, "html_attributions": ["<a href=\"https://maps.google.com/maps/contrib/102734959335054068994\">IES Jaime Ferrán Clúa</a>"], "photo_reference": "AWn5SU73F-ZEQEdMjMP9FENrHw4Q29sBN7clRUb7JTvHdznzqQs93WFN6dlhOa8H4R9WMsdOPD4Mzo_5E_HF7U1gmw1wv2_7YmOrE2Pg85bYs2Fibr8CsJS2_Orx7TCRQf3UXtnAmguf9NhH6rz7aq7nZ_y-KPnnMds4WHY0CuQ9v0-C1-RSwMAQ2dSZ9N908SRjhdzZnjHeWV4HmKIbApkRQ-6mYV6j7ZuWNCaIjaRkJldogrUBeJcqvypgfI0rbBDwIVUojQEuv_rbX4LrqlJi0vYliVsD6EoN8aAB7qIA1L-wz5JYATEdxFFz10F0Hlhp9eXor_HJ8_M", "width": 4608}], "place_id": "ChIJy2qKwHQ6Qg0R75z3VP6-DPc", "plus_code": {"compound_code": "CF7H+VH San Fernando de Henares, Spain", "global_code": "8CGRCF7H+VH"}, "reference": "ChIJy2qKwHQ6Qg0R75z3VP6-DPc", "scope": "GOOGLE", "types": ["secondary_school", "school", "point_of_interest", "establishment"], "vicinity": "Calle Jean-Paul Sartre, s/n, San Fernando de Henares"}, {"business_status": "OPERATIONAL", "geometry": {"location": {"lat": 40.3798482, "lng": -3.4215418}, "viewport": {"northeast": {"lat": 40.3811570302915, "lng": -3.420198569708498}, "southwest": {"lat": 40.3784590697085, "lng": -3.422896530291502}}}, "icon": "https://maps.gstatic.com/mapfiles/place_api/icons/v1/png_71/school-71.png", "icon_background_color": "#7B9EB0", "icon_mask_base_uri": "https://maps.gstatic.com/mapfiles/place_api/icons/v2/school_pinlet", "international_phone_number": "+34 916 74 14 13", "name": "IES Marie Curie", "opening_hours": {"open_now": false}, "place_id": "ChIJld4zGwA5Qg0Ryn8KD_dPY1I", "plus_code": {"compound_code": "9HHH+W9 Loeches, Spain", "global_code": "8CGR9HHH+W9"}, "reference": "ChIJld4zGwA5Qg0Ryn8KD_dPY1I", "scope": "GOOGLE", "types": ["secondary_school", "school", "point_of_interest", "establishment"], "vicinity": "Calle del Tomillo, 3, Loeches"}]