[{"business_status": "OPERATIONAL", "geometry": {"location": {"lat": 40.3817581, "lng": -4.260087899999999}, "viewport": {"northeast": {"lat": 40.3828228802915, "lng": -4.258771919708496}, "southwest": {"lat": 40.3801249197085, "lng": -4.261469880291501}}}, "icon": "https://maps.gstatic.com/mapfiles/place_api/icons/v1/png_71/park-71.png", "icon_background_color": "#4DB546", "icon_mask_base_uri": "https://maps.gstatic.com/mapfiles/place_api/icons/v2/tree_pinlet", "international_phone_number": "+34 646 45 09 67", "name": "Estudio y Reflexión Navas del Rey Park", "opening_hours": {"open_now": false}, "photos": [{"height": 3120, "html_attributions": ["<a href=\"https://maps.google.com/maps/contrib/109632556183190324596\">Sylvia Z</a>"], "photo_reference": "AWn5SU5DuuIZf1sf2JFk75UTXufNV-jCsenemXHA7neYUYiLRK34MOFs-qbS21MzfAkxnLsxET5Tt69bHwLrC9n6DNoY4S48DrroaLgSUdfXszkQqzs2ZBgvI07TXjixMp2JRC7lpWY306r48PYKOZQNuVOYNTbsQuSMpe_UBDsP8p7-GMG9U-a28E1gzxu0Ao9V9zSCDjlU9taMccXV7PMRnAr_M4cLV0_2ZczosaUBEhUI98c9WuutL8KzNUXDFpSofxcMGkPH1wy8_HCrdXIoy5pMZoQziR0XAwruhOIbtWd2tXd-mnz2BrUUvQFiNJsvTWw0fQcAkdIdZBS5I7WioZS6NyzqT5xShfcWpXwHkFMG3hXEluU8XMOGvuETC2YXKceTSDCehVvO2skLv9J8kv_edbpD5XkZTK0rmJ1pPQw24KMEeLBHfldll_V_YeH2FeEzU4jyIQtRjSNAcEBbrYrLfYUZCJBThQptKW1Iau41GUC6AeZc6V48EKHTx_V75N0rWjNbjsiWUpIzaseF24qnoHXctFGHo16DWHdkNSYIWJ1aMwV6aHj4HVzcJtkkN8xam3fD3Dyd9D3lcjlGIy9msxQyna2IxBIkPnyn3vvoGGPVz_e8YM5pTlhBUtWeldo7eA", "width": 4160}], "place_id": "ChIJFS2nbTuwQQ0RQDDtsF4K6mc", "plus_code": {"compound_code": "9PJQ+PX Navas del Rey, Spain", "global_code": "8CGQ9PJQ+PX"}, "rating": 4.8, "reference": "ChIJFS2nbTuwQQ0RQDDtsF4K6mc", "scope": "GOOGLE", "types": ["park", "tourist_attraction", "point_of_interest", "establishment"], "user_ratings_total": 27, "vicinity": "M-855, Navas del Rey"}, {"business_status": "OPERATIONAL", "geometry": {"location": {"lat": 40.3671517, "lng": -4.3228309}, "viewport": {"northeast": {"lat": 40.3683481302915, "lng": -4.321546319708498}, "southwest": {"lat": 40.3656501697085, "lng": -4.324244280291502}}}, "icon": "https://maps.gstatic.com/mapfiles/place_api/icons/v1/png_71/generic_business-71.png", "icon_background_color": "#7B9EB0", "icon_mask_base_uri": "https://maps.gstatic.com/mapfiles/place_api/icons/v2/generic_pinlet", "international_phone_number": "+34 918 52 25 46", "name": "AVENTURA AMAZONIA PELAYOS. Parque de multiaventura y tirolinas para adultos y niños. Despedidas, Cumples y Teambuilding", "opening_hours": {"open_now": false}, "photos": [{"height": 3840, "html_attributions": ["<a href=\"https://maps.google.com/maps/contrib/102753952841557182713\">AVENTURA AMAZONIA PELAYOS. Parque de multiaventura y tirolinas para adultos y niños. Despedidas, Cumples y Teambuilding</a>"], "photo_reference": "AWn5SU7zwfMDESIod9mhuIzxSJ1J8Uj42deKcLVctxOaGzeXN-M0Ujyl5nA_UQIMlBYZ7sSjSx8v1UoIIVKr6FTSGIF544n5Dh0_7N7ss8qbLZm4cMO3657BEZ9MsvBvn1GM4JC3VT6rXROTAduDF2SlK8PIbgGmoOR1Fv7kqmLBI4xBYgW0EJC25xvUWbOSmxpPcBY4lbzbQtMo2IAxQtrZEjWncFAXgR9X8P-u9ajet3k9mEAu3p4ur_laM0RPQrvLAy0-kaBJKmMPRsS7FA2n06k6WvnFp8SQc2kAj_4gpsHkfhcSoO4dnkc4Gx-rKlFFz6_BtAXfRPg", "width": 5760}], "place_id": "ChIJl8KyniOyQQ0RnWQmxL8dzBA", "plus_code": {"compound_code": "9M8G+VV Pelayos de la Presa, Spain", "global_code": "8CGQ9M8G+VV"}, "rating": 4.6, "reference": "ChIJl8KyniOyQQ0RnWQmxL8dzBA", "scope": "GOOGLE", "types": ["amusement_park", "park", "point_of_interest", "establishment"], "user_ratings_total": 1459, "vicinity": "Camino de la Enfermería, s/n, Pelayos de la Presa"}, {"business_status": "OPERATIONAL", "geometry": {"location": {"lat": 40.3848211, "lng": -4.250840299999999}, "viewport": {"northeast": {"lat": 40.3862228802915, "lng": -4.249485019708498}, "southwest": {"lat": 40.3835249197085, "lng": -4.252182980291502}}}, "icon": "https://maps.gstatic.com/mapfiles/place_api/icons/v1/png_71/park-71.png", "icon_background_color": "#4DB546", "icon_mask_base_uri": "https://maps.gstatic.com/mapfiles/place_api/icons/v2/tree_pinlet", "name": "Plaza de Calvo Sotelo", "place_id": "ChIJq6razhmwQQ0RAT8XjBllTQE", "plus_code": {"compound_code": "9PMX+WM Navas del Rey, Spain", "global_code": "8CGQ9PMX+WM"}, "reference": "ChIJq6razhmwQQ0RAT8XjBllTQE", "scope": "GOOGLE", "types": ["park", "point_of_interest", "establishment"], "vicinity": "Navas del Rey"}, {"business_status": "OPERATIONAL", "geometry": {"location": {"lat": 40.3877545, "lng": -4.249999}, "viewport": {"northeast": {"lat": 40.3890692802915, "lng": -4.248759369708498}, "southwest": {"lat": 40.3863713197085, "lng": -4.251457330291502}}}, "icon": "https://maps.gstatic.com/mapfiles/place_api/icons/v1/png_71/park-71.png", "icon_background_color": "#4DB546", "icon_mask_base_uri": "https://maps.gstatic.com/mapfiles/place_api/icons/v2/tree_pinlet", "name": "esparcimiento para perros Park", "place_id": "ChIJo0HtjqexQQ0R75R5Epf-8LQ", "plus_code": {"compound_code": "9QQ2+42 Navas del Rey, Spain", "global_code": "8CGQ9QQ2+42"}, "reference": "ChIJo0HtjqexQQ0R75R5Epf-8LQ", "scope": "GOOGLE", "types": ["park", "point_of_interest", "establishment"], "vicinity": "Navas del Rey"}, {"business_status": "OPERATIONAL", "geometry": {"location": {"lat": 40.3780753, "lng": -4.248927}, "viewport": {"northeast": {"lat": 40.37942648029151, "lng": -4.247536769708497}, "southwest": {"lat": 40.37672851970851, "lng": -4.250234730291502}}}, "icon": "https://maps.gstatic.com/mapfiles/place_api/icons/v1/png_71/park-71.png", "icon_background_color": "#4DB546", "icon_mask_base_uri": "https://maps.gstatic.com/mapfiles/place_api/icons/v2/tree_pinlet", "name": "Camino del Santo", "photos": [{"height": 1800, "html_attributions": ["<a href=\"https://maps.google.com/maps/contrib/101321764474141234821\">ricardo fernández del Blanco</a>"], "photo_reference": "AWn5SU48DTMDP5Phzv6HKmMyG3xATR8IzlKoxm9BI4zy5rDV7rEd4qlenepCYW_KLPOaCy0hg02-PiweDnmEpm4L_0gNdYolZG4g9DJS8QU8OVwhb4195XvpXcRZy0fc6NAj7Lc2YfPQo1QP0BkLu4puQT-Q48NCNRvlCBPYGgqmVUrULg6C8Su0qcpnj-K6NB_tQJwTDbxDLFCokqGBWxIBpXhnxT7JMVoJoYHjUT2R0Vj3nM44wMFoik8PU-PilipTX3Jwa1N2QKl_2kIIqzRmx5FyoiPSLyYw3WIkcFZrGwVoLVS4hqgTmwGrBGZK9zEi5ZR2N2v2ccq5Au1VW5OQ-dI_XdaDe7DV2j6iSBNtk0onFrEi8xmqQIzhM6PzWvsSevRe9GNqyqpdocgM4eRNoJcKXkHscDN_Rb4MrHFTPzApB_U1MikApK4e5wO38xl-yEBZsbSmGfnOTcxIPlEBlXfaEd-_00K3flLK4kdd_7kz5IJUoopLUegNjqss9VarOdaHphbbyOSKcLm9wrBQo6A6ymUhV0J2kmD08_SzKwuqb2zaohPQeLf-5BndSAgd3ggP2tL0IjEuegMvkGEZ6TSNubPTqVxpDEw8UOMau2LcnvxYnYVDww7kWB7rlSpRXS1oEg", "width": 4000}], "place_id": "ChIJZ_bYYlKxQQ0REhkxjQwUsQ8", "plus_code": {"compound_code": "9QH2+6C Navas del Rey, Spain", "global_code": "8CGQ9QH2+6C"}, "rating": 5, "reference": "ChIJZ_bYYlKxQQ0REhkxjQwUsQ8", "scope": "GOOGLE", "types": ["park", "point_of_interest", "establishment"], "user_ratings_total": 2, "vicinity": "Camino del Santo, Navas del Rey"}, {"business_status": "OPERATIONAL", "geometry": {"location": {"lat": 40.3842559, "lng": -4.2388686}, "viewport": {"northeast": {"lat": 40.3856141302915, "lng": -4.237532119708498}, "southwest": {"lat": 40.38291616970851, "lng": -4.240230080291503}}}, "icon": "https://maps.gstatic.com/mapfiles/place_api/icons/v1/png_71/park-71.png", "icon_background_color": "#4DB546", "icon_mask_base_uri": "https://maps.gstatic.com/mapfiles/place_api/icons/v2/tree_pinlet", "international_phone_number": "+34 640 06 12 53", "name": "Centro de Fauna Kuna Ibérica", "opening_hours": {"open_now": false}, "photos": [{"height": 809, "html_attributions": ["<a href=\"https://maps.google.com/maps/contrib/110711551941871974245\">Centro de Fauna Kuna Ibérica</a>"], "photo_reference": "AWn5SU5TvP6feT-bhuapXluOWXjcanl11K9egsBLtdYhi7qyDmB5ZbQ3BpT5hgRM9eX5Hf8vgX_v7yHN7_svqLgshpikhY51oOLFg1a9iQVVgQ5tSET93r0RlFS4DapIrVjB-inPEE6pYVSKvbMsJ5-P9_pssFFIC623PdiHTfVl8xHJDZu01ZHQPz8K40BmY5Ja8TzceMvzK7Eja3F5I5XcMvHrchxDe8pmiXsjf_S1yHmdIHqAlRMFliQ8_UxQ34tLVcW8VQkoglUzPSoLz0z1V_Us2mlOTgJAPqpgIOmiApUZk406RREEtycCDgGijI7RbZN5OmIA5go", "width": 1440}], "place_id": "ChIJMfCkT56xQQ0Rt4E650FU4JM", "plus_code": {"compound_code": "9QM6+PF Navas del Rey, Spain", "global_code": "8CGQ9QM6+PF"}, "rating": 4.8, "reference": "ChIJMfCkT56xQQ0Rt4E650FU4JM", "scope": "GOOGLE", "types": ["school", "park", "point_of_interest", "establishment"], "user_ratings_total": 568, "vicinity": "M-501, 40, Navas del Rey"}, {"business_status": "OPERATIONAL", "geometry": {"location": {"lat": 40.36968749999999, "lng": -4.2405625}, "viewport": {"northeast": {"lat": 40.37294835, "lng": -4.238603519708499}, "southwest": {"lat": 40.36860055, "lng": -4.241301480291503}}}, "icon": "https://maps.gstatic.com/mapfiles/place_api/icons/v1/png_71/park-71.png", "icon_background_color": "#4DB546", "icon_mask_base_uri": "https://maps.gstatic.com/mapfiles/place_api/icons/v2/tree_pinlet", "name": "Finca Fiesta de la manzana", "place_id": "ChIJj-AZMRixQQ0Rrb0esbH7yzY", "reference": "ChIJj-AZMRixQQ0Rrb0esbH7yzY", "scope": "GOOGLE", "types": ["park", "point_of_interest", "establishment"], "vicinity": "9Q95+VQ"}, {"business_status": "OPERATIONAL", "geometry": {"location": {"lat": 40.4026618, "lng": -4.257873}, "viewport": {"northeast": {"lat": 40.40490115, "lng": -4.25584515}, "southwest": {"lat": 40.40191535, "lng": -4.25854895}}}, "icon": "https://maps.gstatic.com/mapfiles/place_api/icons/v1/png_71/park-71.png", "icon_background_color": "#4DB546", "icon_mask_base_uri": "https://maps.gstatic.com/mapfiles/place_api/icons/v2/tree_pinlet", "name": "Mirador de Amaya", "photos": [{"height": 4032, "html_attributions": ["<a href=\"https://maps.google.com/maps/contrib/110255541317246466924\">Amaya Cardeña</a>"], "photo_reference": "AWn5SU7gGtvmCA1UShVxxXEjQn-wvSYK4bPL59g-VzZUM0aZuKIascInsUTFIOiy1Gis_tg7LP_Ucxe6QWLwbGR4xVycCguSDKvA5WmWIeBcWCFspDBud8i9X8IWlXb14DxPY8hOIV_O81JJg2xeo1VCpxEc4nAokSHRyxajJMZZLckdQQW7lcq_MQ4jfjuGv9sg76boaFeAtHnpbplfspf_hGcCVHUDOF1VIKGk3NRIIGkf1t7VuxNJIHyLxyhXcSdvMR_VrklQSEY3lDdwc22-oo42uUXELeJxLAHUjsWCJS7iZoROu2Ggj3hJojrLgS02om6I3cj5X_8AVTs2mlEUsnDB7VB-zq_R6C-l06h2yaQV-_5iAecUKSOa-bCjiwaFG57rXCQoLlMh2jj1_oY5mCdmLnlpW29d_GeUkpQqO17lxZxg8RdpS0VuNc0cdAXOOBq5iR4SgW_3C6HbBzr6H73xPMONzmGSmp7zvIUkexVLmXe-4RQJp5J89gt0Xiu9Uh4MPnIfQrbaT5G6Tf2lHqzXsH6vdTJJGL65rtTvVflJVJnLhTAhCud32OSCeUSYPdFTdh0L1lXSygSwIzogpBmd39dOD8uOGgWJsKAHH30_Tv2XQgh-asopliGuNkJAaRlAKBk9RvA5qenwnRR0tw", "width": 3024}], "place_id": "ChIJVU8PFwCvQQ0REt8hy39keZA", "rating": 5, "reference": "ChIJVU8PFwCvQQ0REt8hy39keZA", "scope": "GOOGLE", "types": ["park", "point_of_interest", "establishment"], "user_ratings_total": 6, "vicinity": "CP3R+3V, Navas del Rey"}, {"business_status": "OPERATIONAL", "geometry": {"location": {"lat": 40.408505, "lng": -4.257376}, "viewport": {"northeast": {"lat": 40.40979258029149, "lng": -4.255900069708498}, "southwest": {"lat": 40.4070946197085, "lng": -4.258598030291503}}}, "icon": "https://maps.gstatic.com/mapfiles/place_api/icons/v1/png_71/park-71.png", "icon_background_color": "#4DB546", "icon_mask_base_uri": "https://maps.gstatic.com/mapfiles/place_api/icons/v2/tree_pinlet", "name": "Pozo arroyo de Valdezate", "opening_hours": {"open_now": true}, "photos": [{"height": 4032, "html_attributions": ["<a href=\"https://maps.google.com/maps/contrib/117401324736176004833\">Juan Mayoral</a>"], "photo_reference": "AWn5SU4pD1iVqHMCJYTPoThcSX2ACqiKLcx8S3Cc1WiZdXajpMoC_Mg7qSvJ0OYQOwZcQR0Swmoo8KXj1G8KqCYGC19ncaDfr2SJHPP3fwdd_FQi55mW2Q4_k2xOvQ7kIH20slwnyH7uh7DfMyywUoVNdO8saCAp5UPVWyKloHNBCbmw0H8KdXh0xtG65dTX9wt9dVXQqd4Cd3P8lh82Epf6hjaqL8KyJ5HWp0gXJ3mKX0hRF5vqS-L85VKOOqkXlEPhIMGKdoekczUSiJsfWK3LtGBj-P5pnqEgvIV1DtOSQSRSISv8xiobS4s-yWDl-3zAw4aFUBwVt5Iv68p7Ll263WcByT2FCFTIZKUdyS23AQvbr-5nGbMWP-1IKcspkN_BVd3wxmPmuUuz4hgOTvqcP37vxkwD0hbV44AZtm8nprrLvRgICQyq0Hz0zouAK4C01tZpoeyQO41ppGQq96spqcsxEbtouX6xCRyUrhYenTPFM3DjxxJ2YkRq_k2CpRsyUOPQ3pANDRlQUgJM9VuQEYrK82jCbuRDdULzXt1QFMGpJY8ivLvAkBKiUUu1d5CauINaaEACHwJ9lBsC4UeTIiwFGLoLG6F-k5xFWOZTesbBRkvppaEntNkQpx5X93aFn_A8aOKo", "width": 3024}], "place_id": "ChIJCaRBa8qvQQ0RNBAt2QMjbWc", "plus_code": {"compound_code": "CP5V+C2 Navas del Rey, Spain", "global_code": "8CGQCP5V+C2"}, "rating": 4, "reference": "ChIJCaRBa8qvQQ0RNBAt2QMjbWc", "scope": "GOOGLE", "types": ["park", "point_of_interest", "establishment"], "user_ratings_total": 1, "vicinity": "M-512, Navas del Rey"}, {"business_status": "OPERATIONAL", "geometry": {"location": {"lat": 40.41014699999999, "lng": -4.256098000000001}, "viewport": {"northeast": {"lat": 40.41149773029149, "lng": -4.254754819708499}, "southwest": {"lat": 40.40879976970849, "lng": -4.257452780291503}}}, "icon": "https://maps.gstatic.com/mapfiles/place_api/icons/v1/png_71/park-71.png", "icon_background_color": "#4DB546", "icon_mask_base_uri": "https://maps.gstatic.com/mapfiles/place_api/icons/v2/tree_pinlet", "name": "Senda de Zarzalejo al embalse de San Juan.", "opening_hours": {"open_now": true}, "photos": [{"height": 4248, "html_attributions": ["<a href=\"https://maps.google.com/maps/contrib/103111584676742010310\">Kinojualex</a>"], "photo_reference": "AWn5SU5wosI5dJ7ugn_kTMA4U01RDJRhYgvPTgpDY57HiCjn66UmQdW1tm8qO40luK82TiNe1PO0z4MHjfg8kRrwUwkKPeLpSuym_Q_kSHE-cIFnh9cXLTt4B6L6GcQeUvAjNzFg_quewEbtPH3hnomtjpD8wp6-WQmkM-_Lh6B4SoNDGnc6ogv6DB7SK1qMVfyZgrspA-mmvp9VP5AMcq6ihgpVsDQrw00r-ehMPhcCe_EkXUPhZTk2_8w14vn0fwO06w4DoOfrja6TYZO3KOsvIBLWb5gHg4k06cdacf8M8UYp0c0Ll_kyvZaiQmSb2wJRbtFO7lp4QmYL2Lib8JxE_49b7IX7OTbf3eDX0ek3UL0Hn111Z3emElklWM1bXG2bM-OBBHkZ9lisTMieULGP8WegXIEfQzjj2HzTDBDU99PSOCoPZZP1N8H64BFwp0DsNVg9tIOS2gWtlQ6NO7WGFBM2RV1TI4rzyCp6cvAvB6jHmBJcXiTFjc4zemcrWLXtMd9MfqEBAeOie2ooFCR4y7-UCz0XuAdhKbwnk1R0438wSNA0AehbTQtdx_HiCK9EcaNlbGxj-1lW2r085gQc0f53YPUh0gcCzfMIuR5J079UjJ4E1no7pEguGfbUYZ8R5p2dOQ", "width": 5664}], "place_id": "ChIJaWHlBk2vQQ0Rbk3-YHIdE9w", "plus_code": {"compound_code": "CP6V+3H Navas del Rey, Spain", "global_code": "8CGQCP6V+3H"}, "rating": 4.3, "reference": "ChIJaWHlBk2vQQ0Rbk3-YHIdE9w", "scope": "GOOGLE", "types": ["park", "point_of_interest", "establishment"], "user_ratings_total": 3, "vicinity": "M-512, Navas del Rey"}, {"business_status": "OPERATIONAL", "geometry": {"location": {"lat": 40.37657389999999, "lng": -4.218309}, "viewport": {"northeast": {"lat": 40.3778815302915, "lng": -4.216935819708498}, "southwest": {"lat": 40.3751835697085, "lng": -4.219633780291502}}}, "icon": "https://maps.gstatic.com/mapfiles/place_api/icons/v1/png_71/park-71.png", "icon_background_color": "#4DB546", "icon_mask_base_uri": "https://maps.gstatic.com/mapfiles/place_api/icons/v2/tree_pinlet", "name": "Laguna Pozairón Park", "photos": [{"height": 3000, "html_attributions": ["<a href=\"https://maps.google.com/maps/contrib/103677994736565098117\">Miguel Angel_61</a>"], "photo_reference": "AWn5SU45aQT9hKgSqrQ7r2yiMjrv5EfyablS6AqI_E-aUGbpzF3Y90EbUZUj7ioXxQHkrqFXa2caxQ9nyTloxDHZXAg6yAhTdeqvP9FqHKzZMP9ftEnUh0kpac5HHB5Lc_Z9Kvm9HILffPK6Jhx5gtnKrQ8rukMeCHOYsvGzRqzYGd76aXZpqjzRwKYuiI3FMzZ-H7eS3XOWHrrgoSBqX6PJ-Ho5MXKFg5FjkunbBi8n_evmq8jl7JKaU1TWQpfXSXrVR-uPzFBaVq6PB_R1XSQ5cXosh2gXOLeWmC8JXqLL58Yt6Ej-DyDbUwNvhvcGqSx5EJxF41T7cWox2BDlWPRklP7IKG6e9OLHPLoQhkpSd8w48X8snMXnFNjPxarPdPsjB65n6ymXpKwKge2lxVnqp2t4duhgokd1uphN5rW8s8Av2XN_cK4BBVuwx-fk4045ijLyBpcEFVabCMvmRx52qb0mkbG4iFNy2hSeVAy9saAGBhMMau9mF_HVmpmBnkffX5Hqc1xYQzxxXjH1g4EetOV6Hxp3U6ki6kDGMUSFkMQ5Ih-NGYdO7eqmxyT9gU3hVYaYHH_o0NY3od0XiqCFJMflnlBB0qXjxYhOHAJV3x3zRP-FfBRVAxmRdOTFMbWj", "width": 4000}], "place_id": "ChIJ2YbNRb67QQ0RASAUUjY4uLo", "plus_code": {"compound_code": "9QGJ+JM Chapinería, Spain", "global_code": "8CGQ9QGJ+JM"}, "rating": 4.8, "reference": "ChIJ2YbNRb67QQ0RASAUUjY4uLo", "scope": "GOOGLE", "types": ["park", "point_of_interest", "establishment"], "user_ratings_total": 12, "vicinity": "Chapinería"}, {"business_status": "OPERATIONAL", "geometry": {"location": {"lat": 40.3781121, "lng": -4.2141205}, "viewport": {"northeast": {"lat": 40.3794552802915, "lng": -4.212738319708497}, "southwest": {"lat": 40.3767573197085, "lng": -4.215436280291502}}}, "icon": "https://maps.gstatic.com/mapfiles/place_api/icons/v1/png_71/park-71.png", "icon_background_color": "#4DB546", "icon_mask_base_uri": "https://maps.gstatic.com/mapfiles/place_api/icons/v2/tree_pinlet", "name": "canino Park", "place_id": "ChIJDTNJ0D27QQ0RaL21xp0ROVY", "plus_code": {"compound_code": "9QHP+69 Chapinería, Spain", "global_code": "8CGQ9QHP+69"}, "reference": "ChIJDTNJ0D27QQ0RaL21xp0ROVY", "scope": "GOOGLE", "types": ["park", "point_of_interest", "establishment"], "vicinity": "Calle Los Cantos de Pinto, Chapinería"}, {"business_status": "OPERATIONAL", "geometry": {"location": {"lat": 40.36222509999999, "lng": -4.277816899999999}, "viewport": {"northeast": {"lat": 40.36345813029149, "lng": -4.276350469708498}, "southwest": {"lat": 40.36076016970849, "lng": -4.279048430291502}}}, "icon": "https://maps.gstatic.com/mapfiles/place_api/icons/v1/png_71/park-71.png", "icon_background_color": "#4DB546", "icon_mask_base_uri": "https://maps.gstatic.com/mapfiles/place_api/icons/v2/tree_pinlet", "name": "El morro hiking", "photos": [{"height": 525, "html_attributions": ["<a href=\"https://maps.google.com/maps/contrib/104240053117431780434\">jordi llenas</a>"], "photo_reference": "AWn5SU4wcdQ_Gm8vVm8aNdrhE6RFJpTGlbTOthS2wqXZMBF1Z9DdTcTTUi9z4zbRKKXO1XfGyjKaapr8XmVBWIZa7d53SP7NiXpyiHGP-5ca97uOk08veT34UNA13In0AXMgdFOL18Wbel0Y0X-oSsCtJ0ZzOOkSalsbjOqclWr-ElyVbzWDRKl5oT05sK9iT6pJxdzTBpBZJWbFZDsni06tOJ278eOxOJrbhBLCeZWd-_qEGcM7JZ4qoYCVIBOLAZuHBArXIPoeIhVK-H1XegGTXwpe0ZrDK_pCSsDJQQlOetpPBdIaKXHoJqdQhVvSCZmAXLNt-MvOv11cPSdK7-oLfvc4bNMMcGOHvAMH33Jj6LcwhedZfEaH4xzJYU4tpS7I6nRgID667mYIrHwdIAaeKKQYiwBNyBYP5IDkteGukzKuAWvnan_axW9Hs86TOL0GXWoX7qP93PL1W9USvrEnsccL_pq0a-cIpb2uJKmhfVSGa2xP-z33_D6bcnzkGD2T6S3Kmwqcs6jvlkrHAwl9qygSl5hUl_b7e17DTJlbJUyHndWC2RXQivK7Pg8Nrl79QPNWMpnAJErEJEF6cymCfrOcRt0kQ0ibW3ChOI-7kg5oZR6_Dbjc-ycFW5j14A68", "width": 700}], "place_id": "ChIJA92IkpyxQQ0RwB4zl5sVcYc", "rating": 4, "reference": "ChIJA92IkpyxQQ0RwB4zl5sVcYc", "scope": "GOOGLE", "types": ["park", "point_of_interest", "establishment"], "user_ratings_total": 8, "vicinity": "9P39+96, Pelayos de la Presa"}, {"business_status": "OPERATIONAL", "geometry": {"location": {"lat": 40.37697399999999, "lng": -4.210841499999999}, "viewport": {"northeast": {"lat": 40.3783369302915, "lng": -4.209611119708498}, "southwest": {"lat": 40.3756389697085, "lng": -4.212309080291502}}}, "icon": "https://maps.gstatic.com/mapfiles/place_api/icons/v1/png_71/park-71.png", "icon_background_color": "#4DB546", "icon_mask_base_uri": "https://maps.gstatic.com/mapfiles/place_api/icons/v2/tree_pinlet", "name": "las Charquillas Park", "photos": [{"height": 2250, "html_attributions": ["<a href=\"https://maps.google.com/maps/contrib/106797043374035556387\">AlfonsoReydePicas</a>"], "photo_reference": "AWn5SU6TbRPGgQCM1mgpeAgnBJFgCfnSW2q1rx8-Mp-1hfDX64Ua-bWKhYmvj4Iwj10N8-8c1us2p_6XE_MNizAfOpZTKjPcLFxMkjp_WeYcp_I5eFuiHqUA_s5_C-_vAgJlw5ZPG3uFreHA4qeVcVNx2MzN6QvByo-XXYGiPEbLKbq63q0lDI1KoGs6lP-xpKw_FX0_W1uiIMYhVeo3QQYNtBnOmi_obKrYdePl5fWr5vJq8r_MeyzCnOFWvhpqnpNWlHe4gLY_GDUaZK83SCJCinUK6crldeEtgT7kmVcuGsSKM620dlyh6B0mzuoMjzAvZ56myyWxVwXkOy2dP0NjPoCJ--VjyeJDxtUTh1HMGnYEZ8qL7HcQqVB8DDLw9MDiw-AuYRTRqVYe21gSlPIFPsthMu4vu--_red9RftW5dW4NF0snCaLAt06xZQdwoSE8dhKGJSG4XF3lpq4QlvoiitlB9umkqyYwSK2c5Qnsckl441rMokHf6GTYmm6aCw8kAr2h9DCM6U53PchWfeuzaJJ_jKTPbtAN77clCgfnWzofDaA2abIx8TjRF1xa6xv5oUPzesq0bYAmPRPzijt8xMn57eZK-wzo3k1dbQvFqF2pVUx6jwpteR7G19Nhejo", "width": 4000}], "place_id": "ChIJQw4iUVa7QQ0RYvRcwOv8P0w", "plus_code": {"compound_code": "9QGQ+QM Chapinería, Spain", "global_code": "8CGQ9QGQ+QM"}, "reference": "ChIJQw4iUVa7QQ0RYvRcwOv8P0w", "scope": "GOOGLE", "types": ["park", "point_of_interest", "establishment"], "vicinity": "Calle Felipe II, 2, Chapinería"}, {"business_status": "OPERATIONAL", "geometry": {"location": {"lat": 40.3805617, "lng": -4.209570200000001}, "viewport": {"northeast": {"lat": 40.3819356802915, "lng": -4.208213219708497}, "southwest": {"lat": 40.3792377197085, "lng": -4.210911180291502}}}, "icon": "https://maps.gstatic.com/mapfiles/place_api/icons/v1/png_71/park-71.png", "icon_background_color": "#4DB546", "icon_mask_base_uri": "https://maps.gstatic.com/mapfiles/place_api/icons/v2/tree_pinlet", "name": "Verdinal Park", "photos": [{"height": 4608, "html_attributions": ["<a href=\"https://maps.google.com/maps/contrib/101993893951567225668\">VictorR</a>"], "photo_reference": "AWn5SU57YfaMA9sHeJtUQ73vsJ9MbMdr55qb_NYFNHSxmg8l6E2EkzROZw-UxUGxD6teXlqfcq5uxg7M8aF7FQ7ZuRGRaOQ8a0-_k-chHRPJXYu_D9NKZtS1JIvrdRh_d4yUpbCrTcZtaf4sO8hiuJnzYUZYmuPXs7kk2nq_7EuOwR-5ifPKN6ZUa5lBmZqY3gq7nWAZJNiR7J-PMVlmHnaOXNxj6sb_TU9KvY2EVoa3-Ke6_oEg773Awyw_fiYNGEJ0xBvrNXFMWeU9VgvMSqC4DndC6J6IPNZ4gkKlcAG7cLOIdkSqUPlmfC_kVjpIWnbZu6_jFFvML27c0NZzCFzsi438lNe8V5-qP1xuio8xkdcuCgAqgYP5-XDA95WoXSbn0rEZXrU8NGq3-RHN-kvrWKXIwd-yQ154KyoyWf5Vod3kIpI0pEYGiqqn99ot0X-Uof2gHZF6pc54wu5x8Mjz4-180bUQoyn5CfBcwApMxBmctzStORVX-EvC1iWgn3Obdtid_ch7SscuYVVNA41mL39zM1J-BU3k_nV6NdxUwkdycg7rT43yNXjAAwPGohlxKZuGNr6BwKNfOM5CvfXOYgrx2bFLOJvqb_IrlT73hMXjyJ3r2iacVte6KfVfZr86oGle-A", "width": 2076}], "place_id": "ChIJI7YrGg27QQ0RKWSInMuDP8I", "plus_code": {"compound_code": "9QJR+65 Chapinería, Spain", "global_code": "8CGQ9QJR+65"}, "reference": "ChIJI7YrGg27QQ0RKWSInMuDP8I", "scope": "GOOGLE", "types": ["park", "point_of_interest", "establishment"], "vicinity": "Calle del Verdinal, 24, Chapinería"}, {"business_status": "OPERATIONAL", "geometry": {"location": {"lat": 40.41418609999999, "lng": -4.2729595}, "viewport": {"northeast": {"lat": 40.41558843029149, "lng": -4.271499469708497}, "southwest": {"lat": 40.41289046970849, "lng": -4.274197430291501}}}, "icon": "https://maps.gstatic.com/mapfiles/place_api/icons/v1/png_71/park-71.png", "icon_background_color": "#4DB546", "icon_mask_base_uri": "https://maps.gstatic.com/mapfiles/place_api/icons/v2/tree_pinlet", "name": "La Verduguera", "photos": [{"height": 4032, "html_attributions": ["<a href=\"https://maps.google.com/maps/contrib/100815592539942174473\">Enrique Carrera</a>"], "photo_reference": "AWn5SU4mtWgvnoFpw_3egcURgqukE36rAeVo303JAA9d834pgb7iuIRG2O6Ml9zIXkqnM3ySc1j6ySKmdqqTd75S7Qx2c-2ckwCJKTx9swkBJ3jl8lHISaImC6SuoOSE345xDhbo1Ge3q4WgKUhr-FW8EwOPGJsht2cguGeLy2S7E4_eZchWnM1raq5knK8FN9WC0Hux8Fomo3h491afBA9et6iZDiQX8bmFyJVrioRQ5SI0C59oeHi1aulTL1xERXh6xS2k2qb_-aqP5-L3aVO9po3pwmZB82tB253Kimo-qWThqiWK80H-d6V3fuejKT3M7jE_V35FxfZUP42RDTY4u89BvVpU4t1-jUSM_4kdBxDljRN8o92630001zJCJFoTAcptVsNJ2HNit2stS5Oye9yoDS5QZfhBDRTLBgMWAl7tCIxbx3iTkYyU5Z5r-hpfvjN3xx6cfQWIqC9cz2Geap1fTBo62xpOPoPACBtvGwpTEwHOOlztz5oU87s-4H97vri01Qr5rQTJpnRhNIrRBQ1vhKPSNXiY7T1QdBm-EAA7d_cRRQSj-88yfW23vk0jO-FsJWbCa-80HT6ijLXUHtoAA1G3XOtCBxcWghOSMEHI5j14JYoGGPveBXD4ZPe2hVetnFh_", "width": 3024}], "place_id": "ChIJc1M6KwCvQQ0R2aoNnTcP1WI", "plus_code": {"compound_code": "CP7G+MR Robledo de Chavela, Spain", "global_code": "8CGQCP7G+MR"}, "rating": 5, "reference": "ChIJc1M6KwCvQQ0R2aoNnTcP1WI", "scope": "GOOGLE", "types": ["park", "point_of_interest", "establishment"], "user_ratings_total": 2, "vicinity": "Robledo de Chavela"}, {"business_status": "OPERATIONAL", "geometry": {"location": {"lat": 40.38180899999999, "lng": -4.204207}, "viewport": {"northeast": {"lat": 40.38310168029149, "lng": -4.202816019708497}, "southwest": {"lat": 40.3804037197085, "lng": -4.205513980291502}}}, "icon": "https://maps.gstatic.com/mapfiles/place_api/icons/v1/png_71/shopping-71.png", "icon_background_color": "#4B96F3", "icon_mask_base_uri": "https://maps.gstatic.com/mapfiles/place_api/icons/v2/shopping_pinlet", "international_phone_number": "+34 918 65 29 47", "name": "BoadillaHome", "opening_hours": {"open_now": true}, "place_id": "ChIJscvPhzq7QQ0RC1jKM-hu39s", "plus_code": {"compound_code": "9QJW+P8 Chapinería, Spain", "global_code": "8CGQ9QJW+P8"}, "rating": 5, "reference": "ChIJscvPhzq7QQ0RC1jKM-hu39s", "scope": "GOOGLE", "types": ["general_contractor", "park", "point_of_interest", "store", "establishment"], "user_ratings_total": 1, "vicinity": "Comunidad de, Comunidad de, Calle Soto, 01, Chapinería"}, {"business_status": "OPERATIONAL", "geometry": {"location": {"lat": 40.377264, "lng": -4.204434599999999}, "viewport": {"northeast": {"lat": 40.37871063029149, "lng": -4.203177219708497}, "southwest": {"lat": 40.3760126697085, "lng": -4.205875180291502}}}, "icon": "https://maps.gstatic.com/mapfiles/place_api/icons/v1/png_71/civic_building-71.png", "icon_background_color": "#7B9EB0", "icon_mask_base_uri": "https://maps.gstatic.com/mapfiles/place_api/icons/v2/civic-bldg_pinlet", "international_phone_number": "+34 918 65 20 98", "name": "Environmental Education Center The Eagle", "opening_hours": {"open_now": false}, "photos": [{"height": 1536, "html_attributions": ["<a href=\"https://maps.google.com/maps/contrib/116764349674266952529\">Centro de Educación Ambiental El Águila</a>"], "photo_reference": "AWn5SU471RFjILE3GUCaTBb379BrDyTd7JVFwQ4vS3MT25sXVRePa8asYvQQ5ij_ULpU1XUca6VTc_Z0yZt1zGLsRctzG-1f22oBqLldQ7dn1RAZY2YFiWB3SHXBnZrJtQDt2wh7KpyeRWNycdS5K19g5ygsuvvHZLXx1XlSYvA0iUFK0HdvQoLPzAD9RNQVRjpRwJOy9iV_HjsHzC4IsEh1gEgMcKk7iwG4qv17Bt50rOr-mL2AKkXaInRMLKi5NE2ppa-wN7MeOVE1ssaY5DI0R5S3yJdg3w1IVMjUiMFvdgrxTBTAMYBYvV4GrOUdXtoezvZhoxADgtE", "width": 2048}], "place_id": "ChIJT6lk_sK6QQ0Rx6D1c8QtwW8", "plus_code": {"compound_code": "9QGW+W6 Chapinería, Spain", "global_code": "8CGQ9QGW+W6"}, "rating": 4.8, "reference": "ChIJT6lk_sK6QQ0Rx6D1c8QtwW8", "scope": "GOOGLE", "types": ["tourist_attraction", "museum", "local_government_office", "park", "point_of_interest", "establishment"], "user_ratings_total": 73, "vicinity": "Calle Rodetas, 18, Chapinería"}, {"business_status": "OPERATIONAL", "geometry": {"location": {"lat": 40.35518789999999, "lng": -4.2847618}, "viewport": {"northeast": {"lat": 40.35694603029149, "lng": -4.282731549999999}, "southwest": {"lat": 40.35424806970849, "lng": -4.28543855}}}, "icon": "https://maps.gstatic.com/mapfiles/place_api/icons/v1/png_71/park-71.png", "icon_background_color": "#4DB546", "icon_mask_base_uri": "https://maps.gstatic.com/mapfiles/place_api/icons/v2/tree_pinlet", "name": "Mirador del puente alberche", "opening_hours": {"open_now": true}, "photos": [{"height": 2184, "html_attributions": ["<a href=\"https://maps.google.com/maps/contrib/117114623101053756025\">Noel Gonzáles</a>"], "photo_reference": "AWn5SU6l87AodiKIAPfVaFK3mQIUQaz4lEJy8lpLWYmjgSKhM8szFHmhU5-QdgtE0jyKq3Ez60In6nN3DbBj2oNjas1xYuHGrzK_NhOp3kt2M8yy_vTVU624at3PwvcqJJijrFaWCDTRWZp--W0Ru8nRQbIjcvx5McCht4TwjWQu2xBIwOY0-oNEQuqRoq781iD1B4mIswVvr56avzCWa_jk5ANDck_ZNr6lktWnFinzag-QVCD6aSiOBkd7Iu_t6sA9fcF8zW4CvCWGa6oaN9yFyR694--5QLbG_XK3tK4ku2orlEuyqDfDQ6OQoJ86rOhYlOKXEhuDYEGxgeUBtaMW7i_XysUOolD8rYXqis_ES3gBitBSLZ0SrIFf_ua5i2jCRpkiQ2H8uVh-LQSFqIsp8pFlsnPvQRXdWyN5amKn7RpwnV2LEMLqpq_KL8j9RXETofAojGP20rAgBXA_9537YeM0AcyGw7KdEJt5uuxwzyTT0VsOMJGkoirhEORSbPfHaLGDFF1SpaSaZL1GUe6qz6gunasTC8H-oDGRV5sCLLnBRshIfl-RLpuDqpdBIeQ5o_SSWcyuTYJ8UD8S0rBq4bdsltsEqernCU_PoiJTQhhRa4ERQP6ak74LX2fGnmmC2IBRIrj0", "width": 4608}], "place_id": "ChIJC1l5m0OxQQ0Rf7Rfbha46ho", "plus_code": {"compound_code": "9P48+33 Pelayos de la Presa, Spain", "global_code": "8CGQ9P48+33"}, "reference": "ChIJC1l5m0OxQQ0Rf7Rfbha46ho", "scope": "GOOGLE", "types": ["park", "point_of_interest", "establishment"], "vicinity": "Calle del Río Alberche, Navalcarnero"}, {"business_status": "OPERATIONAL", "geometry": {"location": {"lat": 40.3771221, "lng": -4.1991169}, "viewport": {"northeast": {"lat": 40.37845358029151, "lng": -4.197787269708498}, "southwest": {"lat": 40.37575561970851, "lng": -4.200485230291503}}}, "icon": "https://maps.gstatic.com/mapfiles/place_api/icons/v1/png_71/park-71.png", "icon_background_color": "#4DB546", "icon_mask_base_uri": "https://maps.gstatic.com/mapfiles/place_api/icons/v2/tree_pinlet", "name": "Alrededores Chapineria", "photos": [{"height": 4000, "html_attributions": ["<a href=\"https://maps.google.com/maps/contrib/101321764474141234821\">ricardo fernández del Blanco</a>"], "photo_reference": "AWn5SU43zV9mC5FPIIPVfMrUw9UkVSyA4Muo8K8a1K7aCjHyX-TynjZYIwkG6X6KpzEZHO50Lz3BwJTrfRzh2jV23yYtsv2Xo-2Ak4ONBrbtU7YmHMMLb_B5uMhIQmmZMKH_AveObwd6RYlGbH_dH3LbnlvxlJ7aZ9wdSyI4GwNXAM4MFo_PdHPWn-uXwWWaNNwdso6Z0AW51NJxnEn3oDw10kBQMZeaz0cufiCP7gQKhKoGQpHr-cg4QIY7L2Y_Yt_q8c36ZUW9yoX3-bmkMk_T3oDHiApzo8BVWj8KIXFqLOifIk9iaEsu7wm30c2mHRlELbu7Exhi-Jo5FdzfZL3AQM5C8E6Bkj3ySjJPq4vUHzZVJ9t7wbqhkGRjHcsy3RmaMK9dxAVSgrgZCdwWzsZmfjvHkRyDL1RtXEK3lBYwECYDum4_egSPxP5Or78kxOE03E4_F6qLirRknCe1Nnb5QNi-5_vpmSmxZ8iLLDuevpg3aNYjf6IjBCtBI3aLVGgNP_e_Q_Ne9VHuULN_vjDcT8FHA_2nXaZsVR2iLy864fsZA5Yv87hEuMnjRmZQqQ3CBLEHRaHdqt_kyA--MTx9zpNk5R6Nuad_J21KiNQskULNLMzEZZ0m-Sy08KJNqz4gVAvakg", "width": 1800}], "place_id": "ChIJ__ZkPgC7QQ0R4_3osbQvFy0", "plus_code": {"compound_code": "9RG2+R9 Chapinería, Spain", "global_code": "8CGQ9RG2+R9"}, "rating": 5, "reference": "ChIJ__ZkPgC7QQ0R4_3osbQvFy0", "scope": "GOOGLE", "types": ["park", "point_of_interest", "establishment"], "user_ratings_total": 1, "vicinity": "Avenida Polideportivo, Chapinería"}]