[{"business_status": "OPERATIONAL", "geometry": {"location": {"lat": 41.0597821, "lng": -3.544416099999999}, "viewport": {"northeast": {"lat": 41.06113113029149, "lng": -3.543067519708498}, "southwest": {"lat": 41.0584331697085, "lng": -3.545765480291502}}}, "icon": "https://maps.gstatic.com/mapfiles/place_api/icons/v1/png_71/parking-71.png", "icon_background_color": "#7B9EB0", "icon_mask_base_uri": "https://maps.gstatic.com/mapfiles/place_api/icons/v2/parking_pinlet", "name": "Parking público Horcajuelo", "opening_hours": {"open_now": true}, "photos": [{"height": 3024, "html_attributions": ["<a href=\"https://maps.google.com/maps/contrib/116341635124519620556\">Eduardo Ruiz</a>"], "photo_reference": "AWn5SU7rLoxu2JbBd8nkxc-V5rMwj2lx6vbZauaFIpNtlW4jZTTsLCX1O6NgvBxUb5WfBvWn48uj-RzYTeta_7zRKBrGLonzhxcZUhwFYZRJs4yMFfiMCeae9fF1n1E9cnQrxAYNJkvXV3EL5TnMn3avVlyzoaIfiiTMiS6Y9uYE6-yBwPzCZMaT5l68X9Vz2C7bnUIFcLRSpkbm9BJ87ffRJtNtBhInSyWshMeOWs05x-bdzGDVPkmjAMWd-2Nit0Ks-3cGnIdAFxvQkA4dhudW7Ru-riZdAe91YyuZLzwtNYdtTjhTJNUeB7Gz5Htv0S4LAKqnlJETuKsc24v21kJLLIW72kVkEfHraKmCaahSwlWDM7yg0s1GROn1cT3iRclBtSSRXB5i8-k0zzIlRq1pGjuvaF_BD289dg7QchkgcmiTVpRtKjWVvAeVtkgdRm9FtJGXpWKESSsQ6wydP5Jihea5mYiejBKGsg7KLJ3f51MLdPlh8uqnpmkHY0lcZ9lEiQ-yXZRvx4Axr-9fS48TBwlZiDrV7IyQ8l6mn38YKEcxyD0LR-xnlSPWLn5yMQjwkd1zbllRGpR4kLh6Es8neBS6cjhL11kuCZtMja0AlW1ZAKCqUbCegEI5o3bwjuNX", "width": 4032}], "place_id": "ChIJ7bDrRYrvQw0RlhyrtsNmyPw", "plus_code": {"compound_code": "3F54+W6 Horcajuelo de la Sierra, Spain", "global_code": "8CHR3F54+W6"}, "rating": 4.6, "reference": "ChIJ7bDrRYrvQw0RlhyrtsNmyPw", "scope": "GOOGLE", "types": ["parking", "point_of_interest", "establishment"], "user_ratings_total": 5, "vicinity": "Calle Clero, 11, Horcajuelo de la Sierra"}, {"business_status": "OPERATIONAL", "geometry": {"location": {"lat": 41.0607443, "lng": -3.5255937}, "viewport": {"northeast": {"lat": 41.0620805802915, "lng": -3.524208119708498}, "southwest": {"lat": 41.0593826197085, "lng": -3.526906080291502}}}, "icon": "https://maps.gstatic.com/mapfiles/place_api/icons/v1/png_71/parking-71.png", "icon_background_color": "#7B9EB0", "icon_mask_base_uri": "https://maps.gstatic.com/mapfiles/place_api/icons/v2/parking_pinlet", "name": "Aparcamiento", "place_id": "ChIJ8cu4lTbvQw0ReXradIQjxoo", "plus_code": {"compound_code": "3F6F+7Q Montejo de la Sierra, Spain", "global_code": "8CHR3F6F+7Q"}, "reference": "ChIJ8cu4lTbvQw0ReXradIQjxoo", "scope": "GOOGLE", "types": ["parking", "point_of_interest", "establishment"], "vicinity": "Calle Poligono 3, 9002, Montejo de la Sierra"}, {"business_status": "OPERATIONAL", "geometry": {"location": {"lat": 41.0416307, "lng": -3.5405955}, "viewport": {"northeast": {"lat": 41.0429633802915, "lng": -3.539288969708498}, "southwest": {"lat": 41.0402654197085, "lng": -3.541986930291502}}}, "icon": "https://maps.gstatic.com/mapfiles/place_api/icons/v1/png_71/parking-71.png", "icon_background_color": "#7B9EB0", "icon_mask_base_uri": "https://maps.gstatic.com/mapfiles/place_api/icons/v2/parking_pinlet", "name": "Calle de Emilia Sarrasi, 1 Parking", "photos": [{"height": 3000, "html_attributions": ["<a href=\"https://maps.google.com/maps/contrib/109458403085439818456\">Santi Calvo</a>"], "photo_reference": "AWn5SU6yU68Ud3HEUf7RdL7GWMJGB4lKpfIdiNdkH_e0Ll-eN_TGrMTD95ShnLC8_xvTJ5Kc_HUKkN7Ct1KmYr2R2pOnzDsNs0NO1OsmKEUupkfZT-06IYYneDiu0IrXSemSbW7RAnXZGUROYbcG-IcyNchaHW6DVhy5rIofo14VHF-939WcuVnXBVnMo2kG_648Bbw8jfLvbkC1G9JRP9YQCV-Jw8Fu5cUUfgCxpnpDg7uNP3NRYNXf6uPFTN-KOb6RlKo5QFMEt8Dcfx_oW4dd1qMj8M4DH-9vSlZ8TRNIO7LR-VPQ1NyyKKOhc26QsBT6tdBqfGgCM3u_WRzRYT7PW429derHxB8NxCY1LuPpDBqT2Azqh4t6mjrGwSJC16G6e_ZE4Z1NsKnpdvKgxcqDuk1tU95SmV974gWleH782DulRG3ls1epRAL0PnyOI46N-A9zi_-3x8M6P_Lv6-8_pMrdqJ7bCDmwnUJGOCuYTaiNQ_MhUT9qw7mfKKd9RaxS6g7hVR_Ur7-GfL3I1dojFo5RuqkG7ccnTokmQgLPC3N8NHbjunR3TPvP7zgHj2IX2OXmeGSxtYpqa9dFfC7Izn2TndeWUoI49J_qEiVHUGOIbt1HhWXkYDnPlKK2X02y_5P8vg", "width": 4000}], "place_id": "ChIJoQWYS0vuQw0RDc0ywCy5Jto", "plus_code": {"compound_code": "2FR5+MQ Prádena del Rincón, Spain", "global_code": "8CHR2FR5+MQ"}, "rating": 5, "reference": "ChIJoQWYS0vuQw0RDc0ywCy5Jto", "scope": "GOOGLE", "types": ["parking", "point_of_interest", "establishment"], "user_ratings_total": 3, "vicinity": "Calle de Emilia Sarrasi, 1, Prádena del Rincón"}, {"business_status": "OPERATIONAL", "geometry": {"location": {"lat": 41.0489894, "lng": -3.5232163}, "viewport": {"northeast": {"lat": 41.0503428302915, "lng": -3.521840669708498}, "southwest": {"lat": 41.0476448697085, "lng": -3.524538630291501}}}, "icon": "https://maps.gstatic.com/mapfiles/place_api/icons/v1/png_71/parking-71.png", "icon_background_color": "#7B9EB0", "icon_mask_base_uri": "https://maps.gstatic.com/mapfiles/place_api/icons/v2/parking_pinlet", "name": "Parking de la Laguna del Salmoral", "opening_hours": {"open_now": true}, "photos": [{"height": 3472, "html_attributions": ["<a href=\"https://maps.google.com/maps/contrib/118138313720523535643\">Ignacio de Santos</a>"], "photo_reference": "AWn5SU4sWH_IdFlmAjRbzOd6uwOe4cGqWr2RUxUidTXMpBon3tGFnMErgRq6IrP_27TODfQXlrPAp3-W8DJFoThUwd6O2r_u9hO_SIn_OewnwFY2caTHKorfllfReAjiJPM08I9hiGZCh3uut1lp1JkukOC1q_qNjGMU1beeOZ2YwCloKrdLw1L5tRQZ4JQevc8-CPrhE3YwsamVixiYE7YAXQchTnrmJPrDH-xibyGGY3rRBtnEwj2RZvL7uUSjcebA68dxtHXef94jmz6TRaM8cn0CDMWOixPZhoIR8HZOeq6vyW9VBq6TR6MEvnQlQrxMJbBA2e43RdhQfKukD1ry7uGQNX7wv27vC4Gz7d4HEFuFkfAjDhueKUg1pn1PsiqZuIJ_esmaCMBwqsjKmzRP4uAtjpGjcP22gtmCLvAJ8047J0Ca7Erh1je-HYyQHcYWPA5sz_sHGy3Kj7kcu2Rfjdrgzh0Ts7-QSDB5PRe7IxSsh7uz_qaPhFZEFZ1sXzr_g0cBiNb15zPEA--Yuhj9hUuOBmEFlLemZ9Qx0ZBlZYIgsr4XNuah9sBD0XgyaiZUgQBQyTkObKUiB0JtWZtDYXLwbWlLuMxHqIVudb2OZI1y4pGqOLj6JDO9Sa2uZw", "width": 4624}], "place_id": "ChIJRb3HGfbvQw0RZizj4FkzxHI", "plus_code": {"compound_code": "2FXG+HP Prádena del Rincón, Spain", "global_code": "8CHR2FXG+HP"}, "rating": 5, "reference": "ChIJRb3HGfbvQw0RZizj4FkzxHI", "scope": "GOOGLE", "types": ["parking", "point_of_interest", "establishment"], "user_ratings_total": 3, "vicinity": "M130, Prádena del Rincón"}]