[{"business_status": "OPERATIONAL", "geometry": {"location": {"lat": 40.44132179999999, "lng": -3.355161799999999}, "viewport": {"northeast": {"lat": 40.44261193029151, "lng": -3.353832619708498}, "southwest": {"lat": 40.43991396970851, "lng": -3.356530580291501}}}, "icon": "https://maps.gstatic.com/mapfiles/place_api/icons/v1/png_71/shopping-71.png", "icon_background_color": "#4B96F3", "icon_mask_base_uri": "https://maps.gstatic.com/mapfiles/place_api/icons/v2/shopping_pinlet", "international_phone_number": "+34 648 56 56 56", "name": "Multibazar", "opening_hours": {"open_now": false}, "photos": [{"height": 3024, "html_attributions": ["<a href=\"https://maps.google.com/maps/contrib/105896164811211411132\">Multibazar</a>"], "photo_reference": "AWn5SU5AWoLFHRAknBxOSG2S9uYb53aozAfu4LWg0yCyWkhnizVf2_4VHR0ufMJDlsKqSAyXVIC-QrSVL_V1Bjnoc63lo66_ZW-eYOfneOjMAzQrdOnvoDO21Dor8DiZ2vT7iTUa676Bx-fyJHkg7_BW4Qw7PZb1rce0cMQhnlQirm0ed8GEtkm3suv3C_7K7muRk-Mm_UJKAUH9TbsdPnOt0Fz-77_2EsZXOUhnHhl6Rqd4VxoEGIWeMefu10CRfU8jFZyOH-orfer4YHWnzV9lO55Zkca2kotaT-vyNU68OoDnXF6sQgSd5tcugDff-WaDmm0MO8isWXk", "width": 4032}], "place_id": "ChIJmW4J5MdJQg0RJ5u7ZTxmOlw", "plus_code": {"compound_code": "CJRV+GW Los Hueros, Spain", "global_code": "8CGRCJRV+GW"}, "rating": 3.4, "reference": "ChIJmW4J5MdJQg0RJ5u7ZTxmOlw", "scope": "GOOGLE", "types": ["shopping_mall", "point_of_interest", "establishment"], "user_ratings_total": 31, "vicinity": "Camino Real, 29, Los Hueros"}, {"business_status": "OPERATIONAL", "geometry": {"location": {"lat": 40.44201159999999, "lng": -3.361202199999999}, "viewport": {"northeast": {"lat": 40.44341568029149, "lng": -3.359791219708498}, "southwest": {"lat": 40.44071771970849, "lng": -3.362489180291501}}}, "icon": "https://maps.gstatic.com/mapfiles/place_api/icons/v1/png_71/shopping-71.png", "icon_background_color": "#4B96F3", "icon_mask_base_uri": "https://maps.gstatic.com/mapfiles/place_api/icons/v2/shopping_pinlet", "international_phone_number": "+34 912 65 09 65", "name": "Mercaviso", "opening_hours": {"open_now": false}, "photos": [{"height": 703, "html_attributions": ["<a href=\"https://maps.google.com/maps/contrib/100971596389310847146\">Juan Callejo</a>"], "photo_reference": "AWn5SU7fLEChavDGddCSW5HqgIeleJW6GhvQV9Sn-whKhKHlmRUqoBJP1AZ6_v807lu5IUcmPRs5ZierWRjlumaJcPMrNsbj2m6w4OddgjXO2kFYdNVKznmaJ_KsKrrQno6bKn49fT34ixFDogqbfEIdZsqaQwPPZnOBYz_bLYvOo69ZYxmw8-A6rvsTecW3YHvpPwHcTaRplgf1ulvchAt5zfrrSFr59N9CbrB7lT05TJfN_IDgHXntCG_ABmEzCVsX9aSqshESs98jWfHgmNOFu16AGTqfvzasqEp3CwHY4-PxNDQ2V3z6a-y3mHnTIDUuDd2U8x7fBBVV0Q3VFihIjRod4tFWT3aKznyKbTPWE3IR8UeTPIMRx74AT5OrdErKyFNYYVQrHcljkqG3cyHhfqIaSrlNw2HfAvHcTY3ZPeQ9EgOkk3BEr2ZSDAotR92LjBq8x6Q4a1V8UOYa2X_pjXae8VL8gJ9h_ZTm-LcKI6PHXbumt3bF4lYHx2FIsyIiszleT9A3PO84Rkvjq3KEc9J-GDJFb8wP0Aj1xpJKuuwCNIqkC3esWIeJkSECc6X4chkfTMQRdDyZFhMtZFYI_1a4XNeDIF9c8bB8WsYc2jGURDXE", "width": 1251}], "place_id": "ChIJjag6DZVIQg0RrFVdlIYE-zU", "plus_code": {"compound_code": "CJRQ+RG Los Hueros, Spain", "global_code": "8CGRCJRQ+RG"}, "rating": 3.7, "reference": "ChIJjag6DZVIQg0RrFVdlIYE-zU", "scope": "GOOGLE", "types": ["shopping_mall", "point_of_interest", "establishment"], "user_ratings_total": 225, "vicinity": "Avenida de la Isabela Braganza, 7, Los Hueros"}, {"business_status": "OPERATIONAL", "geometry": {"location": {"lat": 40.4491773, "lng": -3.3667984}, "viewport": {"northeast": {"lat": 40.4504122302915, "lng": -3.365252819708498}, "southwest": {"lat": 40.4477142697085, "lng": -3.367950780291502}}}, "icon": "https://maps.gstatic.com/mapfiles/place_api/icons/v1/png_71/shopping-71.png", "icon_background_color": "#4B96F3", "icon_mask_base_uri": "https://maps.gstatic.com/mapfiles/place_api/icons/v2/shopping_pinlet", "international_phone_number": "+34 918 77 97 19", "name": "Centro Comercial Peñas Albas", "place_id": "ChIJRScSredJQg0R_xsSmYArUj4", "plus_code": {"compound_code": "CJXM+M7 Villalbilla, Spain", "global_code": "8CGRCJXM+M7"}, "rating": 3.8, "reference": "ChIJRScSredJQg0R_xsSmYArUj4", "scope": "GOOGLE", "types": ["shopping_mall", "point_of_interest", "establishment"], "user_ratings_total": 55, "vicinity": "Avenida España, 1, Villalbilla"}]