[{"business_status": "OPERATIONAL", "geometry": {"location": {"lat": 40.28730459999999, "lng": -4.0058688}, "viewport": {"northeast": {"lat": 40.28869573029149, "lng": -4.004339019708498}, "southwest": {"lat": 40.28599776970849, "lng": -4.007036980291502}}}, "icon": "https://maps.gstatic.com/mapfiles/place_api/icons/v1/png_71/generic_business-71.png", "icon_background_color": "#7B9EB0", "icon_mask_base_uri": "https://maps.gstatic.com/mapfiles/place_api/icons/v2/generic_pinlet", "international_phone_number": "+34 918 11 00 60", "name": "Sadeco -Folguera Nasie SL", "opening_hours": {"open_now": false}, "photos": [{"height": 1500, "html_attributions": ["<a href=\"https://maps.google.com/maps/contrib/105179863536050146685\">Sadeco -Folguera Nasie SL</a>"], "photo_reference": "AWn5SU4Fug0A5dK37UMzaDkWN7Q-d2ZD75QKlxpGiSXPn8vi24ciy5QO6ZGm39RKrp43Drkr7NSEGhexGHYKqx4DwiZU8RQQsRjz0V0tdRXQf4DkHmAW3zcF0NnJZom3zMKxoC-WPSaiU0_r-ni_Eges1lHzG7NnxPwSoRJBJXg73icV3lZ-8EreDWBXaxsM3f8h7Q2wpN_rcXwZQQqZ7EuMezXZafE00pS9NRaZFuGqLj-VHUKNBUPdiRIBz1BSqetazGlvnFWJTodXCV7sLdkgxogYpUIS5dvdJWjDkrQxFT-h-vxCYn9HMLxMtg2HI7t8dYT6zBV-684", "width": 2000}], "place_id": "ChIJfzEx_GaUQQ0RvglDtWrN6vU", "plus_code": {"compound_code": "7XPV+WM Navalcarnero, Spain", "global_code": "8CGQ7XPV+WM"}, "rating": 4, "reference": "ChIJfzEx_GaUQQ0RvglDtWrN6vU", "scope": "GOOGLE", "types": ["car_repair", "gas_station", "point_of_interest", "establishment"], "user_ratings_total": 132, "vicinity": "Calle de la Constitución, 150, Navalcarnero"}, {"business_status": "OPERATIONAL", "geometry": {"location": {"lat": 40.287556, "lng": -4.005555999999999}, "viewport": {"northeast": {"lat": 40.2889293302915, "lng": -4.004144169708498}, "southwest": {"lat": 40.2862313697085, "lng": -4.006842130291503}}}, "icon": "https://maps.gstatic.com/mapfiles/place_api/icons/v1/png_71/gas_station-71.png", "icon_background_color": "#909CE1", "icon_mask_base_uri": "https://maps.gstatic.com/mapfiles/place_api/icons/v2/gas_pinlet", "name": "Moeve", "place_id": "ChIJcTbU4maUQQ0RlvRYAmBFV_o", "plus_code": {"compound_code": "7XQV+2Q Navalcarnero, Spain", "global_code": "8CGQ7XQV+2Q"}, "reference": "ChIJcTbU4maUQQ0RlvRYAmBFV_o", "scope": "GOOGLE", "types": ["gas_station", "point_of_interest", "establishment"], "vicinity": "Calle de la Constitución, 166-172, Navalcarnero"}, {"business_status": "CLOSED_TEMPORARILY", "geometry": {"location": {"lat": 40.29487009999999, "lng": -4.0096048}, "viewport": {"northeast": {"lat": 40.2962019302915, "lng": -4.008254419708497}, "southwest": {"lat": 40.2935039697085, "lng": -4.010952380291502}}}, "icon": "https://maps.gstatic.com/mapfiles/place_api/icons/v1/png_71/gas_station-71.png", "icon_background_color": "#909CE1", "icon_mask_base_uri": "https://maps.gstatic.com/mapfiles/place_api/icons/v2/gas_pinlet", "name": "Gasolinera", "permanently_closed": true, "photos": [{"height": 540, "html_attributions": ["<a href=\"https://maps.google.com/maps/contrib/109484193719768246127\">Teba Ginestal</a>"], "photo_reference": "AWn5SU6vee1Z2zjcNUNSUb09SQYb47gyoIiQ15tjjXq2oJ9zb4BChGdnhS7JF5DLgw8d9jB-pp-mLNWRVpmyaMuTeKsowFbvHV2a0WcdUMezdtBdHbzFw8wqLt4lTG20va1aVI0Jp2mwJnUiDIH_vNfZbd-IqTn57diUtWygbaxMuK6ti_R3dR8lZP3LcSq3sJo9zm6tRC6Tm2ilNf5pss6CIUKhUG4TOtqwFZByvRJjYJls9EtihXUikKD5CMovYLvdK3qtMB4xT3Sv7zRlgzNu40QqpLHFj0cluPpiJ9j77k8DcFq2_OeOnxPX9AUi-40aHhuH4Kq28QAUeISQCrh3DLZwUEuRJq62-rEtGJVxazog0knM5ADBHvBhzZqOKwl2WsJBUxkLXRiAmJoRnEbm2LuHLsr1t1mCLIe7zBWHR0HVL8CeXCJwv3MlJZqIhX56Rh08Ar2UaqveYFTV1pjXFNNDEX0ZOrx-bDxhgIesBjzRJi5Q6kSYcPvkgB1QYirlgNcL0tlCCLuWrEaMBJ0v1IT3ZZe6Wg5LOD7HxP5y1MXjA82jRbDheDrlyq5JaZAEQZ6s4gT2sWGf7JCEJXlf0IHBgM24H2fBv1SjNXvGrVtzCqiTw09-FCTNn7B2RJBaGATVRes1", "width": 960}], "place_id": "ChIJ063ZF0KUQQ0RhO1D2wmkH3Y", "plus_code": {"compound_code": "7XVR+W5 Navalcarnero, Spain", "global_code": "8CGQ7XVR+W5"}, "rating": 4.3, "reference": "ChIJ063ZF0KUQQ0RhO1D2wmkH3Y", "scope": "GOOGLE", "types": ["gas_station", "point_of_interest", "establishment"], "user_ratings_total": 47, "vicinity": "Calle de los Cástines, 53, Navalcarnero"}, {"business_status": "OPERATIONAL", "geometry": {"location": {"lat": 40.29510769999999, "lng": -4.0099973}, "viewport": {"northeast": {"lat": 40.2964852302915, "lng": -4.008646519708497}, "southwest": {"lat": 40.2937872697085, "lng": -4.011344480291501}}}, "icon": "https://maps.gstatic.com/mapfiles/place_api/icons/v1/png_71/gas_station-71.png", "icon_background_color": "#909CE1", "icon_mask_base_uri": "https://maps.gstatic.com/mapfiles/place_api/icons/v2/gas_pinlet", "international_phone_number": "+34 900 730 760", "name": "Ballenoil Navalcarnero II", "opening_hours": {"open_now": true}, "photos": [{"height": 1080, "html_attributions": ["<a href=\"https://maps.google.com/maps/contrib/110211674626940452439\">Ballenoil Navalcarnero II</a>"], "photo_reference": "AWn5SU4wJSEj8V1jx6-LIQZFr20pId6oE8GWBWawIEKsKeFMdBmJFz6i0lQ3MrwQCBPNYw4SQ-z_T4Rg2sfS-iQqnEM0zpeG8F37PwW2p13j8RLbgliAhEkn2OpzmUMcBgmJm_1c9MUtdX93tW66WlqDpKoXffXmR2Bulr65sweBOS9c3fK50DzZ-FykJGPVhKbBsH3xYlCPhfEQmBaNcRccTCPb4MMyAIpgKm_UgDa1IE_I9NR6nHCu7UrG32OWJEi6cuknNmjprox5TSMax5iNXYv9fpeZ_oUFHMOBX7haFxx8oaNyANNX-v2sDAMXtEnfSBRhS0ZzxlQ", "width": 1920}], "place_id": "ChIJiV4vqdaVQQ0RIGXU0CFBPfM", "plus_code": {"compound_code": "7XWR+22 Navalcarnero, Spain", "global_code": "8CGQ7XWR+22"}, "rating": 4.2, "reference": "ChIJiV4vqdaVQQ0RIGXU0CFBPfM", "scope": "GOOGLE", "types": ["gas_station", "point_of_interest", "establishment"], "user_ratings_total": 17, "vicinity": "Calle de Zacarias, 20, Navalcarnero"}, {"business_status": "OPERATIONAL", "geometry": {"location": {"lat": 40.2949831, "lng": -4.009596999999999}, "viewport": {"northeast": {"lat": 40.2963497302915, "lng": -4.008420419708497}, "southwest": {"lat": 40.2936517697085, "lng": -4.011118380291502}}}, "icon": "https://maps.gstatic.com/mapfiles/place_api/icons/v1/png_71/gas_station-71.png", "icon_background_color": "#909CE1", "icon_mask_base_uri": "https://maps.gstatic.com/mapfiles/place_api/icons/v2/gas_pinlet", "name": "Cheapoil", "opening_hours": {"open_now": true}, "place_id": "ChIJybXZJEKUQQ0RnUJAC09ayQo", "plus_code": {"compound_code": "7XVR+X5 Navalcarnero, Spain", "global_code": "8CGQ7XVR+X5"}, "rating": 3.4, "reference": "ChIJybXZJEKUQQ0RnUJAC09ayQo", "scope": "GOOGLE", "types": ["gas_station", "point_of_interest", "establishment"], "user_ratings_total": 11, "vicinity": "Calle de Zacarias, 20, Navalcarnero"}, {"business_status": "OPERATIONAL", "geometry": {"location": {"lat": 40.2913545, "lng": -4.003199599999999}, "viewport": {"northeast": {"lat": 40.2927129802915, "lng": -4.001892919708498}, "southwest": {"lat": 40.2900150197085, "lng": -4.004590880291501}}}, "icon": "https://maps.gstatic.com/mapfiles/place_api/icons/v1/png_71/gas_station-71.png", "icon_background_color": "#909CE1", "icon_mask_base_uri": "https://maps.gstatic.com/mapfiles/place_api/icons/v2/gas_pinlet", "international_phone_number": "+34 918 39 19 49", "name": "Max Petrol", "opening_hours": {"open_now": true}, "photos": [{"height": 1600, "html_attributions": ["<a href=\"https://maps.google.com/maps/contrib/104747378982488086438\">Max Petrol</a>"], "photo_reference": "AWn5SU7KrhTaCOcUJfzcq0M4cHrujU-jUZsWRzRX0Ix5m7L4gErJU1KvxUnE63t3DLQrf5ymo6VOyvbFtc1GXCPdDBAhWMJP6yQsXs32jF_nAWkl7lGVYWQVhtKN-e6zAu6WlZ4X2b8D46qcYFFo0ggGBMuCf1TLfEc06v3l_1ODfcA7BtzMDA3SCm_sOSxo-PsE3rCsqY1CTsYXzZ69fJ37Yuuozkq64NlAjXLMLOou7HU-gssX4sl8Zb_YRbDe8TRCsLd7xIjM6pOa5qI_zQoQWTbh-EfCbvopmn3WL_m4M9LpOawOc5-6VxG4VJO6Z1BLnVm2lQmpxTI", "width": 900}], "place_id": "ChIJiyr3rWiUQQ0R8rkTDGsShLs", "plus_code": {"compound_code": "7XRW+GP Navalcarnero, Spain", "global_code": "8CGQ7XRW+GP"}, "rating": 4.4, "reference": "ChIJiyr3rWiUQQ0R8rkTDGsShLs", "scope": "GOOGLE", "types": ["gas_station", "point_of_interest", "establishment"], "user_ratings_total": 241, "vicinity": "Calle Camino de Bastos, 6, Navalcarnero"}, {"business_status": "OPERATIONAL", "geometry": {"location": {"lat": 40.2914, "lng": -3.998870000000001}, "viewport": {"northeast": {"lat": 40.2927938802915, "lng": -3.997438969708498}, "southwest": {"lat": 40.2900959197085, "lng": -4.000136930291503}}}, "icon": "https://maps.gstatic.com/mapfiles/place_api/icons/v1/png_71/gas_station-71.png", "icon_background_color": "#909CE1", "icon_mask_base_uri": "https://maps.gstatic.com/mapfiles/place_api/icons/v2/gas_pinlet", "international_phone_number": "+34 663 72 29 13", "name": "Galp", "opening_hours": {"open_now": false}, "photos": [{"height": 1080, "html_attributions": ["<a href=\"https://maps.google.com/maps/contrib/115460866689355476585\">Galp</a>"], "photo_reference": "AWn5SU440ewB3JoNo8a0YrhLI9zQ9tkrJNyXW-orspocE4JJPdbr1ip2pVuZeeXAiMzD6UZDMN7c10vYn8IOgVZ79tfEr1FZDv4oeUJvmbQEqPsCqobX8_IHIiZSiZMLlji5DZQFeReP0kcvYZPpZKhyBk9hf52wA_gsplfLNdsXSs2AjNXSnyR_9MN-OHpferNJiVPY2yhb4AGnFEB0UKp8WFFzIyZDaL1MiVXnEhYz3Crx4mZlhsQtV5Y5mGJ5Q5a_qiSAw3h8ntV-lSgyNGlWCRsqA7oEMn7ifJAgz3SLf77lJl2TBwy5H-VunP3uAsNHLOxzbmktxNw", "width": 1920}], "place_id": "ChIJn5FEM3uVQQ0RvgKsNU52OGU", "plus_code": {"compound_code": "72R2+HF Navalcarnero, Spain", "global_code": "8CGR72R2+HF"}, "rating": 4.3, "reference": "ChIJn5FEM3uVQQ0RvgKsNU52OGU", "scope": "GOOGLE", "types": ["gas_station", "car_wash", "cafe", "food", "point_of_interest", "establishment"], "user_ratings_total": 96, "vicinity": "Polígono Industrial Alparrache II, Calle Dehesa de Mari-Martín, S/N, Navalcarnero"}, {"business_status": "OPERATIONAL", "geometry": {"location": {"lat": 40.29154769999999, "lng": -3.9989042}, "viewport": {"northeast": {"lat": 40.2929227302915, "lng": -3.997508569708497}, "southwest": {"lat": 40.2902247697085, "lng": -4.000206530291502}}}, "icon": "https://maps.gstatic.com/mapfiles/place_api/icons/v1/png_71/gas_station-71.png", "icon_background_color": "#909CE1", "icon_mask_base_uri": "https://maps.gstatic.com/mapfiles/place_api/icons/v2/gas_pinlet", "name": "NIPER", "place_id": "ChIJf8re7W-UQQ0RPamBtpyqwHk", "plus_code": {"compound_code": "72R2+JC Navalcarnero, Spain", "global_code": "8CGR72R2+JC"}, "reference": "ChIJf8re7W-UQQ0RPamBtpyqwHk", "scope": "GOOGLE", "types": ["gas_station", "point_of_interest", "establishment"], "vicinity": "Calle Dehesa de Mari-Martín, Navalcarnero"}, {"business_status": "OPERATIONAL", "geometry": {"location": {"lat": 40.2907675, "lng": -3.9943362}, "viewport": {"northeast": {"lat": 40.2921216302915, "lng": -3.992968869708498}, "southwest": {"lat": 40.2894236697085, "lng": -3.995666830291502}}}, "icon": "https://maps.gstatic.com/mapfiles/place_api/icons/v1/png_71/gas_station-71.png", "icon_background_color": "#909CE1", "icon_mask_base_uri": "https://maps.gstatic.com/mapfiles/place_api/icons/v2/gas_pinlet", "international_phone_number": "+34 900 730 760", "name": "Ballenoil Navalcarnero", "opening_hours": {"open_now": true}, "photos": [{"height": 1766, "html_attributions": ["<a href=\"https://maps.google.com/maps/contrib/107350652515375257512\">Ballenoil Navalcarnero</a>"], "photo_reference": "AWn5SU7US_WU3Ido3wMaeE3aLdGNscm0WhT_wMA4qtVb5S3AcxDt05blcnKwJYQTGTUeXEzvN9EUsdKH7zArk86Hp8QCsNvHRPXrzgqAFzI3DRixDj3xrHMqtK3qdeyM3rf9coAFo4h1JnRBOHPN10apQ9CSVRf5PCf1fGJ2ywI9SmrdgG5xam0ItLzZTenYE6K9-yo9emfbC4LuGunqnpBVWlOd7akq1x4XSpzypivGBOD1Wp75ySz8IARduUappbE2aSW90T3Q7g6d7Qv-oO9R9FFpsf-zP4zRPEIcXa-Yy1PHc48xxkQhEicPSkjS9THIOdF6V5x-8FU", "width": 2048}], "place_id": "ChIJo34iDXqUQQ0RF7ZFmACKmcI", "plus_code": {"compound_code": "72R4+87 Navalcarnero, Spain", "global_code": "8CGR72R4+87"}, "rating": 4.2, "reference": "ChIJo34iDXqUQQ0RF7ZFmACKmcI", "scope": "GOOGLE", "types": ["gas_station", "point_of_interest", "establishment"], "user_ratings_total": 300, "vicinity": "Calle de la Mina del Cotorro, S/N, Navalcarnero"}]