[{"business_status": "OPERATIONAL", "geometry": {"location": {"lat": 40.2277491, "lng": -3.4372592}, "viewport": {"northeast": {"lat": 40.22908743029151, "lng": -3.435949269708499}, "southwest": {"lat": 40.22638946970851, "lng": -3.438647230291502}}}, "icon": "https://maps.gstatic.com/mapfiles/place_api/icons/v1/png_71/parking-71.png", "icon_background_color": "#7B9EB0", "icon_mask_base_uri": "https://maps.gstatic.com/mapfiles/place_api/icons/v2/parking_pinlet", "name": "Parking Meson Licinia", "place_id": "ChIJSeyrz9oVQg0RGvvflKlEUqQ", "plus_code": {"compound_code": "6HH7+33 Morata de Tajuña, Spain", "global_code": "8CGR6HH7+33"}, "reference": "ChIJSeyrz9oVQg0RGvvflKlEUqQ", "scope": "GOOGLE", "types": ["parking", "point_of_interest", "establishment"], "vicinity": "Travesia Del Molino, 3, Morata de Tajuña"}, {"business_status": "OPERATIONAL", "geometry": {"location": {"lat": 40.2271695, "lng": -3.439915999999999}, "viewport": {"northeast": {"lat": 40.22851358029151, "lng": -3.438452419708498}, "southwest": {"lat": 40.22581561970851, "lng": -3.441150380291502}}}, "icon": "https://maps.gstatic.com/mapfiles/place_api/icons/v1/png_71/parking-71.png", "icon_background_color": "#7B9EB0", "icon_mask_base_uri": "https://maps.gstatic.com/mapfiles/place_api/icons/v2/parking_pinlet", "name": "Parking Público Gratuito", "place_id": "ChIJG1zp17kVQg0RlpoRehAlO9M", "plus_code": {"compound_code": "6HG6+V2 Morata de Tajuña, Spain", "global_code": "8CGR6HG6+V2"}, "reference": "ChIJG1zp17kVQg0RlpoRehAlO9M", "scope": "GOOGLE", "types": ["parking", "point_of_interest", "establishment"], "vicinity": "M-313, 68, Morata de Tajuña"}, {"business_status": "OPERATIONAL", "geometry": {"location": {"lat": 40.22468249999999, "lng": -3.4760205}, "viewport": {"northeast": {"lat": 40.22603318029149, "lng": -3.474751219708498}, "southwest": {"lat": 40.2233352197085, "lng": -3.477449180291502}}}, "icon": "https://maps.gstatic.com/mapfiles/place_api/icons/v1/png_71/parking-71.png", "icon_background_color": "#7B9EB0", "icon_mask_base_uri": "https://maps.gstatic.com/mapfiles/place_api/icons/v2/parking_pinlet", "name": "Aparcamiento", "opening_hours": {"open_now": true}, "photos": [{"height": 1800, "html_attributions": ["<a href=\"https://maps.google.com/maps/contrib/101321764474141234821\">ricardo fernández del Blanco</a>"], "photo_reference": "AWn5SU6SOY4Mc3_5f-EFAyGHyjAd88wrm3U-Ec1rDN6OS2W4hAYgeZlGPwvsrd17088JySMBS6gW0ZPKCYvcfKf89a8T2jkIfbb2BM6RxzR0no1rqafrbtOmsY1_WWuB_ZG9mUrT6XO_x6bZajNPs0gx-0V0dt45XpXA70_C4yLx_AB2p1h9g1EmcZRBokAVDm9l6SCxiY7aTDQfyTzraOWk9vQSX5R0DIkLmz0o10modjXDjBjL6rwF1k87EleVryWR9c1FHNg04IOKE5noucsPvPvTk7f8mthpp9QRm6bebQpbZiJ0CRHjeMqB13SGJaHnQ9PTMlXXG-LcWZ45UD5Ob-vCxvuvpN6VSJTOE9BKTVfMN_jV2CnMSDsuSGzTy_tvZPOlTzhGsss2wjzsrzNYneGAkjsw-jGacz6qEWI1xWavGQGOu0sRWLSGiUKALAr-PZ5abJHWpXRg5EzGmLy5SW7bI_JY0lynJ6QHHXiUonMVotHcBRvT6aL1bv7yeO8GObkpVXbDjt2G_L8QlDzsaC1bVW-6DwQSOPXXhCU0CpduApIUI2v6nVhgfSmxkp9TeJ2xuFGs5Ol4QfOTOgt9j9ARoEMtuDgB8bo5vKsF340uMV7L_nek9QSDRWE-3PjKIA4ghw", "width": 4000}], "place_id": "ChIJuxfHIr8VQg0RRuYSkqdncLs", "rating": 3.6, "reference": "ChIJuxfHIr8VQg0RRuYSkqdncLs", "scope": "GOOGLE", "types": ["parking", "point_of_interest", "establishment"], "user_ratings_total": 5, "vicinity": "6GFF+VH"}, {"business_status": "OPERATIONAL", "geometry": {"location": {"lat": 40.22340459999999, "lng": -3.476847599999999}, "viewport": {"northeast": {"lat": 40.22473613029149, "lng": -3.475471119708498}, "southwest": {"lat": 40.22203816970849, "lng": -3.478169080291501}}}, "icon": "https://maps.gstatic.com/mapfiles/place_api/icons/v1/png_71/parking-71.png", "icon_background_color": "#7B9EB0", "icon_mask_base_uri": "https://maps.gstatic.com/mapfiles/place_api/icons/v2/parking_pinlet", "name": "Aparcamiento de tierra", "opening_hours": {"open_now": true}, "photos": [{"height": 3072, "html_attributions": ["<a href=\"https://maps.google.com/maps/contrib/114647002403656742602\">Antonio Martín</a>"], "photo_reference": "AWn5SU6KPm12azrR6nQ8rUmzzEmkGXhGl3zFqmycKDCyG0CvnJ4XAOVERenomhVQvJRBx6WP7pmP3gJDRq0ok1vLfzw230R6NYg8b5-zQOAAIAnRt7kcVZg4W6waBKMwnVRCXUGeqln8Ujl3QTghCQKjNOxNGeo7K4oBpEPvUNlSt_VXSfjsMCKVwd1srDGxfyFWrgwbCsmM3vXBPRdxWlPilmhcWddMrMqXvjO9k3014X1HxJK9vm6k6gvzebYGEl0kR1Q89v0UvAzZiGvYAEoihMhSVNPdkc8AbselUmCEUVkWHs4quzZCC-xB_dazlPCiTKQkA3UjoKuBkngM1BO_LLu-LO_XTsoUBJzGLmWv3ikJkeny1DpY-rn36B_WnAfq9HX8pTHcWfYy2D67ApeptSdmMaSgYTfSlQm7RcDxjjCwX94r2ls9dbcfW_jmlbevsIAJTbpKLIlhRiBjKN-Xwj9kCXUFHrMuAJEs6c5qn8eb1ofztpZdeqKC2IBbZMw21T3lWuugOoLUMdbQYP_AY_74p7LmCR44X6lWPIr3LZAtV28DgrbOpvbpGgUPMnaJjXyxaDVIJiYZgmOXDVN8d0CN792_c2BiTR_Bhse2fjXqMdbNP7I6iTGStQsi12C8iDWtSRyDU4pr-vR3zyTJcnLBJgs", "width": 4096}], "place_id": "ChIJIeNwcAAVQg0RAR2yjgWpHtU", "plus_code": {"compound_code": "6GFF+97 Morata de Tajuña, Spain", "global_code": "8CGR6GFF+97"}, "reference": "ChIJIeNwcAAVQg0RAR2yjgWpHtU", "scope": "GOOGLE", "types": ["parking", "point_of_interest", "establishment"], "vicinity": "Morata de Tajuña"}]