[{"business_status": "OPERATIONAL", "geometry": {"location": {"lat": 41.0579972, "lng": -3.5917793}, "viewport": {"northeast": {"lat": 41.0593852802915, "lng": -3.590398869708497}, "southwest": {"lat": 41.05668731970851, "lng": -3.593096830291502}}}, "icon": "https://maps.gstatic.com/mapfiles/place_api/icons/v1/png_71/generic_business-71.png", "icon_background_color": "#7B9EB0", "icon_mask_base_uri": "https://maps.gstatic.com/mapfiles/place_api/icons/v2/generic_pinlet", "name": "Aoslos - Ctra M-136", "place_id": "ChIJSwfBGE7lQw0RCcb9OLGrgXY", "plus_code": {"compound_code": "3C55+57 Aoslos, Spain", "global_code": "8CHR3C55+57"}, "reference": "ChIJSwfBGE7lQw0RCcb9OLGrgXY", "scope": "GOOGLE", "types": ["transit_station", "point_of_interest", "establishment"], "vicinity": "Spain"}, {"business_status": "OPERATIONAL", "geometry": {"location": {"lat": 41.1035574, "lng": -3.5948435}, "viewport": {"northeast": {"lat": 41.1048883302915, "lng": -3.593521219708497}, "southwest": {"lat": 41.1021903697085, "lng": -3.596219180291501}}}, "icon": "https://maps.gstatic.com/mapfiles/place_api/icons/v1/png_71/generic_business-71.png", "icon_background_color": "#7B9EB0", "icon_mask_base_uri": "https://maps.gstatic.com/mapfiles/place_api/icons/v2/generic_pinlet", "name": "Robregordo - C/ Balagares 16", "place_id": "ChIJnw59xIn6Qw0R19uubaqJtYM", "plus_code": {"compound_code": "4C34+C3 Robregordo, Spain", "global_code": "8CHR4C34+C3"}, "reference": "ChIJnw59xIn6Qw0R19uubaqJtYM", "scope": "GOOGLE", "types": ["transit_station", "point_of_interest", "establishment"], "vicinity": "Spain"}, {"business_status": "OPERATIONAL", "geometry": {"location": {"lat": 41.0571703, "lng": -3.535176}, "viewport": {"northeast": {"lat": 41.0585346302915, "lng": -3.533841619708499}, "southwest": {"lat": 41.0558366697085, "lng": -3.536539580291502}}}, "icon": "https://maps.gstatic.com/mapfiles/place_api/icons/v1/png_71/generic_business-71.png", "icon_background_color": "#7B9EB0", "icon_mask_base_uri": "https://maps.gstatic.com/mapfiles/place_api/icons/v2/generic_pinlet", "name": "Ctra M-141 (Horcajuelo de la Sierra) N 1 B", "place_id": "ChIJA8G3ci7uQw0Rgzm9T08NtHY", "plus_code": {"compound_code": "3F47+VW Montejo de la Sierra, Spain", "global_code": "8CHR3F47+VW"}, "reference": "ChIJA8G3ci7uQw0Rgzm9T08NtHY", "scope": "GOOGLE", "types": ["transit_station", "point_of_interest", "establishment"], "vicinity": "Spain"}, {"business_status": "OPERATIONAL", "geometry": {"location": {"lat": 41.1061984, "lng": -3.5954511}, "viewport": {"northeast": {"lat": 41.1075444302915, "lng": -3.594085669708498}, "southwest": {"lat": 41.10484646970851, "lng": -3.596783630291502}}}, "icon": "https://maps.gstatic.com/mapfiles/place_api/icons/v1/png_71/generic_business-71.png", "icon_background_color": "#7B9EB0", "icon_mask_base_uri": "https://maps.gstatic.com/mapfiles/place_api/icons/v2/generic_pinlet", "name": "Robregordo - Eras", "place_id": "ChIJi_DjOWL6Qw0R7l5fjzRUD0w", "plus_code": {"compound_code": "4C43+FR Robregordo, Spain", "global_code": "8CHR4C43+FR"}, "reference": "ChIJi_DjOWL6Qw0R7l5fjzRUD0w", "scope": "GOOGLE", "types": ["transit_station", "point_of_interest", "establishment"], "vicinity": "Spain"}, {"business_status": "OPERATIONAL", "geometry": {"location": {"lat": 41.067371, "lng": -3.5854358}, "viewport": {"northeast": {"lat": 41.06871513029149, "lng": -3.584102919708497}, "southwest": {"lat": 41.0660171697085, "lng": -3.586800880291501}}}, "icon": "https://maps.gstatic.com/mapfiles/place_api/icons/v1/png_71/bus-71.png", "icon_background_color": "#10BDFF", "icon_mask_base_uri": "https://maps.gstatic.com/mapfiles/place_api/icons/v2/bus_share_taxi_pinlet", "name": "Horcajo - Calle Carretera 33", "place_id": "ChIJJUPMm6v6Qw0RNXOXdK_ckrc", "plus_code": {"compound_code": "3C87+WR Horcajo de la Sierra, Spain", "global_code": "8CHR3C87+WR"}, "reference": "ChIJJUPMm6v6Qw0RNXOXdK_ckrc", "scope": "GOOGLE", "types": ["bus_station", "transit_station", "point_of_interest", "establishment"], "vicinity": "Spain"}, {"business_status": "OPERATIONAL", "geometry": {"location": {"lat": 41.0676317, "lng": -3.5855332}, "viewport": {"northeast": {"lat": 41.0689768302915, "lng": -3.584140819708497}, "southwest": {"lat": 41.0662788697085, "lng": -3.586838780291501}}}, "icon": "https://maps.gstatic.com/mapfiles/place_api/icons/v1/png_71/generic_business-71.png", "icon_background_color": "#7B9EB0", "icon_mask_base_uri": "https://maps.gstatic.com/mapfiles/place_api/icons/v2/generic_pinlet", "name": "Horcajo - Trva Carretera 1", "place_id": "ChIJy8f1kKv6Qw0R8NXJEygDsvs", "plus_code": {"compound_code": "3C97+3Q Horcajo de la Sierra, Spain", "global_code": "8CHR3C97+3Q"}, "reference": "ChIJy8f1kKv6Qw0R8NXJEygDsvs", "scope": "GOOGLE", "types": ["transit_station", "point_of_interest", "establishment"], "vicinity": "Spain"}, {"business_status": "OPERATIONAL", "geometry": {"location": {"lat": 41.0576949, "lng": -3.590979199999999}, "viewport": {"northeast": {"lat": 41.05904748029149, "lng": -3.589627269708498}, "southwest": {"lat": 41.05634951970849, "lng": -3.592325230291503}}}, "icon": "https://maps.gstatic.com/mapfiles/place_api/icons/v1/png_71/generic_business-71.png", "icon_background_color": "#7B9EB0", "icon_mask_base_uri": "https://maps.gstatic.com/mapfiles/place_api/icons/v2/generic_pinlet", "name": "Aoslos - Ctra M-136", "place_id": "ChIJMwJq3FHlQw0R8KtKbQ27UyA", "plus_code": {"compound_code": "3C55+3J Aoslos, Spain", "global_code": "8CHR3C55+3J"}, "rating": 2, "reference": "ChIJMwJq3FHlQw0R8KtKbQ27UyA", "scope": "GOOGLE", "types": ["transit_station", "point_of_interest", "establishment"], "user_ratings_total": 1, "vicinity": "Spain"}, {"business_status": "OPERATIONAL", "geometry": {"location": {"lat": 41.05757999999999, "lng": -3.59076}, "viewport": {"northeast": {"lat": 41.0589416302915, "lng": -3.589400319708497}, "southwest": {"lat": 41.05624366970851, "lng": -3.592098280291502}}}, "icon": "https://maps.gstatic.com/mapfiles/place_api/icons/v1/png_71/generic_business-71.png", "icon_background_color": "#7B9EB0", "icon_mask_base_uri": "https://maps.gstatic.com/mapfiles/place_api/icons/v2/generic_pinlet", "name": "Ctra.M136-El Lomo", "place_id": "ChIJKTkW3FHlQw0Rb4At4ap8Rik", "plus_code": {"compound_code": "3C55+2M Aoslos, Spain", "global_code": "8CHR3C55+2M"}, "reference": "ChIJKTkW3FHlQw0Rb4At4ap8Rik", "scope": "GOOGLE", "types": ["transit_station", "point_of_interest", "establishment"], "vicinity": "Spain"}, {"business_status": "OPERATIONAL", "geometry": {"location": {"lat": 41.0543082, "lng": -3.5978868}, "viewport": {"northeast": {"lat": 41.05565308029151, "lng": -3.596524369708497}, "southwest": {"lat": 41.05295511970851, "lng": -3.599222330291501}}}, "icon": "https://maps.gstatic.com/mapfiles/place_api/icons/v1/png_71/bus-71.png", "icon_background_color": "#10BDFF", "icon_mask_base_uri": "https://maps.gstatic.com/mapfiles/place_api/icons/v2/bus_share_taxi_pinlet", "name": "Aoslos - Calle Real 14", "photos": [{"height": 2268, "html_attributions": ["<a href=\"https://maps.google.com/maps/contrib/102217636275959917491\">óSKAr Contreras</a>"], "photo_reference": "AWn5SU56ToXjVTDAIIZjeI_oJWRag9PYdhtCyLz2xvNnrM7R4-zEP_jvyJAmvmkXHTrkw28LEPqqo_xeq8d2MzEsVuh-4WvkECm24jf0cOq-POKSBs2KnifAZ-XmJ77cenanV1kF9n3Pi3og9tfz5eLjKr5pZeJdHFMtLfQeVh3iuu8AYOgvPa2s6fjX6onNneXg2lboDbIGeMMfTqtSNdCL--xZj9ebJkPfQBVLQfKj0TPcELjLzumm13NqidOp4d2natjFaOK4s1jH6zHf-xnbXpBvMMLN5Wm716PLZNNjLvnh-cYlDYexMtPh5hCd0_HJc2qs56Psys4lzq8O8_VtsC9WF5BRrqX-afCAoZYXzjemr-FX0RUwaILVnmkyG5KypxWOym6FMA4eHTIP5TbJegv4i2sKS9uthDOFGEaEis35CzL20bF4u3L8azsqQUFhIBrGYepdd9tpyBXxMXWEa3kxvDOPaSgzKzfmkOPMjHsNfZhzl9GR_jzzbfba0GS-jDexy2Ib2qeVoqYYjfGnkUQ6zW8mH6GYw9cfIc34ygQ7TtfX9C68Udj6l3eYuN3zX7OEiRzlsClAE83F_GUNKpREhqVEI_jBE-jBat2cvQOSE96NzISQwghnpPEgUqGidXxvrQ", "width": 4032}], "place_id": "ChIJpw0nmUjlQw0R0eo2lliXbS0", "plus_code": {"compound_code": "3C32+PR Aoslos, Spain", "global_code": "8CHR3C32+PR"}, "rating": 4, "reference": "ChIJpw0nmUjlQw0R0eo2lliXbS0", "scope": "GOOGLE", "types": ["bus_station", "transit_station", "point_of_interest", "establishment"], "user_ratings_total": 1, "vicinity": "Spain"}, {"business_status": "OPERATIONAL", "geometry": {"location": {"lat": 41.06168, "lng": -3.60956}, "viewport": {"northeast": {"lat": 41.06317448029149, "lng": -3.608183969708497}, "southwest": {"lat": 41.06047651970849, "lng": -3.610881930291502}}}, "icon": "https://maps.gstatic.com/mapfiles/place_api/icons/v1/png_71/generic_business-71.png", "icon_background_color": "#7B9EB0", "icon_mask_base_uri": "https://maps.gstatic.com/mapfiles/place_api/icons/v2/generic_pinlet", "name": "Ctra.A1-Cruce Aoslos", "place_id": "ChIJZULl-jLlQw0Rc6a4Z4cY5EQ", "plus_code": {"compound_code": "396R+M5 Aoslos, Spain", "global_code": "8CHR396R+M5"}, "reference": "ChIJZULl-jLlQw0Rc6a4Z4cY5EQ", "scope": "GOOGLE", "types": ["transit_station", "point_of_interest", "establishment"], "vicinity": "Spain"}, {"business_status": "OPERATIONAL", "geometry": {"location": {"lat": 41.0616243, "lng": -3.609616399999999}, "viewport": {"northeast": {"lat": 41.0631443802915, "lng": -3.608206819708498}, "southwest": {"lat": 41.0604464197085, "lng": -3.610904780291502}}}, "icon": "https://maps.gstatic.com/mapfiles/place_api/icons/v1/png_71/generic_business-71.png", "icon_background_color": "#7B9EB0", "icon_mask_base_uri": "https://maps.gstatic.com/mapfiles/place_api/icons/v2/generic_pinlet", "name": "Desvio Acebeda-Aoslos A-1", "photos": [{"height": 3120, "html_attributions": ["<a href=\"https://maps.google.com/maps/contrib/115115824585001810387\">JAIR OTALVARO</a>"], "photo_reference": "AWn5SU49sVSe_awUGV4Ua3nkHxFjBAbeqpqxQKKQtXveKFLYQheXLkLN6ILJgRiWzTmFBvoYtS9ivUrhly2vqN1BXoXenWzbzA8fJOiCj_vDNxfbmOv67ALmrKOlmbiwwdxmVhrQ2ZXpCYS4nkIaJw6PsCzsQBgoOqLagEbtmKK9l7bC2AJfm_6Vstz66OhKYAXLY57bdiRublpyzfOdC_75QoRXoUp1Bn9Gb5lXdpUliejxWtZBhxiTuyjxAGDVGhRC39k1LY8sakZo7SkeXk_eISSY6i2xplQBpi6Ja1Zd2gDwVokZ1ZfA0y0gpJsk6coeHA6BUhGHVYwVHO2NMp7qZr0imPNzsmeX9OL_3E-HP9hyEyu_pI9RSPQzxMYZ1t3mAIKZUVwOtlYV4C-ert_kTuqiXYhlzWF7lxNkvUoYLsxmElxAvwODRFZ6iPrw4zfCPJVLCAyYlkkLPs0cxs2k1kBxnjJ8cMC-oJF5ryT6EMka-OIlbKdnwDVqHPA08RLFBzu2UemGZybfnf_6faKzo17ojGq-ekk7Tz2zKKTqMa1KwrfiTKFt7nUVl2aZbacEMGfHJtHS6-YWk3JgC3mz9mL9M8AF9fDq7mCZQZr991B4Rg1-g1KBou-kuMZhBm5v9rEPkQ", "width": 4160}], "place_id": "ChIJOZb7-jLlQw0RXPV7O-_MW1w", "plus_code": {"compound_code": "396R+J5 Aoslos, Spain", "global_code": "8CHR396R+J5"}, "rating": 5, "reference": "ChIJOZb7-jLlQw0RXPV7O-_MW1w", "scope": "GOOGLE", "types": ["transit_station", "point_of_interest", "establishment"], "user_ratings_total": 2, "vicinity": "Spain"}, {"business_status": "OPERATIONAL", "geometry": {"location": {"lat": 41.06263, "lng": -3.61066}, "viewport": {"northeast": {"lat": 41.0639257802915, "lng": -3.609334619708498}, "southwest": {"lat": 41.0612278197085, "lng": -3.612032580291503}}}, "icon": "https://maps.gstatic.com/mapfiles/place_api/icons/v1/png_71/generic_business-71.png", "icon_background_color": "#7B9EB0", "icon_mask_base_uri": "https://maps.gstatic.com/mapfiles/place_api/icons/v2/generic_pinlet", "name": "Ctra.A1-Cruce Aoslos", "place_id": "ChIJHSoCvDLlQw0RP597m_KDQRg", "plus_code": {"compound_code": "397Q+3P Aoslos, Spain", "global_code": "8CHR397Q+3P"}, "reference": "ChIJHSoCvDLlQw0RP597m_KDQRg", "scope": "GOOGLE", "types": ["transit_station", "point_of_interest", "establishment"], "vicinity": "Spain"}, {"business_status": "OPERATIONAL", "geometry": {"location": {"lat": 41.0625456, "lng": -3.610838499999999}, "viewport": {"northeast": {"lat": 41.0638702802915, "lng": -3.609473819708498}, "southwest": {"lat": 41.0611723197085, "lng": -3.612171780291503}}}, "icon": "https://maps.gstatic.com/mapfiles/place_api/icons/v1/png_71/generic_business-71.png", "icon_background_color": "#7B9EB0", "icon_mask_base_uri": "https://maps.gstatic.com/mapfiles/place_api/icons/v2/generic_pinlet", "name": "Desvio Acebeda-Aoslos A-1", "place_id": "ChIJw_dZvDLlQw0RxSNEsu4g8kM", "plus_code": {"compound_code": "397Q+2M Aoslos, Spain", "global_code": "8CHR397Q+2M"}, "rating": 3, "reference": "ChIJw_dZvDLlQw0RxSNEsu4g8kM", "scope": "GOOGLE", "types": ["transit_station", "point_of_interest", "establishment"], "user_ratings_total": 1, "vicinity": "Spain"}, {"business_status": "OPERATIONAL", "geometry": {"location": {"lat": 41.04752149999999, "lng": -3.5827612}, "viewport": {"northeast": {"lat": 41.0488705302915, "lng": -3.581412369708498}, "southwest": {"lat": 41.0461725697085, "lng": -3.584110330291502}}}, "icon": "https://maps.gstatic.com/mapfiles/place_api/icons/v1/png_71/bus-71.png", "icon_background_color": "#10BDFF", "icon_mask_base_uri": "https://maps.gstatic.com/mapfiles/place_api/icons/v2/bus_share_taxi_pinlet", "name": "Madarcos - Junto a Iglesia", "photos": [{"height": 1365, "html_attributions": ["<a href=\"https://maps.google.com/maps/contrib/106880790896975608067\">Lolo</a>"], "photo_reference": "AWn5SU6F8e_cwtma42ia0C6lOtxPAIzjC21i9_UaFXF84tXstAl107CgpHYvXJKmqDCOL4H2CaBBkneUpBUlhlFOm6ZjDMrkD-OHFs2N7CIjB2OYa4NxRQ7jn4k0zpW_ly0SW0qN_EbKekd5SoqeGAwcU-ClUBsETzgz6yU0J3u14rmC0_YNYhcjq5-QdJfvuAy6PwrXmYCkbiqxD2nI4pzEIPFuULS3cx-hfyByfDEeglIAoIJEtHwpR0V0tqCM0eBL70CSKtPHjlB9_OLgsusSBFXHFdOYl-MO4HuppDW0W-kd8rwe3ngkHVNLLPHl3ypvPQoKNOAtas2O2_NneCu96fanCa3N4efOe_qGHYHNTSXxkHy0dqgtlpwFC_M9uyEiaY7wPETrCJWUR4_m6eCo-xGygpeVlFSTrzObOK2Lcje_Ew-WgBhxYgZ-8Vjen0ndxCawg4ZwqAohDqigfJERlybbYyeaipjFNyK77c3m36STWPUVtYE3JONq-mJ_G_mDizWJ68_n6drgDteq7zTkBnWSNbKD0EbQZ5p6pRE4G8G6dUxZGQiO4v9xGmXZovz52u7FZM4uEfSw-vcAhPuHUeIxZ506BC0qUL_aQxK_s2r10uWPOEP4IkdwmgIR4PPyB_RAhwgq", "width": 2048}], "place_id": "ChIJP1RyEl_lQw0RgQX9_vmqwVQ", "plus_code": {"compound_code": "2CX8+2V Madarcos, Spain", "global_code": "8CHR2CX8+2V"}, "rating": 5, "reference": "ChIJP1RyEl_lQw0RgQX9_vmqwVQ", "scope": "GOOGLE", "types": ["bus_station", "transit_station", "point_of_interest", "establishment"], "user_ratings_total": 1, "vicinity": "Spain"}, {"business_status": "OPERATIONAL", "geometry": {"location": {"lat": 41.084365, "lng": -3.615540699999999}, "viewport": {"northeast": {"lat": 41.0857052802915, "lng": -3.614195269708497}, "southwest": {"lat": 41.0830073197085, "lng": -3.616893230291502}}}, "icon": "https://maps.gstatic.com/mapfiles/place_api/icons/v1/png_71/generic_business-71.png", "icon_background_color": "#7B9EB0", "icon_mask_base_uri": "https://maps.gstatic.com/mapfiles/place_api/icons/v2/generic_pinlet", "name": "Acebeda - M639 Paraje Royuelo", "place_id": "ChIJ9b31Quf6Qw0R-O0GRenCzdA", "plus_code": {"compound_code": "39MM+PQ La Acebeda, Spain", "global_code": "8CHR39MM+PQ"}, "reference": "ChIJ9b31Quf6Qw0R-O0GRenCzdA", "scope": "GOOGLE", "types": ["transit_station", "point_of_interest", "establishment"], "vicinity": "Spain"}, {"business_status": "OPERATIONAL", "geometry": {"location": {"lat": 41.0843472, "lng": -3.6155763}, "viewport": {"northeast": {"lat": 41.08571128029151, "lng": -3.614221169708498}, "southwest": {"lat": 41.08301331970851, "lng": -3.616919130291502}}}, "icon": "https://maps.gstatic.com/mapfiles/place_api/icons/v1/png_71/generic_business-71.png", "icon_background_color": "#7B9EB0", "icon_mask_base_uri": "https://maps.gstatic.com/mapfiles/place_api/icons/v2/generic_pinlet", "name": "La Acebeda - Paraje de Royuelo", "place_id": "ChIJBy36Quf6Qw0Ru9Nu89G1jIU", "plus_code": {"compound_code": "39MM+PQ La Acebeda, Spain", "global_code": "8CHR39MM+PQ"}, "reference": "ChIJBy36Quf6Qw0Ru9Nu89G1jIU", "scope": "GOOGLE", "types": ["transit_station", "point_of_interest", "establishment"], "vicinity": "Spain"}, {"business_status": "OPERATIONAL", "geometry": {"location": {"lat": 41.0843971, "lng": -3.615675399999999}, "viewport": {"northeast": {"lat": 41.08573648029149, "lng": -3.614330269708498}, "southwest": {"lat": 41.0830385197085, "lng": -3.617028230291502}}}, "icon": "https://maps.gstatic.com/mapfiles/place_api/icons/v1/png_71/generic_business-71.png", "icon_background_color": "#7B9EB0", "icon_mask_base_uri": "https://maps.gstatic.com/mapfiles/place_api/icons/v2/generic_pinlet", "name": "Acebeda (La)", "place_id": "ChIJ9wKjQ-f6Qw0RsXjBxMvRh4k", "plus_code": {"compound_code": "39MM+QP La Acebeda, Spain", "global_code": "8CHR39MM+QP"}, "reference": "ChIJ9wKjQ-f6Qw0RsXjBxMvRh4k", "scope": "GOOGLE", "types": ["transit_station", "point_of_interest", "establishment"], "vicinity": "Spain"}, {"business_status": "OPERATIONAL", "geometry": {"location": {"lat": 41.0597948, "lng": -3.5450835}, "viewport": {"northeast": {"lat": 41.06115048029151, "lng": -3.543717269708498}, "southwest": {"lat": 41.05845251970851, "lng": -3.546415230291502}}}, "icon": "https://maps.gstatic.com/mapfiles/place_api/icons/v1/png_71/generic_business-71.png", "icon_background_color": "#7B9EB0", "icon_mask_base_uri": "https://maps.gstatic.com/mapfiles/place_api/icons/v2/generic_pinlet", "name": "Horcajuelo - C/ Blanco 2", "place_id": "ChIJDY8E79PvQw0RkcAczZg0rsY", "plus_code": {"compound_code": "3F53+WX Horcajuelo de la Sierra, Spain", "global_code": "8CHR3F53+WX"}, "reference": "ChIJDY8E79PvQw0RkcAczZg0rsY", "scope": "GOOGLE", "types": ["transit_station", "point_of_interest", "establishment"], "vicinity": "Spain"}, {"business_status": "OPERATIONAL", "geometry": {"location": {"lat": 41.08636630000001, "lng": -3.6237151}, "viewport": {"northeast": {"lat": 41.08770373029149, "lng": -3.622370969708498}, "southwest": {"lat": 41.08500576970849, "lng": -3.625068930291502}}}, "icon": "https://maps.gstatic.com/mapfiles/place_api/icons/v1/png_71/generic_business-71.png", "icon_background_color": "#7B9EB0", "icon_mask_base_uri": "https://maps.gstatic.com/mapfiles/place_api/icons/v2/generic_pinlet", "name": "Acebeda - Calle del Puerto 10", "photos": [{"height": 4000, "html_attributions": ["<a href=\"https://maps.google.com/maps/contrib/101846558503365605759\">DIEGO RAMOS</a>"], "photo_reference": "AWn5SU46035IUJn-J1ob-1OzrWLtrQulGDAdEjUivssggvu2U-oNe_qfTFUndAzHu6ZbilGdsBG_v10Dbfr_WHCBG8LcjjvfgdGB3hiO6ftGLAJT_O-xRTuE9AaSbZ0ShXjYZula9CZ3uK2dhN9BXYLfmyRPtnVLcAOJrLiOKo4TkKDNVtCAOp3qccf3slg2STvMfQTr4U0av11_5FcEZCu2sq5BMOeNcYq5NSdGqwA4_NZsXLUX0MBs2H-OeTfqoziUIenjRPB1JhNUUF-d9Ps4w7sKMjISE7t76xlMBGfMaxP1JQpkX1vk_7yNbuaX1ISyubZ5bqNpJeTzLo7Yr1yAVil1_srnqN23wKWEc5fQd9fCqjzUtIv5llTNLGunIrzSDiYtUUYDyoG_hVzkFmNytXCpNdhiO-IN6DyQQ2gPfIWYc3BsLfN-YRyCe7CxMsTls99GV1VeGhh6UYroFsLKltR2m8YaxUeO7Y0IH2-cy7xp-fdcUXQkPuLB46F9w_I63giBv6JPnWUa8sN_Lal58WoRYvvyRRNUqcOo8JvWFcGc8PVb8g7xeDeHm5G7_YeG0r9V9nkL6qO_nw4zJMRtxm_mqq9H6xa1bUfC4lHCCFgq7eZ4kekoXuy-_SdcyI2K0_LpCA", "width": 3000}], "place_id": "ChIJ08IkUB77Qw0RmXsQX90xbvc", "plus_code": {"compound_code": "39PG+GG La Acebeda, Spain", "global_code": "8CHR39PG+GG"}, "reference": "ChIJ08IkUB77Qw0RmXsQX90xbvc", "scope": "GOOGLE", "types": ["transit_station", "point_of_interest", "establishment"], "vicinity": "Spain"}, {"business_status": "OPERATIONAL", "geometry": {"location": {"lat": 41.0330767, "lng": -3.599479}, "viewport": {"northeast": {"lat": 41.0344734302915, "lng": -3.598145569708498}, "southwest": {"lat": 41.0317754697085, "lng": -3.600843530291503}}}, "icon": "https://maps.gstatic.com/mapfiles/place_api/icons/v1/png_71/generic_business-71.png", "icon_background_color": "#7B9EB0", "icon_mask_base_uri": "https://maps.gstatic.com/mapfiles/place_api/icons/v2/generic_pinlet", "name": "Piñuecar - Iglesia", "photos": [{"height": 4160, "html_attributions": ["<a href=\"https://maps.google.com/maps/contrib/116125616616597274199\">Pilar Preciado</a>"], "photo_reference": "AWn5SU7bknahKEwMbhf3pF0-3C6poRnd8rw32iKRHMiaTbnvUygMXYf6WZ0Uf7sOomueWvGkXHWzTVoPmrr7mKaKTGfgWmE8LwfBEmuO4YVWBDvHCLVPs0MzJlp8ZBVrILxpEimc5I4aED_gVpbM3mz5SeKjA13lKdEybIGQwAX64T8CF36GJ7Bxx0F8RbdpeoXqsf7GuRWto55qPz5hrjKLVgURyoiHHo86D5iYOKGHUKQiAmQ8AEq1LxAsUysMlw2MaWVYzsomsth-9gqUKW6TkznMoabB-QKhNf7YilxWUCz5aPFxqZGTUmy0QAWPRHKu-n_9jmFpfJiDlk9WW-c7t54N78v_gOxu0wiZ7TEa61Rg6V7UHrz4ffgnR7r27H5Wbsn9TU6m1ZyTo1Hm22lXjMC0r4dZKa2oPyu_By7bTGaLtg-Q-h-kef0QEGBvwvgSX_YP3EBCDay-GyF4cra-HmagC1fSIBPegjmIdNzM4sy-id1xZ0DZ9dOVePEspg127pr_qpSGnYYE3Fjj8s73sFGt1RNavZo_1nKd8QoKvgghbKQzuiVYOP1wfXXrBR5yUp1IVBRkqsRAN1rn-xydUQ7ulEZBunEKiU3LdHxd8NLZ2FYrVNM0jEQ_FxlhZbTVKuj4KPEZ", "width": 3120}], "place_id": "ChIJzWGcj3LlQw0Rw63EKNuDm8c", "plus_code": {"compound_code": "2CM2+66 Piñuécar, Spain", "global_code": "8CHR2CM2+66"}, "reference": "ChIJzWGcj3LlQw0Rw63EKNuDm8c", "scope": "GOOGLE", "types": ["transit_station", "point_of_interest", "establishment"], "vicinity": "Spain"}]