[{"geometry": {"location": {"lat": 40.6788466, "lng": -3.6163061}, "viewport": {"northeast": {"lat": 40.68740747427722, "lng": -3.610622873341405}, "southwest": {"lat": 40.6731410192863, "lng": -3.625722455359159}}}, "icon": "https://maps.gstatic.com/mapfiles/place_api/icons/v1/png_71/geocode-71.png", "icon_background_color": "#7B9EB0", "icon_mask_base_uri": "https://maps.gstatic.com/mapfiles/place_api/icons/v2/generic_pinlet", "name": "San Agustín del Guadalix", "photos": [{"height": 4032, "html_attributions": ["<a href=\"https://maps.google.com/maps/contrib/110336529706782532966\">David Campaña</a>"], "photo_reference": "AWn5SU6-CsdIDBbLglXEl6JAHs3jsFB7q5MomhvYJ7dyIOaXUzPP36vzZxA2BRR-DyYxm_dWpopXw1lFpfxztf6E4ph5gxOmad75liWA7zsrLwc_dcxHzI3ttkJ36ii6L36trlkCH2Q98YyptX7i6HwH0x3PqfNuAAE6cqVLFYZv66c7L9ZWTnhWvYSyB_YyxvLlm1hzqKIB_It4wbXCdxar04_SOJH9AtQVU0if_Pot5qAn8ylzJ9ofCNifhcqQoqetPJXt7jahNdD3OomcZ3RKy_H7d5TOhiNEB4W0HSE3ibFf-ISSMPGjmwpcxImXboUXaK8H0Q5-HKN_yz_umOerNj8isGs_kW6QeEPPYF7yQXf2QpLeX2ir-1aD-cnrTPlSYm9n1IlTF1Ysh9X_BFNT58hkr8rKN0YxAe_QD7UmsfqeIWlm8ipqAyPuGLbsAF6QAJFKbtBlr0j_OlXGcTr_WepXEVozAlPbG76afPgi84bzKZ7iIIvBAI2eXPHc6YjtTUtCIbA6wNdxi5eCqsjaLB5TFgU8wlH9sYBoTiiqakN5QKvXryRO7cI9yLuh6yo6pWwmfHbAaOnBJRnbafXoOtdE3iBFW-f6IHgUiKOfKa3JF7rBf9bDx7joETGh-ObXLrE--TNE", "width": 1908}], "place_id": "ChIJDQ7nAKLRQw0RCav4GvQwsR0", "reference": "ChIJDQ7nAKLRQw0RCav4GvQwsR0", "scope": "GOOGLE", "types": ["locality", "political"], "vicinity": "San Agustín del Guadalix"}, {"business_status": "OPERATIONAL", "geometry": {"location": {"lat": 40.6827411, "lng": -3.620040899999999}, "viewport": {"northeast": {"lat": 40.6840970302915, "lng": -3.618693919708498}, "southwest": {"lat": 40.6813990697085, "lng": -3.621391880291502}}}, "icon": "https://maps.gstatic.com/mapfiles/place_api/icons/v1/png_71/generic_business-71.png", "icon_background_color": "#7B9EB0", "icon_mask_base_uri": "https://maps.gstatic.com/mapfiles/place_api/icons/v2/generic_pinlet", "international_phone_number": "+34 915 64 96 97", "name": "LBT Telecomunicaciones", "photos": [{"height": 1600, "html_attributions": ["<a href=\"https://maps.google.com/maps/contrib/105961744839559406843\">LBT Telecomunicaciones</a>"], "photo_reference": "AWn5SU66_MD8ZtyHTrWodQY0CQceyz6_-R7oDYQAQlGN1xO_or2i9P6mMfNLbisomuDXXDByilWYO1SmNaVdKckgwW3pxXqihDxrS9GO5ohahEdRE7DA69qYmwyUg8JRSezCe9uy3yeaxWnskknllywA8Hm-WIz4o8ZFZvm7KVNQVkBycwZobw482g5qyQufFVW7Xfm1Yl6TS0hOUm7lQHOqwQN9Rnb2vhppgoYGCO2Tbh3NSjbAI0dbf2qBS-pvsgEd2KnrDBfTxJIhf7xEJsrqgrCRGw4Iv-_yeAU5fn73wq3_KMueL7IZgOJuXl27laIlwOLm5kVB2Vw", "width": 2560}], "place_id": "ChIJwcuNo98oQg0RnxxNAmKHyKU", "plus_code": {"compound_code": "M9MH+3X San Agustín del Guadalix, Spain", "global_code": "8CGRM9MH+3X"}, "rating": 5, "reference": "ChIJwcuNo98oQg0RnxxNAmKHyKU", "scope": "GOOGLE", "types": ["electrician", "point_of_interest", "establishment"], "user_ratings_total": 3, "vicinity": "Calle Canarias, 25, San Agustín del Guadalix"}, {"business_status": "OPERATIONAL", "geometry": {"location": {"lat": 40.6791933, "lng": -3.6145489}, "viewport": {"northeast": {"lat": 40.6805237302915, "lng": -3.613172019708498}, "southwest": {"lat": 40.6778257697085, "lng": -3.615869980291503}}}, "icon": "https://maps.gstatic.com/mapfiles/place_api/icons/v1/png_71/bank-71.png", "icon_background_color": "#909CE1", "icon_mask_base_uri": "https://maps.gstatic.com/mapfiles/place_api/icons/v2/bank-intl_pinlet", "international_phone_number": "+34 918 41 99 38", "name": "BBVA", "opening_hours": {"open_now": false}, "photos": [{"height": 720, "html_attributions": ["<a href=\"https://maps.google.com/maps/contrib/110420338853334411475\">BBVA</a>"], "photo_reference": "AWn5SU5xRNl1C5WeJMNbuEnDDp35JUoXzfHIP_0WQ9EhYqYN9Vi5-2-pDJMQuOIgeBH_6qTkqdbjrf6MfWUalcl5hEQbEeP8aBHIM-WChCIhVYiPQbXUD3FZtlMKbKjmGWoWAZVB3qZbNY23O7lh5Gk65DOerJL5xKAcRapIjH0jPv_2F1VnXcRI6Y6b8pgnWJwsm_KiTGJfpS3StNX99knVYjUKPw_lSxlVqG8_jcdCvrlMGqDFZMdMuySeMeUNTD0Yzycnnj-ZfwiLW4w_sIGS313jlaH_5wdkXnHVPH0EQBgeb4zS6DSvVzfcJhcYTyGD_I8Kp7whGyQ", "width": 1280}], "place_id": "ChIJy8XAhZjRQw0RNmyFrIestWc", "plus_code": {"compound_code": "M9HP+M5 San Agustín del Guadalix, Spain", "global_code": "8CGRM9HP+M5"}, "rating": 2.3, "reference": "ChIJy8XAhZjRQw0RNmyFrIestWc", "scope": "GOOGLE", "types": ["bank", "atm", "accounting", "finance", "point_of_interest", "establishment"], "user_ratings_total": 48, "vicinity": "Plaza de Luis Carreño, 6, San Agustín del Guadalix"}, {"business_status": "OPERATIONAL", "geometry": {"location": {"lat": 40.6787983, "lng": -3.6144172}, "viewport": {"northeast": {"lat": 40.68024333029149, "lng": -3.613095819708497}, "southwest": {"lat": 40.67754536970849, "lng": -3.615793780291502}}}, "icon": "https://maps.gstatic.com/mapfiles/place_api/icons/v1/png_71/shopping-71.png", "icon_background_color": "#4B96F3", "icon_mask_base_uri": "https://maps.gstatic.com/mapfiles/place_api/icons/v2/shopping_pinlet", "international_phone_number": "+34 918 41 99 82", "name": "Casa Ideas", "opening_hours": {"open_now": false}, "photos": [{"height": 2880, "html_attributions": ["<a href=\"https://maps.google.com/maps/contrib/112643001522653389526\">Abi Angeles</a>"], "photo_reference": "AWn5SU5XL8VfoZb_TLn-M5LzzZsj9hzWNj2w3PJt-OIuMfO9mUJF-NHq9V7SAla7PtjuUFP5vNqT8K4XLlMM24tnAC_KLhkWz7hxGK1OpYBuP5CIZLm4Jp8UhkgZ7liClt9kVsCcfNGyxbGoRHAQ63E6vRjVnOpGdIcw7pAZHU0y1XiMr2Ruk68dnfV087Hcz5qoAftZHJAp0gjMDB2nDwAcSCu2-LCYcV3Dgt2OA0FgAwT4KSl5SFVtlBiCx1TDZ7fQqTTFO9GYo-vLphsgeMQInHPddZldtPTxKwmno3pRqSjaDpMfbu4qzc9Glzyew24kB1taCvMkrk2f_AdO9cdvF8w1w-UVCzFLX1TanlkQksuK3tpi9-_6RVbiXUP_9SOp6bhljsXbjetSxql0_Auzq7O-PPw6YzII7zdmvj7FFMOhxir0Ntva72vZfbGj_GEI58HeeOZpdO9SAUuj6GV2IOQr-jPJdOxhQQnB2IdE85iuvimMEMTfqpo55tWd-LlL6NDDw04n3uz3RNMy00t4_iOq3n3ZxrKDDddtU6no7vCBCcoQ6eTrvUKYwvltlH--j2YU3N7szyFNQqhw3YsoR_qu0XR8w1IXu-GyBBCBefitpEfrxeeFqTEgb4Wa_czU", "width": 2160}], "place_id": "ChIJneXwe6LRQw0RqHA-szahR9U", "plus_code": {"compound_code": "M9HP+G6 San Agustín del Guadalix, Spain", "global_code": "8CGRM9HP+G6"}, "rating": 4.8, "reference": "ChIJneXwe6LRQw0RqHA-szahR9U", "scope": "GOOGLE", "types": ["home_goods_store", "store", "point_of_interest", "establishment"], "user_ratings_total": 43, "vicinity": "Avenida de Madrid, 16, San Agustín del Guadalix"}, {"business_status": "OPERATIONAL", "geometry": {"location": {"lat": 40.693217, "lng": -3.6115824}, "viewport": {"northeast": {"lat": 40.6945108302915, "lng": -3.610202019708498}, "southwest": {"lat": 40.6918128697085, "lng": -3.612899980291502}}}, "icon": "https://maps.gstatic.com/mapfiles/place_api/icons/v1/png_71/generic_business-71.png", "icon_background_color": "#7B9EB0", "icon_mask_base_uri": "https://maps.gstatic.com/mapfiles/place_api/icons/v2/generic_pinlet", "international_phone_number": "+34 902 01 01 43", "name": "Serseguro S L", "opening_hours": {"open_now": false}, "place_id": "ChIJIx8C1EwvQg0RcF3KOIHkB8k", "plus_code": {"compound_code": "M9VQ+79 San Agustín del Guadalix, Spain", "global_code": "8CGRM9VQ+79"}, "rating": 2.1, "reference": "ChIJIx8C1EwvQg0RcF3KOIHkB8k", "scope": "GOOGLE", "types": ["point_of_interest", "establishment"], "user_ratings_total": 54, "vicinity": "Calle del Hervidero, 5, San Agustín del Guadalix"}, {"business_status": "OPERATIONAL", "geometry": {"location": {"lat": 40.6824831, "lng": -3.6154565}, "viewport": {"northeast": {"lat": 40.6839343302915, "lng": -3.614033069708496}, "southwest": {"lat": 40.6812363697085, "lng": -3.616731030291501}}}, "icon": "https://maps.gstatic.com/mapfiles/place_api/icons/v1/png_71/generic_business-71.png", "icon_background_color": "#7B9EB0", "icon_mask_base_uri": "https://maps.gstatic.com/mapfiles/place_api/icons/v2/generic_pinlet", "international_phone_number": "+34 918 43 64 75", "name": "CASA ARQUITECTOS", "opening_hours": {"open_now": false}, "photos": [{"height": 276, "html_attributions": ["<a href=\"https://maps.google.com/maps/contrib/117658425178838725531\">CASA ARQUITECTOS</a>"], "photo_reference": "AWn5SU7eL5VXkWhn0KT0b3OTA24ZqQvQJwyxdrH0fmhaGau-MNPTis-NdnKBFnlocQvDvGrQ2cjp6iMNKRtaaPvuxICqXs1ZVOfn4RQwBJQGJUCdtnofoQzaCq-wA12BnhxUSJNS5z5m7EmkmWVQNgT-rR6vwJ7-X1pXB4aYvSZuN6bwZD_f8CaP6BNJ8IOclnDQpmlYjliqifqomuZnIsGN85z7pfnuvtErkxB4FJoX3BOQD4gQfON0F0LWerksfjBaXsnLHv9_mhXMhbAhF9BxUADRqqpw0gfSIswgAt4-5ikJwqr9cAzyosUdjQ3kVlaFW_2ATx2z", "width": 960}], "place_id": "ChIJpWp3cKDRQw0Rw5EonU6bwuQ", "plus_code": {"compound_code": "M9JM+XR San Agustín del Guadalix, Spain", "global_code": "8CGRM9JM+XR"}, "rating": 5, "reference": "ChIJpWp3cKDRQw0Rw5EonU6bwuQ", "scope": "GOOGLE", "types": ["real_estate_agency", "general_contractor", "finance", "point_of_interest", "establishment"], "user_ratings_total": 1, "vicinity": "Calle Murcia, 27, San Agustín del Guadalix"}, {"business_status": "OPERATIONAL", "geometry": {"location": {"lat": 40.6793133, "lng": -3.6141023}, "viewport": {"northeast": {"lat": 40.68068848029149, "lng": -3.612912419708498}, "southwest": {"lat": 40.6779905197085, "lng": -3.615610380291503}}}, "icon": "https://maps.gstatic.com/mapfiles/place_api/icons/v1/png_71/generic_business-71.png", "icon_background_color": "#7B9EB0", "icon_mask_base_uri": "https://maps.gstatic.com/mapfiles/place_api/icons/v2/generic_pinlet", "international_phone_number": "+34 918 43 64 63", "name": "Viajes Guadalix S.l.", "opening_hours": {"open_now": false}, "photos": [{"height": 3000, "html_attributions": ["<a href=\"https://maps.google.com/maps/contrib/107476194881778717711\">jose maria perez</a>"], "photo_reference": "AWn5SU5nQtJxQTwfDZr9EFLJiRy7UpIg0Lyhg6sT_W1VOLArYy9koEKqrUZ1XSNpLdiBEra3B2DMNxg-9wh0iyHCe_saYGj9vxYcj0evymopNvE_E-hNaWv_7pV_T3BNu1uHsy0JNw0nM_S0p_vplAvwTIhBTfgzZokIxe10WAzKBx4SxKwO9xijiTGPxi8RbovVJqvJmWS9zT2vK0zbp660eH1Wj1weCD9t39neIv_xZxYux88XPV0Saz0ycIc_nz-MoOUFoN2JhxFLskSvl7yKynyyDzrzH8rd_t0UtnZ5SrDkaWRCGnYh_OBsYcXj3cDYpqwsa4qLEIBzw-rDe1V_cELjG6RrmvI2NzD2O6_VX2Na2MUKnEETBglOQ3fc41DJfTXWnkFKDBTE7Htj1kqzzzw2ONQO0q0AcGc5jJDAGsP8YFV8L-hPRagvGSVEjLCJs8OB_IdIoiEQtH9WEIxm1zmbtLtHsLf3gQ4Ge1iLWi4miLg1T3a6JccXwt4evGXmPJHyjtKNY2zuCQNzdcZUGvcbR_JDW9nJ9hRIe0AY7Q14Oymy4qY6drj6APe_lvVvFzmtVY8ARkEq_RDWV_Qp1PG1Iq5aACBMSCBiAcsTgZ2H1QUM4Dux7h9ZPt1--cyJNtVy8ZLt", "width": 4000}], "place_id": "ChIJ07Lgf5jRQw0RYg4VMmV0xuc", "plus_code": {"compound_code": "M9HP+P9 San Agustín del Guadalix, Spain", "global_code": "8CGRM9HP+P9"}, "rating": 3.9, "reference": "ChIJ07Lgf5jRQw0RYg4VMmV0xuc", "scope": "GOOGLE", "types": ["travel_agency", "point_of_interest", "establishment"], "user_ratings_total": 16, "vicinity": "Avenida de Madrid, 18, San Agustín del Guadalix"}, {"business_status": "OPERATIONAL", "geometry": {"location": {"lat": 40.67678100000001, "lng": -3.618564700000001}, "viewport": {"northeast": {"lat": 40.67811973029151, "lng": -3.617120919708498}, "southwest": {"lat": 40.67542176970851, "lng": -3.619818880291502}}}, "icon": "https://maps.gstatic.com/mapfiles/place_api/icons/v1/png_71/generic_business-71.png", "icon_background_color": "#7B9EB0", "icon_mask_base_uri": "https://maps.gstatic.com/mapfiles/place_api/icons/v2/generic_pinlet", "international_phone_number": "+34 918 41 49 97", "name": "Administración Lazmar", "place_id": "ChIJo-Jv457RQw0RceOyk2xsRVw", "plus_code": {"compound_code": "M9GJ+PH San Agustín del Guadalix, Spain", "global_code": "8CGRM9GJ+PH"}, "rating": 4.2, "reference": "ChIJo-Jv457RQw0RceOyk2xsRVw", "scope": "GOOGLE", "types": ["point_of_interest", "establishment"], "user_ratings_total": 5, "vicinity": "Calle de Antonio Machado, 10, San Agustín del Guadalix"}, {"business_status": "OPERATIONAL", "geometry": {"location": {"lat": 40.6799443, "lng": -3.621597699999999}, "viewport": {"northeast": {"lat": 40.6813422802915, "lng": -3.620333869708497}, "southwest": {"lat": 40.6786443197085, "lng": -3.623031830291501}}}, "icon": "https://maps.gstatic.com/mapfiles/place_api/icons/v1/png_71/civic_building-71.png", "icon_background_color": "#7B9EB0", "icon_mask_base_uri": "https://maps.gstatic.com/mapfiles/place_api/icons/v2/civic-bldg_pinlet", "international_phone_number": "+34 918 48 99 74", "name": "Civil Guard Post San Agustín del Guadalix", "opening_hours": {"open_now": true}, "photos": [{"height": 3096, "html_attributions": ["<a href=\"https://maps.google.com/maps/contrib/115283681159193550984\">David Rubio Lebrato (Powerlebrato)</a>"], "photo_reference": "AWn5SU4539GunPxCtcfzMKjg3irN1SgHPVbUnBP_8FjB_XC-dfHqzUYOH_y5vq9HqOzrU3XIzXfMUepTR7xEOjllG8WoFhMbQZwoaIIjqyJDO_q19grV-25X53O1LfBSFqsBfp8KoKFzvffwgFJm_WRZfXPdhOogEdq5wGYKod6g13bb0Wa9Jl0IDXIJxcHynhW4eVFobtD6YiQIRjCAvbTbCbMMC4RRn6IrgDGN0vKScyAjc1-3HCTn6TwyBNl1fwwosVmMU8GMJtdT0wtfG1U1XV6RYe4SlgqY_3FIPlya_aaIRJpeRLcQc2ISLAljjruOkJipdY0Ow0eNpeT0i9wyJ-6rFV536v2vt1WtyhfM9eam_rZ_il8NP7l3xBYEGfIsyLevf8aLuH8x9whRAq3IyIJPght2hSQXLR7hkyzMswEKcXBAJ58BRpeXXgiJ4vTyONTztRCs3I5ZZ4zuKMuReEDPYVIhSx20aO6RoeDRYgJRyEpvRZZHnOPe5p-k9DhbkCwDQ5AnDCDn8HRiGm_KcTxHkZ8kK-krI83d4YPa9iTe10P6G0MIF3aV1mO_NPl8iKzSvk3hZnLaQRDdBDO9JiY5iaHGhIdeYdCw7mmD03miFyDK8-1GgsllWUqTB5ReatqFvA", "width": 4128}], "place_id": "ChIJqUnsCKDRQw0RNW6rzj24lCg", "plus_code": {"compound_code": "M9HH+X9 San Agustín del Guadalix, Spain", "global_code": "8CGRM9HH+X9"}, "rating": 3.4, "reference": "ChIJqUnsCKDRQw0RNW6rzj24lCg", "scope": "GOOGLE", "types": ["police", "point_of_interest", "establishment"], "user_ratings_total": 12, "vicinity": "Calle Emilia Pardo Bazán, 1, San Agustín del Guadalix"}, {"business_status": "OPERATIONAL", "geometry": {"location": {"lat": 40.6772299, "lng": -3.6187435}, "viewport": {"northeast": {"lat": 40.6785726802915, "lng": -3.617388869708498}, "southwest": {"lat": 40.6758747197085, "lng": -3.620086830291502}}}, "icon": "https://maps.gstatic.com/mapfiles/place_api/icons/v1/png_71/school-71.png", "icon_background_color": "#7B9EB0", "icon_mask_base_uri": "https://maps.gstatic.com/mapfiles/place_api/icons/v2/school_pinlet", "international_phone_number": "+34 918 43 59 55", "name": "Mi Casita", "photos": [{"height": 2560, "html_attributions": ["<a href=\"https://maps.google.com/maps/contrib/100912094040374642559\">Maribel Alegría Sanchez</a>"], "photo_reference": "AWn5SU4MLJmUEAa725kIAAIRWE10i8MHzsknR4IFzBBkiYT-Z5miHWGrkhZmzDfRBHE7viEEzTGBuGBAxHAxHzjEL_QcDfbVwMc3H10QY9Ptimhq92mSSMMKQNgGxs0Q0hBLpMGDMDRU1f8ljASnjSPqUh5QgHm_QdLi-xUizA5M7EPIqe_ogrl9zmsLxbhaDt9D2rwWYanGODMzMMFRhSUNaQoyeQJScHqIxefivk1-zzau5UKzAxI41e9vIoPMhKz24hmjWss_XcGoxgunK8b7axFAqsq_msVVZUvGihm177SqRC2niEo64IzPxofmMCpsw_H-PD0WEeymDWo81reTbOZfsEiqR0iuo8P8sUmRnsjjlGUBSqUyrUR0Yh1MjAhRf55fSEloVXDuR0MoefZ52AwL6arKHspSNuz65W5-SvY7xNkbx3I35w-_j8PfmWMKp5LM0_3QClD05U8ilINPkgrCYJaRfsyb_gkN5qZ99IXVO6Y7_-_5im2_LNv7iGq9D-FFsAlj9WIb6twW-GIMyo1DtB2tHWFTcOdvUilngzB8qUww1pofawDJkBkVSdYlUh4Rrxg4dVoOULHMw24eUeD7PBup03_NZ3aoJfFD60gNt5aJRod1LtydbhULc0dQUltTsA", "width": 1536}], "place_id": "ChIJB20FA5_RQw0RlDar9bHggRw", "plus_code": {"compound_code": "M9GJ+VG San Agustín del Guadalix, Spain", "global_code": "8CGRM9GJ+VG"}, "rating": 4.7, "reference": "ChIJB20FA5_RQw0RlDar9bHggRw", "scope": "GOOGLE", "types": ["school", "point_of_interest", "establishment"], "user_ratings_total": 13, "vicinity": "Calle de Luis Cernuda, 18, San Agustín del Guadalix"}, {"business_status": "OPERATIONAL", "geometry": {"location": {"lat": 40.6786269, "lng": -3.6166287}, "viewport": {"northeast": {"lat": 40.67997818029149, "lng": -3.615291069708498}, "southwest": {"lat": 40.6772802197085, "lng": -3.617989030291502}}}, "icon": "https://maps.gstatic.com/mapfiles/place_api/icons/v1/png_71/generic_business-71.png", "icon_background_color": "#7B9EB0", "icon_mask_base_uri": "https://maps.gstatic.com/mapfiles/place_api/icons/v2/generic_pinlet", "international_phone_number": "+34 609 95 66 46", "name": "Van Eyck Fotógrafos", "opening_hours": {"open_now": false}, "photos": [{"height": 718, "html_attributions": ["<a href=\"https://maps.google.com/maps/contrib/109358097701123495053\">JUDITH GONZALEZ</a>"], "photo_reference": "AWn5SU6n300lTXdvRo_xSb8gzEpPVdPfajb0LBy2inW_fUXlp2J7k-5b4SjXuW9YA0qWOCzt-YdSgsJ8gY71cbA8OROHo2tvgmLAJ0goPGZtSC4GFqJdyPBvAoVwxVoaGxscCpoxwEwj4Wi8o7OlespomWfTHM53Cl9h1WG-t-UFm7OXSgpQlWMAxMBH6kHfwtxTOlkowr7bnHXilaPvgBMq6AEOOhG-cUnB6mTtAmyGnMFG1poQzdIry9W_9xQJhtKXzdU00uVJ7_rP1RLQFycXruuXcRWB_-tg_pXAMAKh3nmyGYcHm8pPkYhZTCxG_OJRcThBWPWeLpGFyRo5xB6qZBvDkjZJC88Tc6KMorZVL_tqTsxYGSnZOofpMGPDofVCQQm6X7KvRnMO88YfrARbi53sLQ_RFqCpDsS0y7twESG959vKAPrVdsx1O_0okdOYTbRfFbfxqdHSO5m4sQ_vKlxOMBaB0PPHEYU_7CQ1k1vuqPqnRS3yAvf0f2Fv54dkbxYPRCZlMJ42n-WyWJgX4leb9qAZdsKmsx-XidRj_lqrs9uWe8tspQeojKrDhZY8m465ajMky1GgTbC6ImsI1Ch7-UqqIiRWzppmo_qFmvke7LSUdZVILtX0Fxfhwx6MlDFSSFFX", "width": 1080}], "place_id": "ChIJI2jWbp_RQw0RRNCn9GpRMw0", "plus_code": {"compound_code": "M9HM+F8 San Agustín del Guadalix, Spain", "global_code": "8CGRM9HM+F8"}, "rating": 4.7, "reference": "ChIJI2jWbp_RQw0RRNCn9GpRMw0", "scope": "GOOGLE", "types": ["point_of_interest", "establishment"], "user_ratings_total": 51, "vicinity": "Calle de la Soledad, 1, San Agustín del Guadalix"}, {"business_status": "OPERATIONAL", "geometry": {"location": {"lat": 40.6802087, "lng": -3.6143475}, "viewport": {"northeast": {"lat": 40.6815229802915, "lng": -3.613112019708498}, "southwest": {"lat": 40.6788250197085, "lng": -3.615809980291502}}}, "icon": "https://maps.gstatic.com/mapfiles/place_api/icons/v1/png_71/school-71.png", "icon_background_color": "#7B9EB0", "icon_mask_base_uri": "https://maps.gstatic.com/mapfiles/place_api/icons/v2/school_pinlet", "international_phone_number": "+34 918 41 88 37", "name": "Autoescuela Merinero", "opening_hours": {"open_now": false}, "photos": [{"height": 381, "html_attributions": ["<a href=\"https://maps.google.com/maps/contrib/107056996544962022487\">Autoescuela Merinero</a>"], "photo_reference": "AWn5SU4yf-20EBlfWBbtS4BhxmxHAQAb09OmleYfCaOKPcR6ituQxji4M4uKxRquDTkHaD3ma7I6BEJYtIXyt3atIoS0j3fP-NwPOObM5Ma1wOM3o-10LmNJO-Nu8HZqynWU2lNTezl-_xGf18IzESo8mS2NBuC6gmcjqiQf_MOHZPpI1vbljA2EZsTQ5z1lqUrpvmPDrFBMvj6TMEGjbEdxaYmOoTVTbBqjl2-bf4FhoUGF3zwh8t7XkvGIATBfSx-oqFE8jXixi1h0sDstGfLZid4UDZ8cFTh_UsFRkoWlopKeu7EUFttBtNRmJIXG5fZy2I3I5NDuSAI", "width": 550}], "place_id": "ChIJPX0FfaLRQw0RfurX5IqLqbI", "plus_code": {"compound_code": "M9JP+37 San Agustín del Guadalix, Spain", "global_code": "8CGRM9JP+37"}, "rating": 4.9, "reference": "ChIJPX0FfaLRQw0RfurX5IqLqbI", "scope": "GOOGLE", "types": ["point_of_interest", "establishment"], "user_ratings_total": 87, "vicinity": "Avenida de Madrid, 37, San Agustín del Guadalix"}, {"business_status": "OPERATIONAL", "geometry": {"location": {"lat": 40.6800674, "lng": -3.6145387}, "viewport": {"northeast": {"lat": 40.6814293802915, "lng": -3.613216769708498}, "southwest": {"lat": 40.67873141970851, "lng": -3.615914730291502}}}, "icon": "https://maps.gstatic.com/mapfiles/place_api/icons/v1/png_71/generic_business-71.png", "icon_background_color": "#7B9EB0", "icon_mask_base_uri": "https://maps.gstatic.com/mapfiles/place_api/icons/v2/generic_pinlet", "international_phone_number": "+34 918 41 81 18", "name": "Gestoría Administrativa Suárez Morillo | San Agustín del Guadalix", "opening_hours": {"open_now": false}, "photos": [{"height": 720, "html_attributions": ["<a href=\"https://maps.google.com/maps/contrib/111282699667876459572\">Gestoría Administrativa Suárez Morillo | San Agustín del Guadalix</a>"], "photo_reference": "AWn5SU7bD9rsemsnSXWt5WciAgA8URgJrWhmC_MgwLn6bYLb_UH5-CM8qkrQssZ2rjiHeU4aBIDcMX4I0cDIhKxka2VhBAe61MVr5jkNARLaEXUwWZ5Iz8ZWKFeUF10zVu_E_h1ePlBiDLyJEoxY1yMT57l5HKhdcwy8VhOJjdOfWKo14Ew5ZKxHTGvLtAhydjdPSev07iIZcbccBo5z6Su6NMb5ENXgpD43k3DLMp5_MvrhITa1XVnw-wKjJCVTDvS2oNq8vYd13bETmzI8OWPniDGd3vNrtq8x6dWeW394PYKjDF0jQ2WFDeclP91jQtIaGg4b2hh8xuk", "width": 720}], "place_id": "ChIJu4Hwe6LRQw0R0Nc1ZQFqm7M", "plus_code": {"compound_code": "M9JP+25 San Agustín del Guadalix, Spain", "global_code": "8CGRM9JP+25"}, "rating": 2.3, "reference": "ChIJu4Hwe6LRQw0R0Nc1ZQFqm7M", "scope": "GOOGLE", "types": ["accounting", "lawyer", "finance", "point_of_interest", "establishment"], "user_ratings_total": 16, "vicinity": "Calle de Félix Sanz, 18, San Agustín del Guadalix"}, {"business_status": "OPERATIONAL", "geometry": {"location": {"lat": 40.67888380000001, "lng": -3.6141545}, "viewport": {"northeast": {"lat": 40.6802991302915, "lng": -3.612985219708498}, "southwest": {"lat": 40.6776011697085, "lng": -3.615683180291502}}}, "icon": "https://maps.gstatic.com/mapfiles/place_api/icons/v1/png_71/generic_business-71.png", "icon_background_color": "#7B9EB0", "icon_mask_base_uri": "https://maps.gstatic.com/mapfiles/place_api/icons/v2/generic_pinlet", "international_phone_number": "+34 656 65 60 48", "name": "Consulta de Podología Reques", "opening_hours": {"open_now": false}, "place_id": "ChIJvVnVi5jRQw0RdAhRZNS8yl0", "plus_code": {"compound_code": "M9HP+H8 San Agustín del Guadalix, Spain", "global_code": "8CGRM9HP+H8"}, "rating": 4.5, "reference": "ChIJvVnVi5jRQw0RdAhRZNS8yl0", "scope": "GOOGLE", "types": ["doctor", "health", "point_of_interest", "establishment"], "user_ratings_total": 10, "vicinity": "Calle Luis Carreño, 1, San Agustín del Guadalix"}, {"business_status": "OPERATIONAL", "geometry": {"location": {"lat": 40.6908858, "lng": -3.6077164}, "viewport": {"northeast": {"lat": 40.6923989302915, "lng": -3.606426819708498}, "southwest": {"lat": 40.6897009697085, "lng": -3.609124780291503}}}, "icon": "https://maps.gstatic.com/mapfiles/place_api/icons/v1/png_71/generic_business-71.png", "icon_background_color": "#7B9EB0", "icon_mask_base_uri": "https://maps.gstatic.com/mapfiles/place_api/icons/v2/generic_pinlet", "international_phone_number": "+34 918 45 09 77", "name": "IBP Uniuso (Inversiones Blanco Paris S.L.) | Proveedor B2B de Productos Desechables de Higiene, Protección y Embalaje", "opening_hours": {"open_now": false}, "photos": [{"height": 842, "html_attributions": ["<a href=\"https://maps.google.com/maps/contrib/101937862136350287387\">IBP Uniuso (Inversiones Blanco Paris S.L.) | Proveedor B2B de Productos Desechables de Higiene, Protección y Embalaje</a>"], "photo_reference": "AWn5SU7pxKilXbd8_Y4u0wSTXEhO4ud_xdQUSQPezB7at_EAB5rIaEO13X2femKorvRyeK3NrxWYlZPeipLJmF0W5RSMcJ3ZSB0jiW7vemOxAMYQ9ZhABwsnMO1PvONSBVbIDc4HdrUU2EcU-RFaqD7tHB8byui2cEqtBNzpCZwuv-Xj_6N8aTI937aCwJ8ywWcd_R-bXqum0gvM7SSxAW-NwViM5Fh-gJGB_4ZWpVOZDD0hZap-kjhlqE-dzaXUwwb4cPacJ9UMLUeqlzfOfg2osMhsdJprBhwOtFHZlAyUwYgZBl_FEvWkxZpLZLV96W8yKgfHu6S9Kqg", "width": 1272}], "place_id": "ChIJt0yKk-99QQ0RA8UU3rga8Nc", "plus_code": {"compound_code": "M9RR+9W San Agustín del Guadalix, Spain", "global_code": "8CGRM9RR+9W"}, "rating": 4.8, "reference": "ChIJt0yKk-99QQ0RA8UU3rga8Nc", "scope": "GOOGLE", "types": ["point_of_interest", "establishment"], "user_ratings_total": 26, "vicinity": "Avenida de Madrid, 42, San Agustín del Guadalix"}, {"business_status": "OPERATIONAL", "geometry": {"location": {"lat": 40.6783385, "lng": -3.617514}, "viewport": {"northeast": {"lat": 40.6796482802915, "lng": -3.616186719708497}, "southwest": {"lat": 40.6769503197085, "lng": -3.618884680291501}}}, "icon": "https://maps.gstatic.com/mapfiles/place_api/icons/v1/png_71/restaurant-71.png", "icon_background_color": "#FF9E67", "icon_mask_base_uri": "https://maps.gstatic.com/mapfiles/place_api/icons/v2/restaurant_pinlet", "international_phone_number": "+34 916 22 20 02", "name": "Restaurante Bocailo", "opening_hours": {"open_now": false}, "photos": [{"height": 2252, "html_attributions": ["<a href=\"https://maps.google.com/maps/contrib/115055383090176917276\">Miguel angel Manzaneque gallego</a>"], "photo_reference": "AWn5SU5wz_Yt68CBL_L5jY3mRV5U7MvOCk6HJRzJT-pmP18gflUlkPvo3wCiIiy0EqYe_r5qPFSnI8Sv7FRt0LEYBNLWkTLj5P5wrPVk4ktO_z84hsfMEcVjKaSMZvmNyjllc03AcUlbW_ZeBLwN0jftyu5_a1NX4u9Vktw7Xd5mFV2nWMTahj8zPhjmn1EC-I3_nu9kbag9Tqq-_3y6t_qqndZS3vkYoYvRJ0zFGEPJDg5Xcl_XNEfRi7ZXf6Ar3-NkgrNoFWjsPYiBFiexw3QOOLySgYNhzY1gWJA67ULlRr1EZXLXO9952hPvYB9ICrbQSvGVLoRw5NYaeHJHW0CdrIA6rldrtrf8qDRV29Ca37w2kK0m2l0CeidtXisKu7k7rkdfECHLJJPKJn_qaGs5L3qhoEyoHKcupEp5vS-kpjamY3sSq2IEnziZbXN5Z7WDIvlbUhAPkT-au5emS5YXmQDivESSBPCtWlOqY1QXt3WbssmhfRjf2iOezWxG5CqjMtLYtYjFS1RJ0UYjaAO1EJ7iQpBnWQ7GN_j5JfLTj0UTNc5Gy1WEjuj8T6XyvK56ZQlI0lsV443NEPcXu5Y1-4HZ3IYj4tQjWQhDMLSgzVydMrwXK6l0Vw6As_gDmhoT1ZnLtw", "width": 4000}], "place_id": "ChIJVVVVVYjNQw0Rr5htH3u7ToA", "plus_code": {"compound_code": "M9HJ+8X San Agustín del Guadalix, Spain", "global_code": "8CGRM9HJ+8X"}, "price_level": 1, "rating": 4.4, "reference": "ChIJVVVVVYjNQw0Rr5htH3u7ToA", "scope": "GOOGLE", "types": ["meal_delivery", "restaurant", "point_of_interest", "food", "establishment"], "user_ratings_total": 138, "vicinity": "Calle de Lucio Benito, 14, San Agustín del Guadalix"}, {"business_status": "OPERATIONAL", "geometry": {"location": {"lat": 40.6796683, "lng": -3.6141623}, "viewport": {"northeast": {"lat": 40.6810279302915, "lng": -3.612903069708498}, "southwest": {"lat": 40.6783299697085, "lng": -3.615601030291502}}}, "icon": "https://maps.gstatic.com/mapfiles/place_api/icons/v1/png_71/generic_business-71.png", "icon_background_color": "#7B9EB0", "icon_mask_base_uri": "https://maps.gstatic.com/mapfiles/place_api/icons/v2/generic_pinlet", "international_phone_number": "+34 619 27 37 47", "name": "Taxi Alfonso Hijosa San Agustín del Guadalix", "place_id": "ChIJ07Lgf5jRQw0RARotydaSvdg", "plus_code": {"compound_code": "M9HP+V8 San Agustín del Guadalix, Spain", "global_code": "8CGRM9HP+V8"}, "reference": "ChIJ07Lgf5jRQw0RARotydaSvdg", "scope": "GOOGLE", "types": ["point_of_interest", "establishment"], "vicinity": "Avenida de Madrid, 18, San Agustín del Guadalix"}, {"business_status": "OPERATIONAL", "geometry": {"location": {"lat": 40.6817363, "lng": -3.615177200000001}, "viewport": {"northeast": {"lat": 40.6830578302915, "lng": -3.613756319708498}, "southwest": {"lat": 40.6803598697085, "lng": -3.616454280291503}}}, "icon": "https://maps.gstatic.com/mapfiles/place_api/icons/v1/png_71/generic_business-71.png", "icon_background_color": "#7B9EB0", "icon_mask_base_uri": "https://maps.gstatic.com/mapfiles/place_api/icons/v2/generic_pinlet", "international_phone_number": "+34 646 57 75 11", "name": "CEF", "place_id": "ChIJx1kyT6LRQw0ROQIl0KL29HY", "plus_code": {"compound_code": "M9JM+MW San Agustín del Guadalix, Spain", "global_code": "8CGRM9JM+MW"}, "reference": "ChIJx1kyT6LRQw0ROQIl0KL29HY", "scope": "GOOGLE", "types": ["general_contractor", "point_of_interest", "establishment"], "vicinity": "Calle Castilla-la Mancha, 7, San Agustín del Guadalix"}, {"business_status": "OPERATIONAL", "geometry": {"location": {"lat": 40.6802594, "lng": -3.614533499999999}, "viewport": {"northeast": {"lat": 40.68158983029149, "lng": -3.613174269708497}, "southwest": {"lat": 40.6788918697085, "lng": -3.615872230291502}}}, "icon": "https://maps.gstatic.com/mapfiles/place_api/icons/v1/png_71/shopping-71.png", "icon_background_color": "#4B96F3", "icon_mask_base_uri": "https://maps.gstatic.com/mapfiles/place_api/icons/v2/shopping_pinlet", "international_phone_number": "+34 918 48 99 20", "name": "Chocolate Children", "opening_hours": {"open_now": false}, "place_id": "ChIJzVN2YqLRQw0RsYaAMVB06ls", "plus_code": {"compound_code": "M9JP+45 San Agustín del Guadalix, Spain", "global_code": "8CGRM9JP+45"}, "rating": 4.2, "reference": "ChIJzVN2YqLRQw0RsYaAMVB06ls", "scope": "GOOGLE", "types": ["clothing_store", "store", "point_of_interest", "establishment"], "user_ratings_total": 13, "vicinity": "Calle de Félix Sanz, 21, San Agustín del Guadalix"}, {"geometry": {"location": {"lat": 40.6817249, "lng": -3.61294}, "viewport": {"northeast": {"lat": 40.69018593844065, "lng": -3.596932576228583}, "southwest": {"lat": 40.67326278740525, "lng": -3.628947423771418}}}, "icon": "https://maps.gstatic.com/mapfiles/place_api/icons/v1/png_71/geocode-71.png", "icon_background_color": "#7B9EB0", "icon_mask_base_uri": "https://maps.gstatic.com/mapfiles/place_api/icons/v2/generic_pinlet", "name": "Urbanización Hernani", "place_id": "ChIJ293w56LRQw0R6XqOwUINS88", "reference": "ChIJ293w56LRQw0R6XqOwUINS88", "scope": "GOOGLE", "types": ["neighborhood", "political"], "vicinity": "San Agustín del Guadalix"}]