[{"business_status": "OPERATIONAL", "geometry": {"location": {"lat": 40.5865622, "lng": -4.1331912}, "viewport": {"northeast": {"lat": 40.5879463802915, "lng": -4.132067719708497}, "southwest": {"lat": 40.5852484197085, "lng": -4.134765680291502}}}, "icon": "https://maps.gstatic.com/mapfiles/place_api/icons/v1/png_71/generic_business-71.png", "icon_background_color": "#7B9EB0", "icon_mask_base_uri": "https://maps.gstatic.com/mapfiles/place_api/icons/v2/generic_pinlet", "international_phone_number": "+34 918 99 74 18", "name": "Clínica Parque Real", "opening_hours": {"open_now": false}, "photos": [{"height": 500, "html_attributions": ["<a href=\"https://maps.google.com/maps/contrib/104126574185233239267\">Clínica Parque Real</a>"], "photo_reference": "AWn5SU7_bTI-DsLJc3Mx-JF4QCRL4BpT2CerTvCF45lYiWDywxC-FGYIN3BCFXx2wDlT6SJl2kf4F6f3cKKtLQwtuvag2WSCKgKL-CAxdpefEk2S6dmEKDscYCBSFtqIMG59kLLneDIUZ8B3-BghpGp0yn6RCn7N6Abq0DMmL0cUTeVp0UoK9yGpQvlkPnaiGCeiZNpJ4vpfVtmTtZp567m3GKRYgN8NjeF633jjWgSQhOeaMv_wSLPzEMUx3xYiEZ0PBS7gDCPO3wG0j3lSKMCBKFJlFQ0xLnLC_BQ0u1Dkes0EMS3J2MSb5lS4B9b4Hxj2flocZrRBoAE", "width": 752}], "place_id": "ChIJ8waS1D4KQQ0Rfzf4nfbkHzo", "plus_code": {"compound_code": "HVP8+JP El Escorial, Spain", "global_code": "8CGQHVP8+JP"}, "rating": 5, "reference": "ChIJ8waS1D4KQQ0Rfzf4nfbkHzo", "scope": "GOOGLE", "types": ["dentist", "hospital", "beauty_salon", "doctor", "health", "point_of_interest", "establishment"], "user_ratings_total": 1, "vicinity": "Farmacia, Juliana 4 Frente a Centro de Salud Local Interior, El Escorial"}, {"business_status": "OPERATIONAL", "geometry": {"location": {"lat": 40.59183609999999, "lng": -4.1493949}, "viewport": {"northeast": {"lat": 40.5932463802915, "lng": -4.148041469708499}, "southwest": {"lat": 40.5905484197085, "lng": -4.150739430291503}}}, "icon": "https://maps.gstatic.com/mapfiles/place_api/icons/v1/png_71/civic_building-71.png", "icon_background_color": "#7B9EB0", "icon_mask_base_uri": "https://maps.gstatic.com/mapfiles/place_api/icons/v2/civic-bldg_pinlet", "international_phone_number": "+34 918 90 74 14", "name": "Health Center San Carlos", "opening_hours": {"open_now": false}, "photos": [{"height": 3061, "html_attributions": ["<a href=\"https://maps.google.com/maps/contrib/106602543735878134346\">José Concepción Garcés Rogert</a>"], "photo_reference": "AWn5SU50TI6TOtntU1PCj9uz_BkGUJdX-EyPAybR7_3u6j0lsOHhrGTE8Sc0L5dSaXDdsbGNXwYTEXAfEGWzhinEYed5SVKCjT-Y5QPtAdA4kJvR_nJUUmzJGqn7Ll13_UjykCWj1AHJRaeiPDYJzs2EXWf9tcF4je4PV-zPamz5XGhUZG4PTFVLzpFQV0n6K5UKp7nkmob8yqpQhoEniys9C5lq_pui2NN_-hl8WdejvILxvFbmAdqBMNgbUNS1866Hf7d_ZoMCZnO9UDZSaVKDgcfZn45hDOTljAnna-22EgGTC_MisHOHAKyUmdEHZvuSCMvoKIWzD6fN-zy_vtNSdAGzNWWNGcAqo8HshAeM94I3C08QKPzey_0WAX9Kbcu6veT4UyADkxqiEOIqnL9Flq4ha9jBy54-7rSljkSV0so7i6NcMHzFbT_qvkZlTm2cs3aYS7cdrrspT3ETN2b9K63SbOBFkyc4VSJcVce45xoOSKF67THkbweseIQFjyDuLCX3seOt8I24tGrn2yfyX_A-iTzFKQcMdSy7iV6rXIDZnoh1ZysFWiMaJvzjyiq97ZSCt_dGZOB_S8C01t1KCj8-YzH8gU0t3WHh_vX7LEicYR3If_v5Vdyh8yuDp4PGd41ojQ", "width": 2847}], "place_id": "ChIJAUz2ZigKQQ0RWnE5IQ23PAY", "plus_code": {"compound_code": "HVR2+P6 San Lorenzo de El Escorial, Spain", "global_code": "8CGQHVR2+P6"}, "rating": 2, "reference": "ChIJAUz2ZigKQQ0RWnE5IQ23PAY", "scope": "GOOGLE", "types": ["doctor", "health", "point_of_interest", "establishment"], "user_ratings_total": 212, "vicinity": "Calle Xavier Cabello Lapiedra, 1, San Lorenzo de El Escorial"}, {"business_status": "OPERATIONAL", "geometry": {"location": {"lat": 40.5879994, "lng": -4.1381142}, "viewport": {"northeast": {"lat": 40.5891129802915, "lng": -4.13599775}, "southwest": {"lat": 40.5864150197085, "lng": -4.138883949999999}}}, "icon": "https://maps.gstatic.com/mapfiles/place_api/icons/v1/png_71/generic_business-71.png", "icon_background_color": "#7B9EB0", "icon_mask_base_uri": "https://maps.gstatic.com/mapfiles/place_api/icons/v2/generic_pinlet", "international_phone_number": "+34 918 90 61 54", "name": "Dr. Luis Ximénez Herráiz s.l.", "place_id": "ChIJA-i7pTsKQQ0R5g1wNHGuu6E", "plus_code": {"compound_code": "HVQ6+5Q El Escorial, Spain", "global_code": "8CGQHVQ6+5Q"}, "reference": "ChIJA-i7pTsKQQ0R5g1wNHGuu6E", "scope": "GOOGLE", "types": ["doctor", "health", "point_of_interest", "establishment"], "vicinity": "Paseo del Álamo, 14, El Escorial"}, {"business_status": "OPERATIONAL", "geometry": {"location": {"lat": 40.5945293, "lng": -4.141833}, "viewport": {"northeast": {"lat": 40.5958379802915, "lng": -4.140398919708498}, "southwest": {"lat": 40.59314001970851, "lng": -4.143096880291503}}}, "icon": "https://maps.gstatic.com/mapfiles/place_api/icons/v1/png_71/generic_business-71.png", "icon_background_color": "#7B9EB0", "icon_mask_base_uri": "https://maps.gstatic.com/mapfiles/place_api/icons/v2/generic_pinlet", "international_phone_number": "+34 918 96 01 00", "name": "High Care Clinic Hector Valdés", "place_id": "ChIJ4U7OJC4KQQ0Ro685p_rxshI", "plus_code": {"compound_code": "HVV5+R7 San Lorenzo de El Escorial, Spain", "global_code": "8CGQHVV5+R7"}, "rating": 3.7, "reference": "ChIJ4U7OJC4KQQ0Ro685p_rxshI", "scope": "GOOGLE", "types": ["beauty_salon", "doctor", "health", "point_of_interest", "establishment"], "user_ratings_total": 3, "vicinity": "Calle Juan de Toledo, 21, San Lorenzo de El Escorial"}, {"business_status": "OPERATIONAL", "geometry": {"location": {"lat": 40.54766829999999, "lng": -4.1791182}, "viewport": {"northeast": {"lat": 40.54897688029151, "lng": -4.177734219708498}, "southwest": {"lat": 40.54627891970851, "lng": -4.180432180291502}}}, "icon": "https://maps.gstatic.com/mapfiles/place_api/icons/v1/png_71/generic_business-71.png", "icon_background_color": "#7B9EB0", "icon_mask_base_uri": "https://maps.gstatic.com/mapfiles/place_api/icons/v2/generic_pinlet", "name": "Centro de Salud", "place_id": "ChIJf0JFkUCnQQ0RmLkbbj1XCQo", "plus_code": {"compound_code": "GRXC+39 Zarzalejo, Spain", "global_code": "8CGQGRXC+39"}, "rating": 5, "reference": "ChIJf0JFkUCnQQ0RmLkbbj1XCQo", "scope": "GOOGLE", "types": ["doctor", "health", "point_of_interest", "establishment"], "user_ratings_total": 1, "vicinity": "Calle de la Casa Quemada, 18D, Zarzalejo"}, {"business_status": "OPERATIONAL", "geometry": {"location": {"lat": 40.53974360000001, "lng": -4.1645781}, "viewport": {"northeast": {"lat": 40.54105738029151, "lng": -4.163232719708498}, "southwest": {"lat": 40.53835941970851, "lng": -4.165930680291503}}}, "icon": "https://maps.gstatic.com/mapfiles/place_api/icons/v1/png_71/generic_business-71.png", "icon_background_color": "#7B9EB0", "icon_mask_base_uri": "https://maps.gstatic.com/mapfiles/place_api/icons/v2/generic_pinlet", "international_phone_number": "+34 918 99 26 39", "name": "Eduardo Rueda Garcia", "opening_hours": {"open_now": false}, "place_id": "ChIJj5QvPyKnQQ0R5ifeJ0iTyLs", "plus_code": {"compound_code": "GRQP+V5 Zarzalejo, Spain", "global_code": "8CGQGRQP+V5"}, "reference": "ChIJj5QvPyKnQQ0R5ifeJ0iTyLs", "scope": "GOOGLE", "types": ["dentist", "doctor", "health", "point_of_interest", "establishment"], "vicinity": "Calle de la Ladera, 2, Zarzalejo"}, {"business_status": "OPERATIONAL", "geometry": {"location": {"lat": 40.5932471, "lng": -4.1475822}, "viewport": {"northeast": {"lat": 40.5946649302915, "lng": -4.146065569708497}, "southwest": {"lat": 40.5919669697085, "lng": -4.148763530291502}}}, "icon": "https://maps.gstatic.com/mapfiles/place_api/icons/v1/png_71/generic_business-71.png", "icon_background_color": "#7B9EB0", "icon_mask_base_uri": "https://maps.gstatic.com/mapfiles/place_api/icons/v2/generic_pinlet", "name": "Dr. Luis Ignacio Fiter Gómez, Urólogo", "place_id": "ChIJg749IQULQQ0RyYTrZZYFO-w", "plus_code": {"compound_code": "HVV2+7X San Lorenzo de El Escorial, Spain", "global_code": "8CGQHVV2+7X"}, "reference": "ChIJg749IQULQQ0RyYTrZZYFO-w", "scope": "GOOGLE", "types": ["doctor", "health", "point_of_interest", "establishment"], "vicinity": "Calle de Velázquez, 17, San Lorenzo de El Escorial"}, {"business_status": "OPERATIONAL", "geometry": {"location": {"lat": 40.58588249999999, "lng": -4.133860299999999}, "viewport": {"northeast": {"lat": 40.58723963029149, "lng": -4.132509269708498}, "southwest": {"lat": 40.58454166970849, "lng": -4.135207230291503}}}, "icon": "https://maps.gstatic.com/mapfiles/place_api/icons/v1/png_71/generic_business-71.png", "icon_background_color": "#7B9EB0", "icon_mask_base_uri": "https://maps.gstatic.com/mapfiles/place_api/icons/v2/generic_pinlet", "international_phone_number": "+34 918 90 70 00", "name": "Consultorio Local El Escorial", "opening_hours": {"open_now": false}, "photos": [{"height": 1920, "html_attributions": ["<a href=\"https://maps.google.com/maps/contrib/114170559535415867877\">Raúl Sánchez De La Montaña</a>"], "photo_reference": "AWn5SU79DrSv34bHlz3uvroqS8OxMjWvD_hBXINlFvU3r3Sjb4Y8eLx59wOxblNANlttQ81hxwCUpRPQ_RAnJlMo7YXUfcujGQLeatbrW2s5h36fhIP3R7v--p4_a_bjiEi5Xvwv-5YoN1_QXVE7cpWsWo_ofMs53KJly2aZQLOHdLAfGxwj5Y3Q_LvWGVYx70Kl6aE444EFpnyUKeYok7L6vVjjBwbxdJ8kSfuTt-A2tzTg2YF1ewLroUF4FE3wlBAfLFTRVMFan54hh-qH_rEBsxR4f-kXEiBzOk9zonl9MEc02I5ydXC3v9Yugi-Pvv-q-SHoPaHCicTsGKUl2_QWV-fmDhsGo5hne_X7MeSX9db48NKp8ymXzNc7vhmwpo4OQ5LDf8MOugPf_9d-cPer_IvAEimk9Dy_BRF-7K_4378LOddHcPDCrOrtvd8sqhA-mPbQk0UBXg-xh40MeX5dhfimLRqe5r4iZFkJBsPbKtW8rtuKu_PMEHC2kPW85Uxew5JzySYhc4c0RWmKAze7ue73mPJ5MIIvw-IckaUNqLplG__bviSwtwMcuwaQPP7IWjDdkSvb9aD_cj_aIIgSlNUfdACpXdA05TmQcjPHQ1pE3ucbQNV9zT9Rdn2D_7aOXA1JAg", "width": 1080}], "place_id": "ChIJawBS0T4KQQ0RWolfZgzokg8", "plus_code": {"compound_code": "HVP8+9F El Escorial, Spain", "global_code": "8CGQHVP8+9F"}, "rating": 1.8, "reference": "ChIJawBS0T4KQQ0RWolfZgzokg8", "scope": "GOOGLE", "types": ["doctor", "health", "point_of_interest", "establishment"], "user_ratings_total": 102, "vicinity": "Calle de Juliana, 5A, El Escorial"}, {"business_status": "OPERATIONAL", "geometry": {"location": {"lat": 40.5846008, "lng": -4.1317078}, "viewport": {"northeast": {"lat": 40.5859025802915, "lng": -4.130327869708498}, "southwest": {"lat": 40.5832046197085, "lng": -4.133025830291501}}}, "icon": "https://maps.gstatic.com/mapfiles/place_api/icons/v1/png_71/shopping-71.png", "icon_background_color": "#4B96F3", "icon_mask_base_uri": "https://maps.gstatic.com/mapfiles/place_api/icons/v2/shopping_pinlet", "international_phone_number": "+34 918 90 79 36", "name": "Centro Óptico y Auditivo Villa de El Escorial", "opening_hours": {"open_now": false}, "photos": [{"height": 486, "html_attributions": ["<a href=\"https://maps.google.com/maps/contrib/110993991736507503133\">Centro Óptico y Auditivo Villa de El Escorial</a>"], "photo_reference": "AWn5SU74sNs1clt2TmZ9qEkmFthl1ooywAxvliKBeE61tlDgEOf2psu89oS7WkuURc06nCAv6HWy0DX8X98JnmImyf7f1uLU5kx3rzuvQP_CtqEjGIdSCZOQkefstcaUZHl9PNo106oybCliP98LCS6L-pJfRyECxeh46JE0I_uAjGqPVr8ahMLpErNlPXah4yMHcRC9ePlE-nTx4B4fzAXIIFiMOyYsMgk1Tf3lPU06En5V9FqiFg5jwugsWvuH8yPYNfVV8te4fSNh-9vFvrkMFgrCUaN5CyHmq4XSY2jdh4zdh0NXZWhBGYCeod_6DpKuiOnySbdk", "width": 1188}], "place_id": "ChIJExUQXz8KQQ0Rym4eAOJobQs", "plus_code": {"compound_code": "HVM9+R8 El Escorial, Spain", "global_code": "8CGQHVM9+R8"}, "rating": 4.9, "reference": "ChIJExUQXz8KQQ0Rym4eAOJobQs", "scope": "GOOGLE", "types": ["store", "doctor", "health", "point_of_interest", "establishment"], "user_ratings_total": 52, "vicinity": "Calle de Gómez del Campo, 7, local 6, El Escorial"}, {"business_status": "OPERATIONAL", "geometry": {"location": {"lat": 40.59264700000001, "lng": -4.1445645}, "viewport": {"northeast": {"lat": 40.59396763029149, "lng": -4.143204369708497}, "southwest": {"lat": 40.5912696697085, "lng": -4.145902330291502}}}, "icon": "https://maps.gstatic.com/mapfiles/place_api/icons/v1/png_71/generic_business-71.png", "icon_background_color": "#7B9EB0", "icon_mask_base_uri": "https://maps.gstatic.com/mapfiles/place_api/icons/v2/generic_pinlet", "international_phone_number": "+34 609 06 64 30", "name": "Raíces Podología | Cuidado del PIE | Tus Podólogas muy Cerca de Tí | San Lorenzo de el Escorial", "photos": [{"height": 414, "html_attributions": ["<a href=\"https://maps.google.com/maps/contrib/102246529091777583246\">Raíces Podología | Cuidado del PIE | Tus Podólogas muy Cerca de Tí | San Lorenzo de el Escorial</a>"], "photo_reference": "AWn5SU7Ywo7iPVkYcBmNtBjnlFHII3xtTkmFGbet4hQwVoD5b9eoodvUpC9jZJRNb9Nl3HLV3_QQ6B4WcS4p0q3N8sMOHh3f9n12coPk4zVqbhGyVvFrWKhUdgFCJd8YhQafif27ad9A2VjgNDwnRIPtcyHxT4hIR2xpMyR0BZ3LDe-y2pbh-Jt7VeaFUvigQ83eNuoOCF5ej2O_S6By6hQOfpsAt6VWxUsmTeWNSxkd_4d0ms3d64wWluIsCao924ad9cu1lFS3deKpnTN2GtYD2Jj7I8Y-L7cHJ6mIhoFxFkNq7LdyOjhT4VjbX7Z-yqQp5EL5e0sgZzE", "width": 552}], "place_id": "ChIJJ6xkbKALQQ0RliYj36ZW2lQ", "plus_code": {"compound_code": "HVV4+35 San Lorenzo de El Escorial, Spain", "global_code": "8CGQHVV4+35"}, "rating": 4.8, "reference": "ChIJJ6xkbKALQQ0RliYj36ZW2lQ", "scope": "GOOGLE", "types": ["doctor", "health", "point_of_interest", "establishment"], "user_ratings_total": 30, "vicinity": "Calle Patriarca, 22, P 4, local dcha, San Lorenzo de El Escorial"}, {"business_status": "OPERATIONAL", "geometry": {"location": {"lat": 40.5863971, "lng": -4.1334542}, "viewport": {"northeast": {"lat": 40.5877618802915, "lng": -4.132225219708498}, "southwest": {"lat": 40.5850639197085, "lng": -4.134923180291502}}}, "icon": "https://maps.gstatic.com/mapfiles/place_api/icons/v1/png_71/generic_business-71.png", "icon_background_color": "#7B9EB0", "icon_mask_base_uri": "https://maps.gstatic.com/mapfiles/place_api/icons/v2/generic_pinlet", "international_phone_number": "+34 626 83 95 86", "name": "Instituto De Especialidades Podologicas", "photos": [{"height": 1844, "html_attributions": ["<a href=\"https://maps.google.com/maps/contrib/100815870392048096228\">Instituto De Especialidades Podologicas</a>"], "photo_reference": "AWn5SU5PyNUPnl6xx8CfQuG-an1eKl5tcTWjFWw95wT9S9DAjbi0tUtw1ofCN1lNL6EJLxpac9xsaeiURlAxVneGIbIAj3nsyxLClyVFpRvR1LryND4JHWI8hyzstdbK0k0N74eVCPjopNPAeacgne-d-kJW7ucxHOBBYZtQcdeTCYA1M7gPncilrC2FkPH4Lw8xT3kIc4z6V66LG_TU8_gL40TG_t4n9ErxfS2J8fZ_YxDKLRwbc20dPvYr80wGXQzieEnnwyRIKqCTpcSwpn_at8E136-pnE9Bv6CnoLwx9JlRCMtQYPMKKbVkXf0hyDOTAKz0EZqFr08", "width": 4000}], "place_id": "ChIJpSte1TgKQQ0R7xIGFLkZE3o", "plus_code": {"compound_code": "HVP8+HJ El Escorial, Spain", "global_code": "8CGQHVP8+HJ"}, "rating": 5, "reference": "ChIJpSte1TgKQQ0R7xIGFLkZE3o", "scope": "GOOGLE", "types": ["doctor", "health", "point_of_interest", "establishment"], "user_ratings_total": 2, "vicinity": "Calle de Juliana, 4, bloque 2, local 134, El Escorial"}, {"business_status": "OPERATIONAL", "geometry": {"location": {"lat": 40.5863971, "lng": -4.1334542}, "viewport": {"northeast": {"lat": 40.5877618802915, "lng": -4.132225219708498}, "southwest": {"lat": 40.5850639197085, "lng": -4.134923180291502}}}, "icon": "https://maps.gstatic.com/mapfiles/place_api/icons/v1/png_71/generic_business-71.png", "icon_background_color": "#7B9EB0", "icon_mask_base_uri": "https://maps.gstatic.com/mapfiles/place_api/icons/v2/generic_pinlet", "international_phone_number": "+34 626 83 95 86", "name": "I. E. Podológicas Javier Cordero Sánchez", "photos": [{"height": 4680, "html_attributions": ["<a href=\"https://maps.google.com/maps/contrib/112267396993099973084\">Edu García</a>"], "photo_reference": "AWn5SU5iZhp4aB2SdPE3BH766xrc0kRw77KKc48JV2LeSzU6vFAjh4ml1q2PfjBGKJw4uHLc-25eczbi_6esLNLoCn_G0L4W7q4mvO2B4z7j2VnGiQfudXVFV6QbH3PNudiOD9fQ5u9qVXDa-JWlDjUQ3FUO0MP-HTAw7T9liEvNdB6z8hMk8LNoQxBM5H9U_OecW0ouqRXEpBA4VUhyGfp63bBr-OuuikRFGkFxlICT2v99FV2DHyCmcYz42PxA-IY2HpkHJXkqheAdkszYpHRqmI5taJuwOW68V2Ye11snW5vQuEd982ntQNhpDUJc3eKdLMrsDrmoaAqUW9cBE1AATONUtvUSaETEDDXjLoFbP7esZ5f4qk2Fgzmyc5mMbmGLD-oUYI9hEjZKSbR76_BLyKzAc_WArkltZs7tT3jpnLnIV1Pp2ytqq8MkKCqO02tdma_fDeh8DZVLoC0G0iBfCc3XgwuGEvH2tsEQLOoZ6pCed6SoeblsWKPLlTk-ZYCcgHKbwdZdAV-wynUoTpxlMLTdUT_uyNgJ39BtA8Ipl_BMLf_euexKc0dEa2xM_mPLY0dAzHidGjIwGSKZTK3XoTC23v4n5KUrDo-G7LyrSuI9luNstMYjrMYkpnjuurCh3ZQ4MuVhwkEe-FCmDL0pMVLkzJA", "width": 3510}], "place_id": "ChIJI8A11T4KQQ0RC5-3piUwhcg", "plus_code": {"compound_code": "HVP8+HJ El Escorial, Spain", "global_code": "8CGQHVP8+HJ"}, "rating": 4.7, "reference": "ChIJI8A11T4KQQ0RC5-3piUwhcg", "scope": "GOOGLE", "types": ["doctor", "health", "point_of_interest", "establishment"], "user_ratings_total": 19, "vicinity": "Calle de Juliana, 4, bloque 2, local 134, El Escorial"}, {"business_status": "OPERATIONAL", "geometry": {"location": {"lat": 40.5941869, "lng": -4.143747400000001}, "viewport": {"northeast": {"lat": 40.5955181302915, "lng": -4.142371119708499}, "southwest": {"lat": 40.5928201697085, "lng": -4.145069080291503}}}, "icon": "https://maps.gstatic.com/mapfiles/place_api/icons/v1/png_71/hospital-71.png", "icon_background_color": "#F88181", "icon_mask_base_uri": "https://maps.gstatic.com/mapfiles/place_api/icons/v2/hospital-H_pinlet", "international_phone_number": "+34 918 90 60 00", "name": "Escorial Medical Center", "opening_hours": {"open_now": false}, "photos": [{"height": 1706, "html_attributions": ["<a href=\"https://maps.google.com/maps/contrib/111179729486446964227\">Maximiliano Quintero Mariño</a>"], "photo_reference": "AWn5SU45lAXzWv8Fhf-YcHa3DNNxuEJ1trkQjv7PLZLC3cs-hTRnMgCa4lDZy4bg3hGjNdjdvLe3LN6Q2sHp-4K3PDDhwjSXvjR5BM9jSiEbBT-dSSrDOFXiPx8btkhHKMAdsnF2oF1Wk-eopIwMdp-OaXj1XQoW3iY6PUqmAy_ndCm5akFlSHp_Og53aprjc24R77FuMEJPgp8iWp-WyBwJh8snuo7dRp8kZ7sfLqfURSGhgbQoS91QplWj27T69fJoCBB_c0hdPYK6-NY-XRd-RhWw8OcTNYEXZ348Oiev8Ts9q_NPErnZ91Wl3Yexb4upwL0zptmNNAVLoe8FlZJQdXQLMToY6F0feFAgabEQPXdHpQrHVBjDoIRR7SWCMqcoXxM50G-ysbOVn85L4JuNgqs11YHmE6ecMdWBJAS9YQ922L67fdw5Vt7giIVUHK2V1eHCzTZCcjkoyr_ttBRH0xxm7QMxZbhbRJ3ja1fIImKTbjXCO1pl6wSCYdUnpHH61L9DYnhssokJkr2dgt7gj2nynPlxF8Zl1TGcFjkMNMI0crCwEOBFH1hO-wbh0YYWNYjt5vLHp4uzYQCeo1DEmP_qI-XhVhqwL9cp80IIxr1jdkQM742paSE8EFKH55yZSexDYA", "width": 2560}], "place_id": "ChIJzVWo-S4KQQ0RiTmDxk8SCO4", "plus_code": {"compound_code": "HVV4+MG San Lorenzo de El Escorial, Spain", "global_code": "8CGQHVV4+MG"}, "rating": 3.8, "reference": "ChIJzVWo-S4KQQ0RiTmDxk8SCO4", "scope": "GOOGLE", "types": ["hospital", "doctor", "health", "point_of_interest", "establishment"], "user_ratings_total": 227, "vicinity": "Calle de Velázquez, 17, San Lorenzo de El Escorial"}, {"business_status": "OPERATIONAL", "geometry": {"location": {"lat": 40.5942653, "lng": -4.1439392}, "viewport": {"northeast": {"lat": 40.59555163029149, "lng": -4.142467019708499}, "southwest": {"lat": 40.5928536697085, "lng": -4.145164980291503}}}, "icon": "https://maps.gstatic.com/mapfiles/place_api/icons/v1/png_71/generic_business-71.png", "icon_background_color": "#7B9EB0", "icon_mask_base_uri": "https://maps.gstatic.com/mapfiles/place_api/icons/v2/generic_pinlet", "name": "Valle Santana Pilar", "place_id": "ChIJg2sh-C4KQQ0RL5QjFqQGy7Q", "plus_code": {"compound_code": "HVV4+PC San Lorenzo de El Escorial, Spain", "global_code": "8CGQHVV4+PC"}, "rating": 5, "reference": "ChIJg2sh-C4KQQ0RL5QjFqQGy7Q", "scope": "GOOGLE", "types": ["doctor", "health", "point_of_interest", "establishment"], "user_ratings_total": 1, "vicinity": "Calle de Velázquez, 17, 3º, San Lorenzo de El Escorial"}, {"business_status": "OPERATIONAL", "geometry": {"location": {"lat": 40.5942653, "lng": -4.1439392}, "viewport": {"northeast": {"lat": 40.59555163029149, "lng": -4.142467019708499}, "southwest": {"lat": 40.5928536697085, "lng": -4.145164980291503}}}, "icon": "https://maps.gstatic.com/mapfiles/place_api/icons/v1/png_71/generic_business-71.png", "icon_background_color": "#7B9EB0", "icon_mask_base_uri": "https://maps.gstatic.com/mapfiles/place_api/icons/v2/generic_pinlet", "international_phone_number": "+34 918 90 41 59", "name": "Clínica de Podologia y Ortopedia Mariano López", "place_id": "ChIJm1cZ-C4KQQ0RViDAMh-dKRc", "plus_code": {"compound_code": "HVV4+PC San Lorenzo de El Escorial, Spain", "global_code": "8CGQHVV4+PC"}, "reference": "ChIJm1cZ-C4KQQ0RViDAMh-dKRc", "scope": "GOOGLE", "types": ["doctor", "health", "point_of_interest", "establishment"], "vicinity": "Calle de Velázquez, 17, 3º, San Lorenzo de El Escorial"}, {"business_status": "OPERATIONAL", "geometry": {"location": {"lat": 40.4926523, "lng": -4.1612111}, "viewport": {"northeast": {"lat": 40.4940574302915, "lng": -4.159963219708498}, "southwest": {"lat": 40.4913594697085, "lng": -4.162661180291503}}}, "icon": "https://maps.gstatic.com/mapfiles/place_api/icons/v1/png_71/generic_business-71.png", "icon_background_color": "#7B9EB0", "icon_mask_base_uri": "https://maps.gstatic.com/mapfiles/place_api/icons/v2/generic_pinlet", "international_phone_number": "+34 918 98 90 09", "name": "Campo Polideportivo y Fútbol 7", "place_id": "ChIJmb2YmLCmQQ0RDCDr68U5LBY", "plus_code": {"compound_code": "FRVQ+3G Fresnedillas de la Oliva, Spain", "global_code": "8CGQFRVQ+3G"}, "reference": "ChIJmb2YmLCmQQ0RDCDr68U5LBY", "scope": "GOOGLE", "types": ["doctor", "health", "point_of_interest", "establishment"], "vicinity": "Fresnedillas de la Oliva"}, {"business_status": "OPERATIONAL", "geometry": {"location": {"lat": 40.5970081, "lng": -4.140304599999999}, "viewport": {"northeast": {"lat": 40.5984241302915, "lng": -4.138915569708497}, "southwest": {"lat": 40.5957261697085, "lng": -4.141613530291502}}}, "icon": "https://maps.gstatic.com/mapfiles/place_api/icons/v1/png_71/generic_business-71.png", "icon_background_color": "#7B9EB0", "icon_mask_base_uri": "https://maps.gstatic.com/mapfiles/place_api/icons/v2/generic_pinlet", "international_phone_number": "+34 918 90 22 22", "name": "Antonio Gómez Martín", "place_id": "ChIJHU11ETIKQQ0RWMIMwe9_DY8", "plus_code": {"compound_code": "HVW5+RV San Lorenzo de El Escorial, Spain", "global_code": "8CGQHVW5+RV"}, "reference": "ChIJHU11ETIKQQ0RWMIMwe9_DY8", "scope": "GOOGLE", "types": ["doctor", "health", "point_of_interest", "establishment"], "vicinity": "Calle Santa Rita, 9, San Lorenzo de El Escorial"}, {"business_status": "OPERATIONAL", "geometry": {"location": {"lat": 40.59676690000001, "lng": -4.1362137}, "viewport": {"northeast": {"lat": 40.5981742302915, "lng": -4.134896369708497}, "southwest": {"lat": 40.5954762697085, "lng": -4.137594330291502}}}, "icon": "https://maps.gstatic.com/mapfiles/place_api/icons/v1/png_71/generic_business-71.png", "icon_background_color": "#7B9EB0", "icon_mask_base_uri": "https://maps.gstatic.com/mapfiles/place_api/icons/v2/generic_pinlet", "international_phone_number": "+34 609 18 13 84", "name": "Dra. Mar Iturbe Medicina Estética", "opening_hours": {"open_now": false}, "photos": [{"height": 659, "html_attributions": ["<a href=\"https://maps.google.com/maps/contrib/117752508932116947460\">Dra. Mar Iturbe Medicina Estética</a>"], "photo_reference": "AWn5SU4bJLOHMZkPbpq5HwOcyEGJx3dXuZ3G6xZLb5VPPKAt6nTNjrdjFkGADkWhPZ_Mvn5ToCbcEtOM1sOYA9vj3udmBGlb8ccejHG3C6ozsO6HvC-6ND4LKBiCIvmpjhYSzwEt68A3VRrFAHt7EocylqjD5NnvDqpXQqwE5CAsgaqvwvJ243992g0LST_LIuPa1fqk9-I6cbG-1OQgDO_tiUOMdFfHNAiN5RktxSHJNKdwdOIsPR9LoY0mfou7EpHDJHEwe-u-v11eOlwDhyaYkwCKItbYhZSvhZbi71Ve1aSwTh5Y7LjOmPbPRgshKd6tM3kdZCkSuLI", "width": 1170}], "place_id": "ChIJMz6E1_cLQQ0Rf6RA_ioOdco", "plus_code": {"compound_code": "HVW7+PG San Lorenzo de El Escorial, Spain", "global_code": "8CGQHVW7+PG"}, "rating": 5, "reference": "ChIJMz6E1_cLQQ0Rf6RA_ioOdco", "scope": "GOOGLE", "types": ["beauty_salon", "doctor", "health", "point_of_interest", "establishment"], "user_ratings_total": 23, "vicinity": "Calle Juan de Toledo, 84, Bajo B, San Lorenzo de El Escorial"}]