[{"business_status": "OPERATIONAL", "geometry": {"location": {"lat": 40.18729, "lng": -3.77918}, "viewport": {"northeast": {"lat": 40.1886541802915, "lng": -3.777803069708498}, "southwest": {"lat": 40.1859562197085, "lng": -3.780501030291502}}}, "icon": "https://maps.gstatic.com/mapfiles/place_api/icons/v1/png_71/generic_business-71.png", "icon_background_color": "#7B9EB0", "icon_mask_base_uri": "https://maps.gstatic.com/mapfiles/place_api/icons/v2/generic_pinlet", "name": "Real-Castillo", "place_id": "ChIJIzki4LX1QQ0RGjyh4NhGFEI", "plus_code": {"compound_code": "56PC+W8 Torrejón de Velasco, Spain", "global_code": "8CGR56PC+W8"}, "reference": "ChIJIzki4LX1QQ0RGjyh4NhGFEI", "scope": "GOOGLE", "types": ["transit_station", "point_of_interest", "establishment"], "vicinity": "Spain"}, {"business_status": "OPERATIONAL", "geometry": {"location": {"lat": 40.18854, "lng": -3.77947}, "viewport": {"northeast": {"lat": 40.1898547802915, "lng": -3.778127069708498}, "southwest": {"lat": 40.18715681970851, "lng": -3.780825030291502}}}, "icon": "https://maps.gstatic.com/mapfiles/place_api/icons/v1/png_71/generic_business-71.png", "icon_background_color": "#7B9EB0", "icon_mask_base_uri": "https://maps.gstatic.com/mapfiles/place_api/icons/v2/generic_pinlet", "name": "Párroco D.Régulo G.Masegosa-Esturión", "place_id": "ChIJZzYm07X1QQ0RstMZpTvzNzk", "plus_code": {"compound_code": "56QC+C6 Torrejón de Velasco, Spain", "global_code": "8CGR56QC+C6"}, "rating": 5, "reference": "ChIJZzYm07X1QQ0RstMZpTvzNzk", "scope": "GOOGLE", "types": ["transit_station", "point_of_interest", "establishment"], "user_ratings_total": 1, "vicinity": "Spain"}, {"business_status": "OPERATIONAL", "geometry": {"location": {"lat": 40.18686, "lng": -3.77657}, "viewport": {"northeast": {"lat": 40.1881802302915, "lng": -3.775211119708497}, "southwest": {"lat": 40.1854822697085, "lng": -3.777909080291502}}}, "icon": "https://maps.gstatic.com/mapfiles/place_api/icons/v1/png_71/generic_business-71.png", "icon_background_color": "#7B9EB0", "icon_mask_base_uri": "https://maps.gstatic.com/mapfiles/place_api/icons/v2/generic_pinlet", "name": "Pza.España-Ayuntamiento", "photos": [{"height": 1445, "html_attributions": ["<a href=\"https://maps.google.com/maps/contrib/108821306062054681061\">claro caballero</a>"], "photo_reference": "AWn5SU5zpTUUhJXofmIuNj-Zcun5oNGnkX9kVp_gYXfikOfAuGxayHuZBaBE4SxAYDH_hUZIDLcYyCaSWQvonPqjQfp6k0xZqKTBt2-r4hi9Hi8fOv24ifN8ByxVIyO4SgbaxgWdiS3_F_xYlBS1aLPj-P3bjexcjo72we92l8rZbG1ceoMOxBO5mLK6uHxp_lOtVaxW-p_Yl-UgQ8clY5DcnfVEGC2mo_QCMCp4Pgqbk1fAMcAPwFH44nPugP0W44bWjIwQnunYSVp3m7g8eSHtouQLrvyQVkluN5NR06WFqbo61BziWSKXIG0mamSTwQlmXAbSFMBrgq5l6LPx9NPm_savi_OyMB6zNemJO9VR9o2g8a8ABu-DF6BYxCwHfGmfCcTRIStYwxi2NnQeLODMo4cNRQEhY1lupbzZbFLPD3BT4nDbN4o9IBgigtmfakU0TPo1-sl159ds198nFpQq3KHS-Ztw60xKoVtWugm2PXcHMrHP1Ws4KLbs11fkSTytvN9yUoRLBgImwIi1OSDA0YpMiJbRm0V6mKPTJvEAjZ89Wie2sqtkE4OrzaXtVozPI2pEGZFU99JNYVTrbIoDs5RJiyvZn4fdov7qCb9vOxqlw_qK_nGILt1vZIAzgOFPYV0Yrg", "width": 2316}], "place_id": "ChIJne-5Mrb1QQ0RbpKT4hVHhb4", "plus_code": {"compound_code": "56PF+P9 Torrejón de Velasco, Spain", "global_code": "8CGR56PF+P9"}, "reference": "ChIJne-5Mrb1QQ0RbpKT4hVHhb4", "scope": "GOOGLE", "types": ["transit_station", "point_of_interest", "establishment"], "vicinity": "Spain"}, {"business_status": "OPERATIONAL", "geometry": {"location": {"lat": 40.1862635, "lng": -3.774930800000001}, "viewport": {"northeast": {"lat": 40.1876129802915, "lng": -3.773581869708497}, "southwest": {"lat": 40.1849150197085, "lng": -3.776279830291501}}}, "icon": "https://maps.gstatic.com/mapfiles/place_api/icons/v1/png_71/generic_business-71.png", "icon_background_color": "#7B9EB0", "icon_mask_base_uri": "https://maps.gstatic.com/mapfiles/place_api/icons/v2/generic_pinlet", "name": "Av.Gregorio Ordóñez-Montes", "place_id": "ChIJh24a47f1QQ0RoBAvgcqhMoU", "plus_code": {"compound_code": "56PG+G2 Torrejón de Velasco, Spain", "global_code": "8CGR56PG+G2"}, "rating": 4, "reference": "ChIJh24a47f1QQ0RoBAvgcqhMoU", "scope": "GOOGLE", "types": ["transit_station", "point_of_interest", "establishment"], "user_ratings_total": 2, "vicinity": "Spain"}, {"business_status": "OPERATIONAL", "geometry": {"location": {"lat": 40.18642, "lng": -3.77471}, "viewport": {"northeast": {"lat": 40.1877835802915, "lng": -3.773296569708497}, "southwest": {"lat": 40.1850856197085, "lng": -3.775994530291502}}}, "icon": "https://maps.gstatic.com/mapfiles/place_api/icons/v1/png_71/generic_business-71.png", "icon_background_color": "#7B9EB0", "icon_mask_base_uri": "https://maps.gstatic.com/mapfiles/place_api/icons/v2/generic_pinlet", "name": "Av.Gregorio Ordóñez-Montes", "place_id": "ChIJEYQX47f1QQ0RsFmDnOFc7RE", "plus_code": {"compound_code": "56PG+H4 Torrejón de Velasco, Spain", "global_code": "8CGR56PG+H4"}, "rating": 3, "reference": "ChIJEYQX47f1QQ0RsFmDnOFc7RE", "scope": "GOOGLE", "types": ["transit_station", "point_of_interest", "establishment"], "user_ratings_total": 1, "vicinity": "Spain"}, {"business_status": "OPERATIONAL", "geometry": {"location": {"lat": 40.19042, "lng": -3.78225}, "viewport": {"northeast": {"lat": 40.1917476802915, "lng": -3.780929419708498}, "southwest": {"lat": 40.1890497197085, "lng": -3.783627380291502}}}, "icon": "https://maps.gstatic.com/mapfiles/place_api/icons/v1/png_71/generic_business-71.png", "icon_background_color": "#7B9EB0", "icon_mask_base_uri": "https://maps.gstatic.com/mapfiles/place_api/icons/v2/generic_pinlet", "name": "Av.Constitución-Murillo", "photos": [{"height": 4096, "html_attributions": ["<a href=\"https://maps.google.com/maps/contrib/115741271989521393145\">Manuel Muñoz</a>"], "photo_reference": "AWn5SU6BU7xcxDSfbzhmUPJ80MV55x8MUzZNhCR-dWSoGG8k2q4dJlC2Lm9cdEaZp09PODAiaoLnNTVjhTzuQvhz-kPty9t6-QV2j8DO-OcOZjVmpMW9vB9Zmfu8ws_PCqkb3Sij5lpm4NnMjSFu1iRRg9biI7Z9jsM-TiNKfZvYqfTUaMg3FTtNG7rU_Hr5bE3a283YWHYYoWW1ww5ABar1S7C8CbBItLRyZa7C9EGM6gro9lKbBFA_AK3_RxiiA-Y8r9zornnKCws7iBRC3btr8bD0Cdnuo2SDYYf0120Fmgob6bmlXryfpWJXl5Yp_nV34IB4BJJJwYZVRrksZiW9JamdUHv-wKzBnKtaTkqTTCoRmCLik6lNR76q2h_NoVaro3me_xsajvIgYmzEm-x3kCeFz8IXF3nZWETjdwQeANr7F-Jyi3OX2aPQ9P7aI0wvO-sEupvsfdNQ9pOQ63lWOg4RcbugapzzPKKWGdmEf3C94by1wyYvAOOXNc0ysdooxdG8MI_YLojYxrGgNzcYefszse9YNLhbx5aG4BSw8_4FIEJtUCdt7Yxtr4P9UIt6WA1MOjx-njyNY85c7yWENNAzIfeoDW1SivgeQGF4q7NbbeW6WF8WTT3cyWtRdA23qUPHr0F4DxZ69diqZj6bNtq7liQ", "width": 3072}], "place_id": "ChIJB_QxjLT1QQ0R2RyQhJUCdw0", "plus_code": {"compound_code": "56R9+53 Torrejón de Velasco, Spain", "global_code": "8CGR56R9+53"}, "reference": "ChIJB_QxjLT1QQ0R2RyQhJUCdw0", "scope": "GOOGLE", "types": ["transit_station", "point_of_interest", "establishment"], "vicinity": "Spain"}, {"business_status": "OPERATIONAL", "geometry": {"location": {"lat": 40.19057, "lng": -3.78263}, "viewport": {"northeast": {"lat": 40.19192478029149, "lng": -3.781273369708497}, "southwest": {"lat": 40.18922681970849, "lng": -3.783971330291502}}}, "icon": "https://maps.gstatic.com/mapfiles/place_api/icons/v1/png_71/generic_business-71.png", "icon_background_color": "#7B9EB0", "icon_mask_base_uri": "https://maps.gstatic.com/mapfiles/place_api/icons/v2/generic_pinlet", "name": "Av.Constitución-Murillo", "place_id": "ChIJWSyZmbT1QQ0RGF3EsJNFybo", "plus_code": {"compound_code": "56R8+6W Torrejón de Velasco, Spain", "global_code": "8CGR56R8+6W"}, "rating": 5, "reference": "ChIJWSyZmbT1QQ0RGF3EsJNFybo", "scope": "GOOGLE", "types": ["transit_station", "point_of_interest", "establishment"], "user_ratings_total": 1, "vicinity": "Spain"}, {"business_status": "OPERATIONAL", "geometry": {"location": {"lat": 40.18744999999999, "lng": -3.76931}, "viewport": {"northeast": {"lat": 40.1887937302915, "lng": -3.767836919708498}, "southwest": {"lat": 40.1860957697085, "lng": -3.770534880291502}}}, "icon": "https://maps.gstatic.com/mapfiles/place_api/icons/v1/png_71/generic_business-71.png", "icon_background_color": "#7B9EB0", "icon_mask_base_uri": "https://maps.gstatic.com/mapfiles/place_api/icons/v2/generic_pinlet", "name": "Castaños-Pol.Ind.La Frontera", "place_id": "ChIJv13xtrj1QQ0Rc8ftdI8kuL0", "plus_code": {"compound_code": "56PJ+X7 Torrejón de Velasco, Spain", "global_code": "8CGR56PJ+X7"}, "reference": "ChIJv13xtrj1QQ0Rc8ftdI8kuL0", "scope": "GOOGLE", "types": ["transit_station", "point_of_interest", "establishment"], "vicinity": "Spain"}, {"business_status": "OPERATIONAL", "geometry": {"location": {"lat": 40.19422, "lng": -3.78705}, "viewport": {"northeast": {"lat": 40.1955373802915, "lng": -3.785744869708497}, "southwest": {"lat": 40.1928394197085, "lng": -3.788442830291502}}}, "icon": "https://maps.gstatic.com/mapfiles/place_api/icons/v1/png_71/generic_business-71.png", "icon_background_color": "#7B9EB0", "icon_mask_base_uri": "https://maps.gstatic.com/mapfiles/place_api/icons/v2/generic_pinlet", "name": "Ctra.M404-Ctra.A42", "place_id": "ChIJ_a3EpU30QQ0RzHy7cJgTyzw", "plus_code": {"compound_code": "56V7+M5 Torrejón de Velasco, Spain", "global_code": "8CGR56V7+M5"}, "reference": "ChIJ_a3EpU30QQ0RzHy7cJgTyzw", "scope": "GOOGLE", "types": ["transit_station", "point_of_interest", "establishment"], "vicinity": "Spain"}, {"business_status": "OPERATIONAL", "geometry": {"location": {"lat": 40.19441, "lng": -3.787580000000001}, "viewport": {"northeast": {"lat": 40.19578368029151, "lng": -3.786196719708498}, "southwest": {"lat": 40.19308571970851, "lng": -3.788894680291503}}}, "icon": "https://maps.gstatic.com/mapfiles/place_api/icons/v1/png_71/generic_business-71.png", "icon_background_color": "#7B9EB0", "icon_mask_base_uri": "https://maps.gstatic.com/mapfiles/place_api/icons/v2/generic_pinlet", "name": "Ctra.M404-Ctra.A42", "place_id": "ChIJpcr1u030QQ0Rn3BpgAKZA0w", "plus_code": {"compound_code": "56V6+QX Torrejón de Velasco, Spain", "global_code": "8CGR56V6+QX"}, "reference": "ChIJpcr1u030QQ0Rn3BpgAKZA0w", "scope": "GOOGLE", "types": ["transit_station", "point_of_interest", "establishment"], "vicinity": "Spain"}, {"business_status": "OPERATIONAL", "geometry": {"location": {"lat": 40.19958, "lng": -3.79507}, "viewport": {"northeast": {"lat": 40.2009536802915, "lng": -3.793748769708498}, "southwest": {"lat": 40.1982557197085, "lng": -3.796446730291502}}}, "icon": "https://maps.gstatic.com/mapfiles/place_api/icons/v1/png_71/generic_business-71.png", "icon_background_color": "#7B9EB0", "icon_mask_base_uri": "https://maps.gstatic.com/mapfiles/place_api/icons/v2/generic_pinlet", "name": "Iglesia-Colegio", "place_id": "ChIJXWMNDVr0QQ0RNfe_SGUwX_8", "plus_code": {"compound_code": "56X3+RX Torrejón de la Calzada, Spain", "global_code": "8CGR56X3+RX"}, "reference": "ChIJXWMNDVr0QQ0RNfe_SGUwX_8", "scope": "GOOGLE", "types": ["transit_station", "point_of_interest", "establishment"], "vicinity": "Spain"}, {"business_status": "OPERATIONAL", "geometry": {"location": {"lat": 40.19956, "lng": -3.7964}, "viewport": {"northeast": {"lat": 40.20090233029151, "lng": -3.795041369708498}, "southwest": {"lat": 40.19820436970851, "lng": -3.797739330291503}}}, "icon": "https://maps.gstatic.com/mapfiles/place_api/icons/v1/png_71/generic_business-71.png", "icon_background_color": "#7B9EB0", "icon_mask_base_uri": "https://maps.gstatic.com/mapfiles/place_api/icons/v2/generic_pinlet", "name": "Peñuelas-San Sebastián", "place_id": "ChIJtQMqNlr0QQ0RPLn9aihupCI", "plus_code": {"compound_code": "56X3+RC Torrejón de la Calzada, Spain", "global_code": "8CGR56X3+RC"}, "reference": "ChIJtQMqNlr0QQ0RPLn9aihupCI", "scope": "GOOGLE", "types": ["transit_station", "point_of_interest", "establishment"], "vicinity": "Spain"}, {"business_status": "OPERATIONAL", "geometry": {"location": {"lat": 40.19835, "lng": -3.798029999999999}, "viewport": {"northeast": {"lat": 40.1997063302915, "lng": -3.796689169708498}, "southwest": {"lat": 40.1970083697085, "lng": -3.799387130291502}}}, "icon": "https://maps.gstatic.com/mapfiles/place_api/icons/v1/png_71/generic_business-71.png", "icon_background_color": "#7B9EB0", "icon_mask_base_uri": "https://maps.gstatic.com/mapfiles/place_api/icons/v2/generic_pinlet", "name": "Peñuelas-Goya", "place_id": "ChIJD5QYoFv0QQ0RGv0T6xNoHvM", "plus_code": {"compound_code": "56X2+8Q Torrejón de la Calzada, Spain", "global_code": "8CGR56X2+8Q"}, "reference": "ChIJD5QYoFv0QQ0RGv0T6xNoHvM", "scope": "GOOGLE", "types": ["transit_station", "point_of_interest", "establishment"], "vicinity": "Spain"}, {"business_status": "OPERATIONAL", "geometry": {"location": {"lat": 40.19841, "lng": -3.7981}, "viewport": {"northeast": {"lat": 40.1997531302915, "lng": -3.796744569708498}, "southwest": {"lat": 40.1970551697085, "lng": -3.799442530291502}}}, "icon": "https://maps.gstatic.com/mapfiles/place_api/icons/v1/png_71/generic_business-71.png", "icon_background_color": "#7B9EB0", "icon_mask_base_uri": "https://maps.gstatic.com/mapfiles/place_api/icons/v2/generic_pinlet", "name": "Peñuelas-Goya", "place_id": "ChIJbXPRoVv0QQ0RCMA05j_sR74", "plus_code": {"compound_code": "56X2+9Q Torrejón de la Calzada, Spain", "global_code": "8CGR56X2+9Q"}, "reference": "ChIJbXPRoVv0QQ0RCMA05j_sR74", "scope": "GOOGLE", "types": ["transit_station", "point_of_interest", "establishment"], "vicinity": "Spain"}, {"business_status": "OPERATIONAL", "geometry": {"location": {"lat": 40.1886792, "lng": -3.8031786}, "viewport": {"northeast": {"lat": 40.1900119802915, "lng": -3.801836719708498}, "southwest": {"lat": 40.1873140197085, "lng": -3.804534680291502}}}, "icon": "https://maps.gstatic.com/mapfiles/place_api/icons/v1/png_71/generic_business-71.png", "icon_background_color": "#7B9EB0", "icon_mask_base_uri": "https://maps.gstatic.com/mapfiles/place_api/icons/v2/generic_pinlet", "name": "Av.Principal-Pol.Ind.Las Avenidas", "place_id": "ChIJ10aWuEH0QQ0Rv_VVcePKKp0", "plus_code": {"compound_code": "55QW+FP Torrejón de la Calzada, Spain", "global_code": "8CGR55QW+FP"}, "reference": "ChIJ10aWuEH0QQ0Rv_VVcePKKp0", "scope": "GOOGLE", "types": ["transit_station", "point_of_interest", "establishment"], "vicinity": "Spain"}, {"business_status": "OPERATIONAL", "geometry": {"location": {"lat": 40.1971232, "lng": -3.8004617}, "viewport": {"northeast": {"lat": 40.1984871302915, "lng": -3.799125219708497}, "southwest": {"lat": 40.1957891697085, "lng": -3.801823180291502}}}, "icon": "https://maps.gstatic.com/mapfiles/place_api/icons/v1/png_71/generic_business-71.png", "icon_background_color": "#7B9EB0", "icon_mask_base_uri": "https://maps.gstatic.com/mapfiles/place_api/icons/v2/generic_pinlet", "name": "Peñuelas-Ribera", "place_id": "ChIJZf1olFz0QQ0RNi4R1cuj4no", "plus_code": {"compound_code": "55WX+RR Torrejón de la Calzada, Spain", "global_code": "8CGR55WX+RR"}, "reference": "ChIJZf1olFz0QQ0RNi4R1cuj4no", "scope": "GOOGLE", "types": ["transit_station", "point_of_interest", "establishment"], "vicinity": "Spain"}, {"business_status": "OPERATIONAL", "geometry": {"location": {"lat": 40.19189, "lng": -3.80358}, "viewport": {"northeast": {"lat": 40.1932528802915, "lng": -3.802282219708498}, "southwest": {"lat": 40.1905549197085, "lng": -3.804980180291503}}}, "icon": "https://maps.gstatic.com/mapfiles/place_api/icons/v1/png_71/generic_business-71.png", "icon_background_color": "#7B9EB0", "icon_mask_base_uri": "https://maps.gstatic.com/mapfiles/place_api/icons/v2/generic_pinlet", "name": "Real-Urb.Los Pinos", "photos": [{"height": 1836, "html_attributions": ["<a href=\"https://maps.google.com/maps/contrib/117913690345644406844\">Olivier Rodríguez</a>"], "photo_reference": "AWn5SU6_nC_WZrzQ9LU7pd0T0gAcp0nmAs305YiEC9t08UpGp8BKK_37q7FuDzZdOXHn2Q5ug9KvFD_xfKPFkwGEJWv9JdDyPkv1UIupCHere8h9kPHqUR6z7Jga5y85XHpATXBuJEAD8AiPsOn1X7r0SAOcrXaqf8C07PJt_rjzFTgSSyu_6m5xJcfInr4stGPbu0ya9Q5bx6ekGOOcFMK9FPjEAItdF8xuLjDreLoMNdUuoSv1MDbjKsDppWQE3ecSts8WjpZP8oe2CYt6a0PQ0SPcpksl_AaZgvS0_oCjkPHkayLhfYL_MCxOfgKJ7Rf7gc14BJ8zYbGwvv0Wo71WbdIZsdEM0N2-NCNPDlCD72QHSHT6aWuwh0kK8zMGHYHYHV7BJ57hmSKtiAIELPuvy9IeF-3bzMRP9wShqJtRlV5jQ6T5QAaYGCdxKrepvgTs3_fmVKVky-jL39JJQl00-5O-ughaP5cb6daPvs1brU06pMHPn5BK8P3GX3-cZEojgtC-5WVcVsjbjHlb2_VajY9xR2K4E4NRBgy4KPToxDmt-ARpwAjkjd0uNM8suKL2BD47Jxp7QDGHKUSIZ8_1W1ygyxu0Ly89TPDWBJYs7VJ3CwYOv7dO_ugob_9qBQud3ftk2A", "width": 3264}], "place_id": "ChIJ829tbEL0QQ0Rc4X5j5nfMWI", "plus_code": {"compound_code": "55RW+QH Torrejón de la Calzada, Spain", "global_code": "8CGR55RW+QH"}, "reference": "ChIJ829tbEL0QQ0Rc4X5j5nfMWI", "scope": "GOOGLE", "types": ["transit_station", "point_of_interest", "establishment"], "vicinity": "Spain"}, {"business_status": "OPERATIONAL", "geometry": {"location": {"lat": 40.19194999999999, "lng": -3.80377}, "viewport": {"northeast": {"lat": 40.1932865802915, "lng": -3.802375469708498}, "southwest": {"lat": 40.1905886197085, "lng": -3.805073430291502}}}, "icon": "https://maps.gstatic.com/mapfiles/place_api/icons/v1/png_71/generic_business-71.png", "icon_background_color": "#7B9EB0", "icon_mask_base_uri": "https://maps.gstatic.com/mapfiles/place_api/icons/v2/generic_pinlet", "name": "Real-Urb.Los Pinos", "photos": [{"height": 4000, "html_attributions": ["<a href=\"https://maps.google.com/maps/contrib/110764105192808120510\">Nuria Villamora</a>"], "photo_reference": "AWn5SU69F0IG3p8fiJN07hUSa6Yyl1bP1sXSzuHebK_r1XpaWS8la5O1n5ZS0a4RSwT15SQ69mWcAKEOAvA_Tg1kudUJe3nBd5SNJRNMEdd03v32x19AGBhzYDR4Hk4GYcrClzTl36-dJRGA8BaKskRDhgbJ9whDBTDz4wEmcdv1dM39a6SMrSWIk3GzvJFaOa0YpN6EMqozA_q5CLBs1XV_HLpsxvO_SxwRf4AneW7BEkV6St127vVqCbPB6TNo5MIrjA6TCrAyYy0i5irQpDHy5Gh37pk-3iHtdHHSLX7Wz1dUMlGkXjDKvLqQ7ucUYWzK1bScx9np_0V03QsfWMuQjvxJif_a4yTEKt6BcQq0znB0FhLNy0-jOxYBKUCyfaFzJhquvUH2P0r_ePUAQotnHuUsTbat4cvRKaW8nps1CWWf6m7MDWT-E-m_KVpQAt0o-gF_0Rn9hUjrZ8TlOeqOJGuBkSwvXkh8gVoIDA7MzQCH9ZUJHq-E0oZGd_G9FZjMAcJdUuigxJt-8-Eu4OIZmbrAEa6TNnqwIrcFPPsGsYKFDeCoRCW_2Z_JUWGuNzCfMvn_EzVT0kqWEgoYif2QSm_RkNBluTcEWlMGn2kLqooUp9p4uQzAk2ULZ7NTeW-26NLnLcsWY-FrHWb9VsMx8SCLguw", "width": 2256}], "place_id": "ChIJ_43mbUL0QQ0Rgiug0T_fkS4", "plus_code": {"compound_code": "55RW+QF Torrejón de la Calzada, Spain", "global_code": "8CGR55RW+QF"}, "rating": 5, "reference": "ChIJ_43mbUL0QQ0Rgiug0T_fkS4", "scope": "GOOGLE", "types": ["transit_station", "point_of_interest", "establishment"], "user_ratings_total": 1, "vicinity": "Spain"}, {"business_status": "OPERATIONAL", "geometry": {"location": {"lat": 40.19747, "lng": -3.80094}, "viewport": {"northeast": {"lat": 40.1988324302915, "lng": -3.799654669708497}, "southwest": {"lat": 40.1961344697085, "lng": -3.802352630291502}}}, "icon": "https://maps.gstatic.com/mapfiles/place_api/icons/v1/png_71/generic_business-71.png", "icon_background_color": "#7B9EB0", "icon_mask_base_uri": "https://maps.gstatic.com/mapfiles/place_api/icons/v2/generic_pinlet", "name": "Real-Peñuelas", "place_id": "ChIJwxMK8lz0QQ0R3FRivNG8Hpc", "plus_code": {"compound_code": "55WX+XJ Torrejón de la Calzada, Spain", "global_code": "8CGR55WX+XJ"}, "rating": 4, "reference": "ChIJwxMK8lz0QQ0R3FRivNG8Hpc", "scope": "GOOGLE", "types": ["transit_station", "point_of_interest", "establishment"], "user_ratings_total": 2, "vicinity": "Spain"}, {"business_status": "OPERATIONAL", "geometry": {"location": {"lat": 40.19681, "lng": -3.80149}, "viewport": {"northeast": {"lat": 40.1981439802915, "lng": -3.800086919708497}, "southwest": {"lat": 40.1954460197085, "lng": -3.802784880291502}}}, "icon": "https://maps.gstatic.com/mapfiles/place_api/icons/v1/png_71/generic_business-71.png", "icon_background_color": "#7B9EB0", "icon_mask_base_uri": "https://maps.gstatic.com/mapfiles/place_api/icons/v2/generic_pinlet", "name": "Real-CºDe Cubas", "place_id": "ChIJq6zp3Vz0QQ0RkYtk2e73bXc", "plus_code": {"compound_code": "55WX+PC Torrejón de la Calzada, Spain", "global_code": "8CGR55WX+PC"}, "rating": 5, "reference": "ChIJq6zp3Vz0QQ0RkYtk2e73bXc", "scope": "GOOGLE", "types": ["transit_station", "point_of_interest", "establishment"], "user_ratings_total": 1, "vicinity": "Spain"}]