[{"business_status": "OPERATIONAL", "geometry": {"location": {"lat": 40.6233145, "lng": -4.024802799999999}, "viewport": {"northeast": {"lat": 40.62468388029151, "lng": -4.023473819708498}, "southwest": {"lat": 40.62198591970851, "lng": -4.026171780291501}}}, "icon": "https://maps.gstatic.com/mapfiles/place_api/icons/v1/png_71/shopping-71.png", "icon_background_color": "#4B96F3", "icon_mask_base_uri": "https://maps.gstatic.com/mapfiles/place_api/icons/v2/shoppingcart_pinlet", "international_phone_number": "+34 912 17 04 53", "name": "Supermercados Dia", "opening_hours": {"open_now": false}, "photos": [{"height": 1238, "html_attributions": ["<a href=\"https://maps.google.com/maps/contrib/103648276037968628472\">Supermercados Dia</a>"], "photo_reference": "AWn5SU4q2YXsrykPzUTzdBs3DmLO3bvoP-CK5htJ9l5H36KSd_ys1zwSoQnptP0JJ61nRldeEWh5XQ-wdVxn745qM-y-curTdKmi36PsBcOxn34JqnthmjUlUeBOgHuAKl8RqY3ntG9sXkuE7AL1n-h24XODKS10fw3StUphLTrYLg6McmSXt9FneX8O6rZWBYsmdtHBQVt0FB9sgWOj6adBEiRHMbQp4PxA-Px7LELR2iWkn7iSp3yU2z5KowzfK1DkJp-dwrvIKIBGXEAlQBhsDXicIfXYayi2SXE4C-Ksb17tR2SCcWL1-G1qJJ6efH4Y8twizn0W6pg", "width": 2023}], "place_id": "ChIJV8W1WF50QQ0ROkY_6FQQrgM", "plus_code": {"compound_code": "JXFG+83 Galapagar, Spain", "global_code": "8CGQJXFG+83"}, "rating": 3.9, "reference": "ChIJV8W1WF50QQ0ROkY_6FQQrgM", "scope": "GOOGLE", "types": ["supermarket", "convenience_store", "grocery_or_supermarket", "bakery", "store", "point_of_interest", "food", "establishment"], "user_ratings_total": 557, "vicinity": "Calle Vicente Guillen Zamorano, 9, Galapagar"}, {"business_status": "OPERATIONAL", "geometry": {"location": {"lat": 40.628938, "lng": -4.003659499999999}, "viewport": {"northeast": {"lat": 40.6302713302915, "lng": -4.002410219708497}, "southwest": {"lat": 40.62757336970851, "lng": -4.005108180291502}}}, "icon": "https://maps.gstatic.com/mapfiles/place_api/icons/v1/png_71/shopping-71.png", "icon_background_color": "#4B96F3", "icon_mask_base_uri": "https://maps.gstatic.com/mapfiles/place_api/icons/v2/shoppingcart_pinlet", "international_phone_number": "+34 912 17 04 53", "name": "Supermercados Dia", "opening_hours": {"open_now": false}, "photos": [{"height": 657, "html_attributions": ["<a href=\"https://maps.google.com/maps/contrib/100551608365743376325\">Supermercados Dia</a>"], "photo_reference": "AWn5SU7B2Ce3A2_ac3QMW2qhKEKBaxVa5iz7KchzvjSbNfM2jdH5hCbMwE6nsagBuw8JVCcNm11a6vLOlqFarQgQJDpTMuVdKlto4PANqkoDefW03BhlRdaWDOgs3ax3pr_Su7ZS6v1YLwtVFvv_GQI31YJMn7cLbu9O8ULXEpTTp4kwKHPzxyCh8rX_rpRDV_U6oAHV4KhfPT0bwqHzfReX5Rr5vNxR0i_VVhSuCAVQcG8xvUQfUlF7xnbxE-ZMcisIj9HegbC_JyG-LAKYkqNLjIH3IXCKwc3rSCijJrA24fZrDIbsdDlsNunGYL8ijsfKboaS7yoJ0WA", "width": 509}], "place_id": "ChIJK14d0xV0QQ0Rn0_7LeCoRxs", "plus_code": {"compound_code": "JXHW+HG Collado Villalba, Spain", "global_code": "8CGQJXHW+HG"}, "rating": 3.8, "reference": "ChIJK14d0xV0QQ0Rn0_7LeCoRxs", "scope": "GOOGLE", "types": ["supermarket", "convenience_store", "grocery_or_supermarket", "bakery", "store", "point_of_interest", "food", "establishment"], "user_ratings_total": 236, "vicinity": "Plaza los Belgas, 7, Collado Villalba"}, {"business_status": "OPERATIONAL", "geometry": {"location": {"lat": 40.62879739999999, "lng": -4.0115487}, "viewport": {"northeast": {"lat": 40.6301505302915, "lng": -4.010110719708497}, "southwest": {"lat": 40.6274525697085, "lng": -4.012808680291502}}}, "icon": "https://maps.gstatic.com/mapfiles/place_api/icons/v1/png_71/shopping-71.png", "icon_background_color": "#4B96F3", "icon_mask_base_uri": "https://maps.gstatic.com/mapfiles/place_api/icons/v2/shoppingcart_pinlet", "international_phone_number": "+34 912 17 04 53", "name": "Supermercados Dia", "opening_hours": {"open_now": false}, "photos": [{"height": 900, "html_attributions": ["<a href=\"https://maps.google.com/maps/contrib/106020996715775673402\">Supermercados Dia</a>"], "photo_reference": "AWn5SU50A5-9EgMddgG6tJ1DYpifH3bTCag25r8hH9u7dYUt6FH9OtdKbzspEYXKxP_h4ni-AGBxW4O4E_GDCBeG91G_TCOy2ekiiK787CVg1oCNiZ4fybrBhG7q7KFXzkb6e8drmPYBVtmXdhP8_DU93KWK9h0Sa5JbL3_UqOBYvFLDm0SShln__wQCp8o4Xmkh0PD2sBkoOnXJFyu8XfMzrP40inXA9vok99EmI4s8siyL9Oi5UoEsnvLwLrlbrLkpKmuUd3pYpa8g9sKtA7yFM8cvYIqz_2emAT3F5rTCpAEyQ0r38eIruHxETYCh1OkWYEFYXT32cL8", "width": 1600}], "place_id": "ChIJ7fCbrWt0QQ0Rb8L51rCHkEU", "plus_code": {"compound_code": "JXHQ+G9 Collado Villalba, Spain", "global_code": "8CGQJXHQ+G9"}, "rating": 4.1, "reference": "ChIJ7fCbrWt0QQ0Rb8L51rCHkEU", "scope": "GOOGLE", "types": ["supermarket", "convenience_store", "grocery_or_supermarket", "bakery", "store", "point_of_interest", "food", "establishment"], "user_ratings_total": 353, "vicinity": "Calle Asturias, 34, Collado Villalba"}, {"business_status": "OPERATIONAL", "geometry": {"location": {"lat": 40.576058, "lng": -3.930904699999999}, "viewport": {"northeast": {"lat": 40.5773963802915, "lng": -3.929562619708497}, "southwest": {"lat": 40.5746984197085, "lng": -3.932260580291502}}}, "icon": "https://maps.gstatic.com/mapfiles/place_api/icons/v1/png_71/shopping-71.png", "icon_background_color": "#4B96F3", "icon_mask_base_uri": "https://maps.gstatic.com/mapfiles/place_api/icons/v2/shoppingcart_pinlet", "international_phone_number": "+34 918 59 64 93", "name": "Supercor Exprés", "opening_hours": {"open_now": false}, "photos": [{"height": 2432, "html_attributions": ["<a href=\"https://maps.google.com/maps/contrib/108773277228066805483\">Pablo Gómez Poch</a>"], "photo_reference": "AWn5SU4LL7QFeGx__G6GQJ7QZ8qbxQ-Of4b-AvNHxgmXgxMXLtU5fpGK1XL9663K7ggbA3cUa2HAZshZHsHzYr3fi3_BEA8ZyC8TUNgH2SjbbkWJPVCx86JGIUZINo8kVlaRApMp15R199MNbgM52fpPyLe_LAcDVY96Zfm1DkxSgNS95jPC3zUFmdH34bcu7hGMoln4pxAIcPAu07a-b7Dtx237w730U4naejrLnyC370kmYfHOgMoULaAIKYLTKgiFTAKdotYHsrv-gDXSNPRJfBCe5xkV9Rs6yBfmxHFigpOqR_GStWGwT9V1ODcIHJ9PLp53GdgRZSipYUAkwmMTz7u2Kx_sKODd4qc-9ow-GvN3hDHZJNPsCD6tsRfDG_e8gAHTLCTsjvM86wTjh6cPSdfCBHID9wcr7lSzsOWY2x901Ogg5TD4RMkYsrCBC5-e8a8rqEnrrGd-iG1W_fr_RGqyUzFfrhWtd32ND3vaCphp682KAHFMCFRGBdG-gqe4DWQ4vuAWZwHlgZwiY14_5VpgrD9vw4AjyksQMehTWTZZyKsWJC0yCB_mNY35l_kI6iaDO7Zt1-14KldBPL264f52tiPsMIqUhfw369hU38UgNbox3BND5jAVwjJ2j4o1W7yzRB0P", "width": 3286}], "place_id": "ChIJS4xMj9x3QQ0RI7Mf9XKHLbU", "plus_code": {"compound_code": "H3G9+CJ Torrelodones, Spain", "global_code": "8CGRH3G9+CJ"}, "rating": 4, "reference": "ChIJS4xMj9x3QQ0RI7Mf9XKHLbU", "scope": "GOOGLE", "types": ["supermarket", "convenience_store", "grocery_or_supermarket", "bakery", "clothing_store", "store", "point_of_interest", "food", "establishment"], "user_ratings_total": 100, "vicinity": "Camino de Valladolid, 19, Torrelodones"}, {"business_status": "OPERATIONAL", "geometry": {"location": {"lat": 40.63374339999999, "lng": -4.005096099999999}, "viewport": {"northeast": {"lat": 40.6350686802915, "lng": -4.003906869708498}, "southwest": {"lat": 40.6323707197085, "lng": -4.006604830291502}}}, "icon": "https://maps.gstatic.com/mapfiles/place_api/icons/v1/png_71/shopping-71.png", "icon_background_color": "#4B96F3", "icon_mask_base_uri": "https://maps.gstatic.com/mapfiles/place_api/icons/v2/shoppingcart_pinlet", "international_phone_number": "+34 912 17 04 53", "name": "Supermercados Dia", "opening_hours": {"open_now": false}, "photos": [{"height": 1536, "html_attributions": ["<a href=\"https://maps.google.com/maps/contrib/104553428902303232461\">Supermercados Dia</a>"], "photo_reference": "AWn5SU6WtLkVeh2kjOlF-DuhVj-aUOJYKgywbkViaOM8NPu2rQwR8NTI0Mu3h25c70VBzqECxcxADUFSXRn6EsbOKAJQg7TWuEA3_oq3R7fd5EwKrzQpkl1_AN9sVIBzj_DBe5hC17D_wVZVWVqsqeINvtV696PgFfdDJs8Hy-OQn6K0BWO6xAOccnNzBh76l5efimN14NxeZX0uAmMMRvQuFWa7dJHN9LduTchJ_5a-Rghe5Mz4UOrg4_spmRGTDFxmHnM4cEJVshaRy7g7B14scN8M4GCt63efqJAy3U5lOB_p801h8U8QJ2werZ2hPCeEkxzSXhfPv-U", "width": 2048}], "place_id": "ChIJS2zkrRN0QQ0RK1cP8UESxhc", "plus_code": {"compound_code": "JXMV+FX Collado Villalba, Spain", "global_code": "8CGQJXMV+FX"}, "rating": 3.9, "reference": "ChIJS2zkrRN0QQ0RK1cP8UESxhc", "scope": "GOOGLE", "types": ["supermarket", "convenience_store", "grocery_or_supermarket", "bakery", "store", "point_of_interest", "food", "establishment"], "user_ratings_total": 694, "vicinity": "Avenida Juan Carlos I, 24, Collado Villalba"}, {"business_status": "OPERATIONAL", "geometry": {"location": {"lat": 40.5753813, "lng": -3.9279632}, "viewport": {"northeast": {"lat": 40.5768098802915, "lng": -3.926556269708498}, "southwest": {"lat": 40.5741119197085, "lng": -3.929254230291503}}}, "icon": "https://maps.gstatic.com/mapfiles/place_api/icons/v1/png_71/shopping-71.png", "icon_background_color": "#4B96F3", "icon_mask_base_uri": "https://maps.gstatic.com/mapfiles/place_api/icons/v2/shoppingcart_pinlet", "international_phone_number": "+34 912 17 04 53", "name": "Supermercados Dia", "opening_hours": {"open_now": false}, "photos": [{"height": 657, "html_attributions": ["<a href=\"https://maps.google.com/maps/contrib/113911649460061198913\">Supermercados Dia</a>"], "photo_reference": "AWn5SU4_HXuh2MgKGiLSO6sSpoBTSR5lQe5KAASESnQn27O50DKWg2fIXtm1wNhsRu4DPMK_ZtsaEZEeqcpvY_BfVnDQqph_9rz2od3DRtC6NOlv7F5mrTi8PQCBFzXkA3Wm9juUi-RD-2uoEk8uLra0anA9wg2PXF52xiUYohpo0hmUcwYMgqcPSEiHKr5ANy6PPr9zrDOrCdUGIzbLoWJDCfkAyn9SlHXK-UNTBxHpAcU-zRAW4Pp1HczxbNJ_rqas5fyzz7E82c4j9MxCxh3G-_t5gPQigsCw4woWFtWDD3f66fkdc9X-UgZ_xLsDD-5_lAVNp-OncPQ", "width": 509}], "place_id": "ChIJJfhhn913QQ0RdspvO9pAccg", "plus_code": {"compound_code": "H3GC+5R Torrelodones, Spain", "global_code": "8CGRH3GC+5R"}, "rating": 3.6, "reference": "ChIJJfhhn913QQ0RdspvO9pAccg", "scope": "GOOGLE", "types": ["supermarket", "convenience_store", "grocery_or_supermarket", "bakery", "store", "point_of_interest", "food", "establishment"], "user_ratings_total": 251, "vicinity": "Calle Real, 18, Torrelodones"}, {"business_status": "OPERATIONAL", "geometry": {"location": {"lat": 40.5782947, "lng": -4.004846799999999}, "viewport": {"northeast": {"lat": 40.5795760302915, "lng": -4.003481019708498}, "southwest": {"lat": 40.5768780697085, "lng": -4.006178980291502}}}, "icon": "https://maps.gstatic.com/mapfiles/place_api/icons/v1/png_71/shopping-71.png", "icon_background_color": "#4B96F3", "icon_mask_base_uri": "https://maps.gstatic.com/mapfiles/place_api/icons/v2/convenience_pinlet", "international_phone_number": "+34 605 30 20 23", "name": "ALIMENTOS DE NUESTRO PUEBLO SL", "opening_hours": {"open_now": false}, "photos": [{"height": 534, "html_attributions": ["<a href=\"https://maps.google.com/maps/contrib/105010441270126181577\">ALIMENTOS DE NUESTRO PUEBLO SL</a>"], "photo_reference": "AWn5SU6z6eTIxf5Jn3VQ-ZH1Rk___FnPtqYxnS_pRi_L1vgnDU06Jx9X_vkRE3UFr-qdQ5VEBwKob_bFyXncZm21JyacZpPfXrDSCdOGUWalquF6kuMtHVkX0diX4ObrJV4yic-Z9FyvT6YbpRTYVnEsjrjKI5oeCADBQv3lqI6pOxQ1SQZra_gXWktceHktEaRMqLtIligtMDcEvYj9y_5ZNrRNxGYf3edMaVuT-5FNrygsLVFGxtoTeooCawZdcd2p8z0okQSPKi44fLdn_Qvjv9JCgsg06jYux7r-Te9E0XmXS2H0BIAXGiwfoEAk_yoLxrWdu0P_DuA", "width": 948}], "place_id": "ChIJLXXCt0t1QQ0R6grJCiUsPqo", "plus_code": {"compound_code": "HXHW+83 Galapagar, Spain", "global_code": "8CGQHXHW+83"}, "rating": 5, "reference": "ChIJLXXCt0t1QQ0R6grJCiUsPqo", "scope": "GOOGLE", "types": ["convenience_store", "store", "point_of_interest", "food", "establishment"], "user_ratings_total": 2, "vicinity": "Calle del Calvario, 16, Galapagar"}, {"business_status": "OPERATIONAL", "geometry": {"location": {"lat": 40.5752464, "lng": -4.002763799999999}, "viewport": {"northeast": {"lat": 40.5766202302915, "lng": -4.001443119708497}, "southwest": {"lat": 40.5739222697085, "lng": -4.004141080291502}}}, "icon": "https://maps.gstatic.com/mapfiles/place_api/icons/v1/png_71/shopping-71.png", "icon_background_color": "#4B96F3", "icon_mask_base_uri": "https://maps.gstatic.com/mapfiles/place_api/icons/v2/convenience_pinlet", "international_phone_number": "+34 642 82 10 00", "name": "Alimentacion Míoríţa", "opening_hours": {"open_now": false}, "photos": [{"height": 422, "html_attributions": ["<a href=\"https://maps.google.com/maps/contrib/103892721116768689834\">Magazin romanesc Miorita en galapagar</a>"], "photo_reference": "AWn5SU7HryMWlasjsL4wXvszlcSlUP0fhZpf5E0zoDOXDPLLDAW7GyJL2HsJvnjpyMd_dltjJxQ4m8jI-34r5q0XFfTwKYJISb4iiVB07Q3hJbCV4hUaF16VFFJmCDmMpdzgfUsfUPhoy0R-hoAH0MyMlVfqZmb7HEg1wp7g1Q72C9_-Vuhw_REeSn0Lv2OuQWdykdcUf7x2Xkvwe-iZwXZ8OCuXNZzKLULLWbE6uyrI7e6EHInLXqhfZmQcYxVG81B75E0d49QCXLqVwhGZYAIOByDfIcwWti1HxqYc57GEBlShbm1qjXZPoNfZb5lEsfA6z760Hl3lm9g", "width": 750}], "place_id": "ChIJeamsEPJ1QQ0RiWmtwQW2Hr0", "plus_code": {"compound_code": "HXGW+3V Galapagar, Spain", "global_code": "8CGQHXGW+3V"}, "rating": 4, "reference": "ChIJeamsEPJ1QQ0RiWmtwQW2Hr0", "scope": "GOOGLE", "types": ["convenience_store", "store", "point_of_interest", "food", "establishment"], "user_ratings_total": 10, "vicinity": "Calle Veracruz, 15, Galapagar"}, {"business_status": "OPERATIONAL", "geometry": {"location": {"lat": 40.5773102, "lng": -4.000649900000001}, "viewport": {"northeast": {"lat": 40.5785804802915, "lng": -3.999190469708498}, "southwest": {"lat": 40.5758825197085, "lng": -4.001888430291502}}}, "icon": "https://maps.gstatic.com/mapfiles/place_api/icons/v1/png_71/shopping-71.png", "icon_background_color": "#4B96F3", "icon_mask_base_uri": "https://maps.gstatic.com/mapfiles/place_api/icons/v2/convenience_pinlet", "name": "Dragón rojo", "place_id": "ChIJDypgg_h1QQ0RcSYtnZDJkyk", "plus_code": {"compound_code": "HXGX+WP Galapagar, Spain", "global_code": "8CGQHXGX+WP"}, "reference": "ChIJDypgg_h1QQ0RcSYtnZDJkyk", "scope": "GOOGLE", "types": ["convenience_store", "store", "point_of_interest", "food", "establishment"], "vicinity": "Carretera de Torrelodones, 11, Galapagar"}, {"business_status": "OPERATIONAL", "geometry": {"location": {"lat": 40.57965969999999, "lng": -4.0027583}, "viewport": {"northeast": {"lat": 40.58104468029149, "lng": -4.001395669708499}, "southwest": {"lat": 40.5783467197085, "lng": -4.004093630291504}}}, "icon": "https://maps.gstatic.com/mapfiles/place_api/icons/v1/png_71/shopping-71.png", "icon_background_color": "#4B96F3", "icon_mask_base_uri": "https://maps.gstatic.com/mapfiles/place_api/icons/v2/convenience_pinlet", "international_phone_number": "+34 654 31 27 84", "name": "Alimentacion y Bazar", "opening_hours": {"open_now": false}, "photos": [{"height": 1858, "html_attributions": ["<a href=\"https://maps.google.com/maps/contrib/113356941566436936526\">Gustavo Bregante</a>"], "photo_reference": "AWn5SU5Ar9LlI6rE2Irj10z1rpxa-4BirfGhc8x6iHa21feesUnpBEveZNLDx-oaMyV5UzmAoPJmcOdh_qj58uf-j-CT_4nhlTAvdRg81qi3EecmzQM_AQ2BX-cw8ZBfV7Y_qQxu6oNXJKYfhJIPGtLKytA2TgoJ9zX3IDjk0HU4wxA744fZFHf28eu5dihMcnkyn4fAYAHZxfzc4obR1obGci__eqtPl2BhTY3TMQk6uWLXrlDO420iUg-ve-J039uY5DtG0VnbL79bTKscD_b1XnUEieUhi5JhxWxGTvLU3GuFIVXk5m7fO-OROR9K3IE279Bw2K1M897mZ706lWtRNu6wn-ESfLY-YtGz9SN5r5cG83GUEyrbiJqdxUEUGQ-K_7h99eJnXkNeUurdmYYQEETdeHu6jmsUwwbxNNdXoZ0bqIWoY3INtM89ZdrFyi6qMRqjaMXlqM6MVlglrMJjA7uRx1ibezlYordhlCy8ZPQn06WKDkPTIpCUHHunZaMrb3_rIYwNZh-VnHDMS2KYbIdtcifPhl1tEiwr6-cCcaM4cpDYnfcSXqIC04n76V5GzHttI2mDNh3LDzzW9GHLu2tFApVD3hEp7Bt2OVA7hUBrtzyarYtJXGlYFpDYfM8_-DYAFM39", "width": 904}], "place_id": "ChIJBYDym2h1QQ0RJDYgiV6cUj4", "plus_code": {"compound_code": "HXHW+VV Galapagar, Spain", "global_code": "8CGQHXHW+VV"}, "rating": 3.5, "reference": "ChIJBYDym2h1QQ0RJDYgiV6cUj4", "scope": "GOOGLE", "types": ["convenience_store", "store", "point_of_interest", "food", "establishment"], "user_ratings_total": 4, "vicinity": "Calle de San Gregorio, 30, Galapagar"}, {"business_status": "OPERATIONAL", "geometry": {"location": {"lat": 40.5828177, "lng": -3.9970406}, "viewport": {"northeast": {"lat": 40.5842214802915, "lng": -3.995741569708497}, "southwest": {"lat": 40.5815235197085, "lng": -3.998439530291502}}}, "icon": "https://maps.gstatic.com/mapfiles/place_api/icons/v1/png_71/shopping-71.png", "icon_background_color": "#4B96F3", "icon_mask_base_uri": "https://maps.gstatic.com/mapfiles/place_api/icons/v2/convenience_pinlet", "international_phone_number": "+34 640 22 42 12", "name": "COSA MAJA, S.L.", "opening_hours": {"open_now": false}, "place_id": "ChIJUx7vygZ1QQ0R6EohNe1JQEk", "plus_code": {"compound_code": "H2M3+45 Galapagar, Spain", "global_code": "8CGRH2M3+45"}, "reference": "ChIJUx7vygZ1QQ0R6EohNe1JQEk", "scope": "GOOGLE", "types": ["convenience_store", "store", "point_of_interest", "food", "establishment"], "vicinity": "Carretera de Galapagar a Navata, Galapagar"}, {"business_status": "OPERATIONAL", "geometry": {"location": {"lat": 40.57902949999999, "lng": -3.955326099999999}, "viewport": {"northeast": {"lat": 40.58042358029149, "lng": -3.953971469708498}, "southwest": {"lat": 40.5777256197085, "lng": -3.956669430291502}}}, "icon": "https://maps.gstatic.com/mapfiles/place_api/icons/v1/png_71/shopping-71.png", "icon_background_color": "#4B96F3", "icon_mask_base_uri": "https://maps.gstatic.com/mapfiles/place_api/icons/v2/convenience_pinlet", "name": "Alimentación Zhang", "opening_hours": {"open_now": false}, "place_id": "ChIJCZh9TzB2QQ0Re76FG3kC7m4", "plus_code": {"compound_code": "H2HV+JV Las Minas, Spain", "global_code": "8CGRH2HV+JV"}, "rating": 4, "reference": "ChIJCZh9TzB2QQ0Re76FG3kC7m4", "scope": "GOOGLE", "types": ["convenience_store", "store", "point_of_interest", "food", "establishment"], "user_ratings_total": 2, "vicinity": "Spain"}, {"business_status": "OPERATIONAL", "geometry": {"location": {"lat": 40.6238168, "lng": -4.0116833}, "viewport": {"northeast": {"lat": 40.6250435302915, "lng": -4.010336269708497}, "southwest": {"lat": 40.6223455697085, "lng": -4.013034230291502}}}, "icon": "https://maps.gstatic.com/mapfiles/place_api/icons/v1/png_71/shopping-71.png", "icon_background_color": "#4B96F3", "icon_mask_base_uri": "https://maps.gstatic.com/mapfiles/place_api/icons/v2/shoppingcart_pinlet", "international_phone_number": "+34 912 17 04 53", "name": "Supermercados Dia", "opening_hours": {"open_now": false}, "photos": [{"height": 1200, "html_attributions": ["<a href=\"https://maps.google.com/maps/contrib/103470516261395655917\">Supermercados Dia</a>"], "photo_reference": "AWn5SU7KZVUmgR_5aw42OWH4xo_zLH3Whi8TcKw8uuyDKBOT1H1lGYIMlBqyb44hbMA1bog0pbWGstT4XaSVaMJRTErP3DzjGCwdZmpRetMU0Mt7_3JmqN5Erc-ezgHsiIggdliXnXnM6N6TXnz1BLD6PDjY3O9Mph6VKUg3ATh6lt2JRes89-NcFQd5w-VmdPLStAqZeFMiHsWDZxSPUfP-Ez_2n_cHfIVMQlIRY1eVOHZ-4YKt35NbkOJmUtqFPru_u2GobAkpdndV2v6zEU647BmVQSFPiE56m5s-KTeP-AGJwUs03OlqVZhBubnYGDQlZzfW_4UFOfo", "width": 1600}], "place_id": "ChIJz5FDG6N1QQ0R2ObIKP0BtmM", "plus_code": {"compound_code": "JXFQ+G8 Collado Villalba, Spain", "global_code": "8CGQJXFQ+G8"}, "rating": 3.8, "reference": "ChIJz5FDG6N1QQ0R2ObIKP0BtmM", "scope": "GOOGLE", "types": ["supermarket", "convenience_store", "grocery_or_supermarket", "bakery", "store", "point_of_interest", "food", "establishment"], "user_ratings_total": 67, "vicinity": "Calle Gabriel García Márquez, 6, Collado Villalba"}, {"business_status": "OPERATIONAL", "geometry": {"location": {"lat": 40.62343870000001, "lng": -4.0212803}, "viewport": {"northeast": {"lat": 40.62471093029149, "lng": -4.019872619708498}, "southwest": {"lat": 40.62201296970849, "lng": -4.022570580291502}}}, "icon": "https://maps.gstatic.com/mapfiles/place_api/icons/v1/png_71/shopping-71.png", "icon_background_color": "#4B96F3", "icon_mask_base_uri": "https://maps.gstatic.com/mapfiles/place_api/icons/v2/convenience_pinlet", "international_phone_number": "+34 620 64 42 86", "name": "Delivemar", "opening_hours": {"open_now": false}, "photos": [{"height": 316, "html_attributions": ["<a href=\"https://maps.google.com/maps/contrib/116043029823517542238\">Delivemar</a>"], "photo_reference": "AWn5SU4Kb--dYRuEuZOQni9jerkz2D_70YUzy_ydmDkBut5N3Yz3LUkrjx67scHfTb-wJ_rpIXxGyi-8C5APYbmI-1sjpLY5JCavVJrHihvhS3iO0AcJfQPSzzbAT6aVtoK668lljBLBdNDsTa1sIwUJuzCGdNOWFv47HIdpNV0uDtIIFC_ZPcdSC2xScAnX4xfCduKCWSlj_f1ow1Q0N-nSy_h_OHfhvFScjm9PcLacZGK4hLuWoE-Wq4hlaIq2VFGgyW32UmXmuuFs3kwNAK1p8Y5y3ShWYtbPuW0Ws3bLEJ0lnBbV8ifMgE8s8gI-KDs4Ks-gQ1Nd", "width": 829}], "place_id": "ChIJv7PGq110QQ0RDsdOJBQNFtg", "plus_code": {"compound_code": "JXFH+9F Collado Villalba, Spain", "global_code": "8CGQJXFH+9F"}, "reference": "ChIJv7PGq110QQ0RDsdOJBQNFtg", "scope": "GOOGLE", "types": ["convenience_store", "store", "point_of_interest", "food", "establishment"], "vicinity": "Calle Calibre, 95, Collado Villalba"}, {"business_status": "OPERATIONAL", "geometry": {"location": {"lat": 40.6271619, "lng": -4.0081731}, "viewport": {"northeast": {"lat": 40.6285465302915, "lng": -4.006812019708498}, "southwest": {"lat": 40.6258485697085, "lng": -4.009509980291503}}}, "icon": "https://maps.gstatic.com/mapfiles/place_api/icons/v1/png_71/shopping-71.png", "icon_background_color": "#4B96F3", "icon_mask_base_uri": "https://maps.gstatic.com/mapfiles/place_api/icons/v2/convenience_pinlet", "name": "Alimentación", "opening_hours": {"open_now": false}, "photos": [{"height": 4032, "html_attributions": ["<a href=\"https://maps.google.com/maps/contrib/112034342370945676795\">daniel suarez</a>"], "photo_reference": "AWn5SU5gM9a6NfPC5c3w0bFEMW-jaFduTEpuDV_sPo8hyojxEMilo9Dq35eSifrYMlYL3LFoA8qESfm2wu1PQxurOrj_awGL3opNotJC8xyHRUdnOsPxH1dNu0HMonnss_G-vVR2ERxDOYlofJHn0BvsJeDDLPxtcfQAgZQeG85F8ntWj9cQ-TIDA9wEwgwacAFp-_HCrfbcTwbgd1FPYg45e7-B4t8sOZYVIMGAbtc1nZcXi8hiReEQmoN8ICvVN97KG5FMy4-8ywtGfqGbdE5GpoHNEBLN5e0Iv9-j72ys3wEFqi5m3bunGwF_JQaAeMdFc82DQu36-E_51HseHE4MIGpMZl_8LSpPrfEN5_VPAlWarrg2ldx0dqp5lmeIvn5MwHF1ggosJ5ixFcv1FnCaC-em6jR_-tkyNqfMtUGWPp8HFADsWrpAz7XAzO9gUDPfOXJ2SFNfiCgydazaZQ8bFbcooyyXpXWz10gcZ52UOM3ydVHhg4Jy9joLRag9mq2RXBo7GVwZimoNQKuyUB-n6FimR0WixbnGHiR4KhedGVbK9oI42QKpjXQjDF7XYJm1RAyWWvt9u3GoixUurl9iqwvuHk_RsCa28oSi5lTSaiyzmiwgTg_MdvQ09FbNObaFc_jYvQ", "width": 3024}], "place_id": "ChIJi3afTBV0QQ0RdwUgtIHh874", "plus_code": {"compound_code": "JXGR+VP Collado Villalba, Spain", "global_code": "8CGQJXGR+VP"}, "rating": 4.5, "reference": "ChIJi3afTBV0QQ0RdwUgtIHh874", "scope": "GOOGLE", "types": ["convenience_store", "store", "point_of_interest", "food", "establishment"], "user_ratings_total": 2, "vicinity": "Calle Real, 2, Collado Villalba"}, {"business_status": "OPERATIONAL", "geometry": {"location": {"lat": 40.6276137, "lng": -4.007782799999999}, "viewport": {"northeast": {"lat": 40.6289786802915, "lng": -4.006479919708498}, "southwest": {"lat": 40.6262807197085, "lng": -4.009177880291502}}}, "icon": "https://maps.gstatic.com/mapfiles/place_api/icons/v1/png_71/shopping-71.png", "icon_background_color": "#4B96F3", "icon_mask_base_uri": "https://maps.gstatic.com/mapfiles/place_api/icons/v2/convenience_pinlet", "international_phone_number": "+34 918 51 85 37", "name": "Locutorio de alimentación donde Wayner & Jessi", "opening_hours": {"open_now": false}, "place_id": "ChIJ2c_hDPF1QQ0RT55VmghySDI", "plus_code": {"compound_code": "JXHR+2V Collado Villalba, Spain", "global_code": "8CGQJXHR+2V"}, "rating": 5, "reference": "ChIJ2c_hDPF1QQ0RT55VmghySDI", "scope": "GOOGLE", "types": ["convenience_store", "store", "point_of_interest", "food", "establishment"], "user_ratings_total": 2, "vicinity": "Calle Capitan Cortes, 10, Collado Villalba"}, {"business_status": "OPERATIONAL", "geometry": {"location": {"lat": 40.6282659, "lng": -4.0040597}, "viewport": {"northeast": {"lat": 40.6296461302915, "lng": -4.002670119708498}, "southwest": {"lat": 40.6269481697085, "lng": -4.005368080291502}}}, "icon": "https://maps.gstatic.com/mapfiles/place_api/icons/v1/png_71/shopping-71.png", "icon_background_color": "#4B96F3", "icon_mask_base_uri": "https://maps.gstatic.com/mapfiles/place_api/icons/v2/convenience_pinlet", "international_phone_number": "+34 918 50 65 59", "name": "Don Bacalao Villalba", "opening_hours": {"open_now": false}, "photos": [{"height": 1536, "html_attributions": ["<a href=\"https://maps.google.com/maps/contrib/105774413336378775364\">Don Bacalao Villalba</a>"], "photo_reference": "AWn5SU5CoNcAkLL8zyv80bCNy6dWToV36XjhF4vRkVqdBjpncB5wHCzeL2_xgMV7ZKH8NwTexMtvhFFbG00GSGB3G27WUlQFPmGq5aLZMoPayy6IHGvBdwmF7mqEA7AJ5CgbqAHEhTP0hnmkL-0C5R863dlPFoIWkeJibi1Vd1fND1oslWIZ8EWWh6-1dJVf8EZ3mHZKdY-HRPg72znEaLg3Tk3x78XofiAu4aEqvT9V6r0hLluwKQIbuaShkcrBLGCkR_ec0F0FNKUscdThKwGzKsUSvkIb72tegsm36k4gm8u-Vu6iu9GJvR4d5qoZPZWdB9SWhU8M4mE", "width": 2048}], "place_id": "ChIJ584KVxR0QQ0RziPOMw6zhI4", "plus_code": {"compound_code": "JXHW+89 Collado Villalba, Spain", "global_code": "8CGQJXHW+89"}, "rating": 4.2, "reference": "ChIJ584KVxR0QQ0RziPOMw6zhI4", "scope": "GOOGLE", "types": ["convenience_store", "meal_delivery", "store", "point_of_interest", "food", "establishment"], "user_ratings_total": 33, "vicinity": "Plaza los Belgas, 14, Collado Villalba"}, {"business_status": "OPERATIONAL", "geometry": {"location": {"lat": 40.6256675, "lng": -4.025590799999999}, "viewport": {"northeast": {"lat": 40.6268568302915, "lng": -4.024336869708497}, "southwest": {"lat": 40.6241588697085, "lng": -4.027034830291502}}}, "icon": "https://maps.gstatic.com/mapfiles/place_api/icons/v1/png_71/shopping-71.png", "icon_background_color": "#4B96F3", "icon_mask_base_uri": "https://maps.gstatic.com/mapfiles/place_api/icons/v2/convenience_pinlet", "international_phone_number": "+34 918 88 21 40", "name": "CASA DOMNITORUL", "opening_hours": {"open_now": false}, "photos": [{"height": 3024, "html_attributions": ["<a href=\"https://maps.google.com/maps/contrib/114924437000485467563\">JORGE DA SILVA</a>"], "photo_reference": "AWn5SU4uPpDk70bqIIVodzcnbSpTicCE-vWi1GPRgj3MdlMU3G6vXwYChxhG7Fvv_NTbabgRsFZDqZSpQEEDX7HxuS_6rR6V9zNseD7KxiaQXN2ozBUeqeMMG_k3okwG4IFoi6JvdGvuDSV2UB9Tsr4ghMqUGOEF4haPJznpci2ppdeV6r2KmI7g-_RKHOuuDpTxMVWc13ifC4mSkYU0agsThm2M6HVdsQKibJfmfjALdlEVV8VRKEQfClpkQ66K1EgaZJnKLVuDLw8UvgC1UlwZSimD7EEG79qgqH7DHS0Cdkqy8edyN6CmVFhaz0m2nVwOan08B7M4nPsYoIld0AhsX8K95XGIrzFu-kP_PblVXIECxc5nATcq-JeXR_AbjloKl81ftQrm5A6zXeSs455RzNaZTVgir3AzpYLFQmV9ZmXA8l3O0eGzaU7Qha0P1nVGFUlojhm_GwVUl6NH7JFJiL2pt_kJhQJeSt20mS0tYDsMvyi7JdICqgHzaDhfEMuYSXGob_WYr9KIYOdk_sUDbzcrrAwDW3uZR_L-c82sDJNozKHG5zatgFKNQS-wpMmBquOGbVr-9ZzF4OVvyqm4McMW9HaPyv7Pl_LQSU3P8HaIyJpzMiE7ufJrRNuq-jMUGbNnuYov", "width": 4032}], "place_id": "ChIJ7WXGqtt1QQ0RLEyeTogZFyI", "plus_code": {"compound_code": "JXGF+7Q Collado Villalba, Spain", "global_code": "8CGQJXGF+7Q"}, "rating": 3.2, "reference": "ChIJ7WXGqtt1QQ0RLEyeTogZFyI", "scope": "GOOGLE", "types": ["convenience_store", "store", "point_of_interest", "food", "establishment"], "user_ratings_total": 45, "vicinity": "Calle Azuela, 92, Collado Villalba"}, {"business_status": "OPERATIONAL", "geometry": {"location": {"lat": 40.6300944, "lng": -3.997614}, "viewport": {"northeast": {"lat": 40.6314277802915, "lng": -3.996403669708497}, "southwest": {"lat": 40.6287298197085, "lng": -3.999101630291502}}}, "icon": "https://maps.gstatic.com/mapfiles/place_api/icons/v1/png_71/shopping-71.png", "icon_background_color": "#4B96F3", "icon_mask_base_uri": "https://maps.gstatic.com/mapfiles/place_api/icons/v2/shoppingcart_pinlet", "international_phone_number": "+34 918 49 77 82", "name": "Supercor", "opening_hours": {"open_now": false}, "photos": [{"height": 1840, "html_attributions": ["<a href=\"https://maps.google.com/maps/contrib/100816726433436535477\">Hernán Ariel Nenna</a>"], "photo_reference": "AWn5SU7czAygj511wwVUM748n3dLR_wPZMGghjdK6OAhns3pKZo3GfpSoEbim7l257uisNdp5VwzHLs2G-L1AXa6tSOzI_lDMUMWsVRAQsnMjT3oH_rJBi7m0m-84i4oigsg7dl3NM0W98xlnkFMEh0cYabxc8TvnnMgJKc4azpADw8Q-Rw6HclBdmD_EZ0fNCDAaYKB0UxfwRq_whK27p7NcZWu6uNwqsDSFr1H7qWC1sjSiFsVTv4GCavpR7I0f1P3J_a8zHuSbZFLT6Jm9JBlxYYLXqSfpqAl78DTMQ161r6IK-h_v8PC5tsGYqolO_1xnB1Wy-pd-S6c8OOCEAgM3FEI3YtMLF_VvyGkmEorQuRF9AWd7yKg710wIGymR1bzmfm8EkLON63PHyezwhTtD1lDo-XjhrjX0XUggKBeJMyaztrOyG-USthnB7QuKtKGvPEYCwDWIzIxVoCCxNbq2-yYSKKfPMP0u2LQisNFD3CbgiaIKJeKesrVv9p8OjtkLVD5ITui2v3Li5Y4eGsm4-f9_KpJrJ8rL5vlAow375f4o6fXoHIjaKVVcCXxYOupZ5KNDYI5lSmsAQ8_Q06cIynemZ7w7uPMrCuNR-z2WhihZLUSjoQl36ebqCyk_ViouZ83oQ", "width": 3264}], "place_id": "ChIJd5xzaQB0QQ0RdoTESTC10Os", "plus_code": {"compound_code": "J2J2+2X Collado Villalba, Spain", "global_code": "8CGRJ2J2+2X"}, "rating": 4, "reference": "ChIJd5xzaQB0QQ0RdoTESTC10Os", "scope": "GOOGLE", "types": ["supermarket", "convenience_store", "grocery_or_supermarket", "bakery", "clothing_store", "store", "point_of_interest", "food", "establishment"], "user_ratings_total": 219, "vicinity": "Ctra A6, Vía de Servicio A-6, 23, km 38, Collado Villalba"}, {"business_status": "OPERATIONAL", "geometry": {"location": {"lat": 40.6304405, "lng": -4.0072146}, "viewport": {"northeast": {"lat": 40.6318347802915, "lng": -4.005936269708497}, "southwest": {"lat": 40.62913681970851, "lng": -4.008634230291502}}}, "icon": "https://maps.gstatic.com/mapfiles/place_api/icons/v1/png_71/shopping-71.png", "icon_background_color": "#4B96F3", "icon_mask_base_uri": "https://maps.gstatic.com/mapfiles/place_api/icons/v2/convenience_pinlet", "international_phone_number": "+34 628 33 58 29", "name": "TIENDA LATINA PERÚ BIAN'S", "opening_hours": {"open_now": false}, "photos": [{"height": 556, "html_attributions": ["<a href=\"https://maps.google.com/maps/contrib/117402229077380023781\">Karina C</a>"], "photo_reference": "AWn5SU6QmKscpZDUm3rwWgcrc2WgDgBZErF15SxYIl79kzXwstNAlgMiZhw7C8Xu1xAPMUJM0nqfc_8bKBjTavOYNEmHk_TwJ6vLS5mgbH1KZ8sLnKktk0tsX8xs8pDKhzKZAShumwiLCfdVMRY4LvEbtH1p2e-IvvJqJ8nBJ18-4-z0Oy9Qwj-bnDe0O5n9n5LAeg6-zpq0gqF7pUYZh35ngvMZYnBCcPZIJpY3sG_zFksRGMGLpKD5oSInqJziU9BqZ8LA1z8AG61vuGffKi_R-SFImc-ArbOjVJJR8gQgcgDF3BoPMGV1ge0ONOpuv7sm4ppE0v_0AiZrKD5uGm11ALh-tVt3ojrXPE73oP4e-gYl1_oEIz4ZNm6_o5EO8jQsf0PDHng9C33HjbQntLtRABDBzy8lQewTknocG3NH4yLU1OIYhEYRscKb9z1k6MiEaiV0sGPzbGXXYRX5T-sa3ftq1KGjvujQ-VeA0GzjtybmJsUV9K-MXrJCU_d0gWTe_pEEO4jo25rhaSYeaYr7PfsT5veywfnaw53BDyR6mDqmXF95kPVxfxEUz3WI_g4oRIMf8t_kzuj_1koBxEyz63wRmHMrFDe_IwW-z3rl-lLZcjD4K5qOsfqsuXbSWriOKsqQdA", "width": 720}], "place_id": "ChIJAcBTBw50QQ0Rh7J8FR3SPJg", "plus_code": {"compound_code": "JXJV+54 Collado Villalba, Spain", "global_code": "8CGQJXJV+54"}, "rating": 4.2, "reference": "ChIJAcBTBw50QQ0Rh7J8FR3SPJg", "scope": "GOOGLE", "types": ["convenience_store", "grocery_or_supermarket", "store", "restaurant", "point_of_interest", "food", "establishment"], "user_ratings_total": 50, "vicinity": "Calle la Venta, 12, Collado Villalba"}]