[{"business_status": "OPERATIONAL", "geometry": {"location": {"lat": 40.159508, "lng": -3.3706402}, "viewport": {"northeast": {"lat": 40.1607244802915, "lng": -3.369449419708498}, "southwest": {"lat": 40.1580265197085, "lng": -3.372147380291501}}}, "icon": "https://maps.gstatic.com/mapfiles/place_api/icons/v1/png_71/school-71.png", "icon_background_color": "#7B9EB0", "icon_mask_base_uri": "https://maps.gstatic.com/mapfiles/place_api/icons/v2/school_pinlet", "international_phone_number": "+34 918 93 71 47", "name": "CRA Los Olivos", "opening_hours": {"open_now": false}, "photos": [{"height": 2448, "html_attributions": ["<a href=\"https://maps.google.com/maps/contrib/110594003634868646269\">Peter Peter</a>"], "photo_reference": "AWn5SU7BiAZTWTlr9Er_0D75BO-Qd5o8RDQMMxhcZZ4wXyNkpCwy0dJ8Tf3g6aUZggKWuGz84VaSabwNqrxiKbqYn8G_xuY_ZMba1o2PakDisHJf9IbQx-trN2jvaLWp7bFTVT4SOwXBpzpmQxlnCWonk-zWkTW0aPfXqbioF3mKMf38XRG-FKvH20SpCjkVBwQy1NYz3SQvSkhGgLwXTvXqrx_M_icGW3jQurp9x1wdbOBixUe1Aq-O3kurnoA5RlNaNhrvc6NwgaF9yH5sQ1zSwUyMSABrArdudZUnpoEO2JaRaDPxu9_zqurU_dQtEEZSsSMMN3HeJuPOek3JL0fEpWJjJGDL-54W0_Rss-7gxZ3P9NucYHS9Ocylh4dbjtz-S7nqfvx4vI2SFopFMuX6mYhWhw6_mw3dDZE6W9v9uSem55Vx9pNJAQIY_dIaR5zjTTwSA2KrnXuzDo2jSxunpugtG6DQlNwq34G00mdi4s5Vcj2rCTYrAaDIsLrKgvqkdIHRZzz-AcVrZ1XavdVQ2dI9xcA2Mqg_W-UugxDU4FoM1ecRtywcaE3hoIZWk9eBvgiawLg3aR9hTOnSHJrIQ8p1yIc_jdA3eTVr4OBT3ipOUEMfjMCCh6q5aPhaAxh0qW-XEpiq", "width": 2448}], "place_id": "ChIJvSDru2dsQg0RRno1-1lnN2E", "plus_code": {"compound_code": "5J5H+RP Valdelaguna, Spain", "global_code": "8CGR5J5H+RP"}, "reference": "ChIJvSDru2dsQg0RRno1-1lnN2E", "scope": "GOOGLE", "types": ["primary_school", "point_of_interest", "school", "establishment"], "vicinity": "Calle de José Antonio, 13, Valdelaguna"}, {"business_status": "OPERATIONAL", "geometry": {"location": {"lat": 40.1611883, "lng": -3.3702283}, "viewport": {"northeast": {"lat": 40.16252683029149, "lng": -3.368856619708498}, "southwest": {"lat": 40.1598288697085, "lng": -3.371554580291502}}}, "icon": "https://maps.gstatic.com/mapfiles/place_api/icons/v1/png_71/school-71.png", "icon_background_color": "#7B9EB0", "icon_mask_base_uri": "https://maps.gstatic.com/mapfiles/place_api/icons/v2/school_pinlet", "international_phone_number": "+34 918 93 71 47", "name": "Centro Rural Agrupado Los Olivos (Valdelaguna-Valdaracete-Brea de Tajo-Villamanrique de Tajo)", "opening_hours": {"open_now": false}, "place_id": "ChIJo_5vOWZsQg0RQmckOHiR-x4", "plus_code": {"compound_code": "5J6H+FW Valdelaguna, Spain", "global_code": "8CGR5J6H+FW"}, "reference": "ChIJo_5vOWZsQg0RQmckOHiR-x4", "scope": "GOOGLE", "types": ["point_of_interest", "school", "establishment"], "vicinity": "Calle de José Antonio, 0, Valdelaguna"}, {"business_status": "OPERATIONAL", "geometry": {"location": {"lat": 40.1586906, "lng": -3.3707366}, "viewport": {"northeast": {"lat": 40.1601952302915, "lng": -3.369409469708498}, "southwest": {"lat": 40.1574972697085, "lng": -3.372107430291502}}}, "icon": "https://maps.gstatic.com/mapfiles/place_api/icons/v1/png_71/school-71.png", "icon_background_color": "#7B9EB0", "icon_mask_base_uri": "https://maps.gstatic.com/mapfiles/place_api/icons/v2/school_pinlet", "international_phone_number": "+34 918 93 74 51", "name": "Casa de Niños de Valdelaguna", "photos": [{"height": 1836, "html_attributions": ["<a href=\"https://maps.google.com/maps/contrib/102516050092853466662\">Casa de Niños de Valdelaguna</a>"], "photo_reference": "AWn5SU74dqJL0JMKkcMNq3ldMSggs5yf57xsKZK5n4GWFmzVjco4DHaUaRWTKKWtbqXbjHYuvrGv9q0XkU1jG5WnPYNbqRPe5uV1HrB3mWJ-2s-780EUTR0g5NR_3X7vI0cTVbx3_q7V5AyDdU6plrYZ-1qI3Nh8dl8Nk_6gSjH3N4mLvi8cr6yM0UOFbGOd21a6W6HCijcdtQpp2wIB_NhA0YJnbz5oBPx7QLfIZRSgdArio3NKrfKCIyJ2Ie9PX-j8TAGNSm7Jx-Fd20w25TkMmsO7ylVeA53gOBHDT05r88IxNiELh5UbUQX3HBvctHp6JpN7MfoUWhM", "width": 3264}], "place_id": "ChIJNYkG2WdsQg0Re-9lrZwjpIk", "plus_code": {"compound_code": "5J5H+FP Valdelaguna, Spain", "global_code": "8CGR5J5H+FP"}, "reference": "ChIJNYkG2WdsQg0Re-9lrZwjpIk", "scope": "GOOGLE", "types": ["point_of_interest", "school", "establishment"], "vicinity": "Calle de los Colegios, 2, Valdelaguna"}, {"business_status": "OPERATIONAL", "geometry": {"location": {"lat": 40.163936, "lng": -3.3587607}, "viewport": {"northeast": {"lat": 40.1653202802915, "lng": -3.357999319708498}, "southwest": {"lat": 40.1626223197085, "lng": -3.360697280291502}}}, "icon": "https://maps.gstatic.com/mapfiles/place_api/icons/v1/png_71/school-71.png", "icon_background_color": "#7B9EB0", "icon_mask_base_uri": "https://maps.gstatic.com/mapfiles/place_api/icons/v2/school_pinlet", "name": "Ecofinca Valdelaguna", "place_id": "ChIJx67gwhptQg0RRJSLCfGac1k", "plus_code": {"compound_code": "5J7R+HF Valdelaguna, Spain", "global_code": "8CGR5J7R+HF"}, "reference": "ChIJx67gwhptQg0RRJSLCfGac1k", "scope": "GOOGLE", "types": ["point_of_interest", "school", "establishment"], "vicinity": "Diseminado, 19, Valdelaguna"}]