[{"geometry": {"location": {"lat": 40.3453499, "lng": -4.1021346}, "viewport": {"northeast": {"lat": 40.34910087967738, "lng": -4.095051312176264}, "southwest": {"lat": 40.34236647172148, "lng": -4.108264103867247}}}, "icon": "https://maps.gstatic.com/mapfiles/place_api/icons/v1/png_71/geocode-71.png", "icon_background_color": "#7B9EB0", "icon_mask_base_uri": "https://maps.gstatic.com/mapfiles/place_api/icons/v2/generic_pinlet", "name": "Villanueva de Perales", "photos": [{"height": 3024, "html_attributions": ["<a href=\"https://maps.google.com/maps/contrib/116765567352143167279\">Emilio Jose Barrios Juarez</a>"], "photo_reference": "AWn5SU6RCoJ68ZYwbcSgmtqWuCXke-w7td3zYuIQ9zwx5tdtWW__U0tFznp3vkHs2G95IzJ514yYAz2-XOkShI4ldkkwNFuY1hZvmOFd8g51aBC4crjp8iJcn0FUxUujwSaCvzNdZf4I28M587usBN_LiSacfsygp58HtM7NFGRSr2Su73xAE5rypx7OiFr9JyobLp5HVUmM5AX0FWyZCpfAikoufQMTYJyYgjAjMAAlHBoA2o2THnzzv8dnJ6F9q7h6yD5vK4EtVuElxWKADXyRAqfruSF1LUR3LSqULD-y2DKGOfcuDGUFPOKCBQd9_q2jhfOCI7Luqett3ZAkxS87XlZvqeZUTvPgfTZ-SjtO5ius-Wmm2wharTXkePpKkz5zM7TKfw0YwpzNFX9T2VCtXgfFO0CZRdC2L142TT6gB1YXMVHQNWeo9fOVZ4boeJjdmQEaHQ3LeCzBTqpB_acnGK4CxY3dTuWg8X3z9WKlb1gTm8KlH40WJTHPAZ6tw7euTzGf77OWIhR-lKCiYfl-A5kv0NKFDkD_kn_6ckTVdN9TE35QFuWldcvZrM5UPmTlWzj33JlOmxBUuzTS1qhwHTgzrwgCq3vvEzqIaqNKLH2kD5VkfwUdndOhPJYk8gBp7yLcMA", "width": 4032}], "place_id": "ChIJxdolj7C9QQ0RRxxl-mCMrPE", "reference": "ChIJxdolj7C9QQ0RRxxl-mCMrPE", "scope": "GOOGLE", "types": ["locality", "political"], "vicinity": "Villanueva de Perales"}, {"business_status": "OPERATIONAL", "geometry": {"location": {"lat": 40.34542479999999, "lng": -4.1279469}, "viewport": {"northeast": {"lat": 40.34649693029149, "lng": -4.126666719708498}, "southwest": {"lat": 40.34379896970849, "lng": -4.129364680291502}}}, "icon": "https://maps.gstatic.com/mapfiles/place_api/icons/v1/png_71/school-71.png", "icon_background_color": "#7B9EB0", "icon_mask_base_uri": "https://maps.gstatic.com/mapfiles/place_api/icons/v2/school_pinlet", "international_phone_number": "+34 918 13 75 21", "name": "Colegio Público San Miguel", "place_id": "ChIJzbook0K8QQ0Rwj9Vc0o5ac0", "plus_code": {"compound_code": "8VWC+5R Villamantilla, Spain", "global_code": "8CGQ8VWC+5R"}, "reference": "ChIJzbook0K8QQ0Rwj9Vc0o5ac0", "scope": "GOOGLE", "types": ["school", "point_of_interest", "establishment"], "vicinity": "Calle de las Viñas, 9, Villamantilla"}, {"business_status": "OPERATIONAL", "geometry": {"location": {"lat": 40.3458788, "lng": -4.1300913}, "viewport": {"northeast": {"lat": 40.34723728029149, "lng": -4.128778719708498}, "southwest": {"lat": 40.3445393197085, "lng": -4.131476680291502}}}, "icon": "https://maps.gstatic.com/mapfiles/place_api/icons/v1/png_71/generic_business-71.png", "icon_background_color": "#7B9EB0", "icon_mask_base_uri": "https://maps.gstatic.com/mapfiles/place_api/icons/v2/generic_pinlet", "international_phone_number": "+34 918 13 72 28", "name": "TALLERES BORDAS S.L.", "opening_hours": {"open_now": false}, "place_id": "ChIJmYKG30G8QQ0RAC0oo7ZNy10", "plus_code": {"compound_code": "8VW9+9X Villamantilla, Spain", "global_code": "8CGQ8VW9+9X"}, "rating": 4.7, "reference": "ChIJmYKG30G8QQ0RAC0oo7ZNy10", "scope": "GOOGLE", "types": ["locksmith", "store", "point_of_interest", "establishment"], "user_ratings_total": 6, "vicinity": "Carretera de San Martín de Valdeiglesias nº 6, Villamantilla"}, {"business_status": "OPERATIONAL", "geometry": {"location": {"lat": 40.3387605, "lng": -4.129603099999999}, "viewport": {"northeast": {"lat": 40.3400589802915, "lng": -4.128163919708497}, "southwest": {"lat": 40.3373610197085, "lng": -4.130861880291501}}}, "icon": "https://maps.gstatic.com/mapfiles/place_api/icons/v1/png_71/worship_general-71.png", "icon_background_color": "#7B9EB0", "icon_mask_base_uri": "https://maps.gstatic.com/mapfiles/place_api/icons/v2/worship_christian_pinlet", "international_phone_number": "+34 918 13 74 06", "name": "Iglesia de San Miguel Arcángel", "photos": [{"height": 4000, "html_attributions": ["<a href=\"https://maps.google.com/maps/contrib/101321764474141234821\">ricardo fernández del Blanco</a>"], "photo_reference": "AWn5SU7KfO6IU4ezw7Z4OwnP8gVcRdBRpw7vr9uTpGN5obF_1SGAN0hdfrm4MCNhErOtW51v_IT91nMx7gGrQZg0GgsZVPMeCU87x5VFpwDSziE1JF9iW0J84lDJWDSS-FaOaNpVQ5NDCW77jA0sdeUvGmOcvOGWKa4xkHVwhlUyBhEg7ywWnY_euuPXBhFRY35EnIYQg4aXUNhjQzpDhepJylVAyYBL_wDPa7WFUGFbyP9DfZHbD1qM9yRZhq8lDYoeKCrtq3IKCSFGIFYiIgXwxk9KeuILglmTdFvUYaLZcENekFgyMdLwZnJHVu5hrTe44-w5S9zQlg3P1r7TjddutM2VnOrSRDJRUahN1kQl2n11fTr2kWQ6GB1NUlVwQo-nHeD1Yl6FC8iCY2ULiEs9iPJr9bUu028zZ34el84KZ2q8HsaITC_iRpqrQz_6lxGD-GYQHjDCSFzbNTBKZn-17REsvKGnpUG3RZ7T5VDLdChWKedSKqxsCgTgHQGWeDyE0emf2_MKdzZPdljr-1hncJmvcJWvorqcyVv065emMOiGKazrEyhBungLljto-XkigH4hN_O7hcgk3uu2K7VRWWUpIYkossVqJTOW7oAlXuJPyXlVj_3BHn3LadVWhWLXIucbSAtM", "width": 1800}], "place_id": "ChIJC2EQQkC8QQ0R78-pE8HFTvc", "plus_code": {"compound_code": "8VQC+G5 Villamantilla, Spain", "global_code": "8CGQ8VQC+G5"}, "rating": 4.7, "reference": "ChIJC2EQQkC8QQ0R78-pE8HFTvc", "scope": "GOOGLE", "types": ["church", "place_of_worship", "point_of_interest", "establishment"], "user_ratings_total": 21, "vicinity": "Calle Antonino Rofazza, 15, Villamantilla"}, {"business_status": "OPERATIONAL", "geometry": {"location": {"lat": 40.34049629999999, "lng": -4.129755799999999}, "viewport": {"northeast": {"lat": 40.3418646802915, "lng": -4.128482669708498}, "southwest": {"lat": 40.3391667197085, "lng": -4.131180630291502}}}, "icon": "https://maps.gstatic.com/mapfiles/place_api/icons/v1/png_71/generic_business-71.png", "icon_background_color": "#7B9EB0", "icon_mask_base_uri": "https://maps.gstatic.com/mapfiles/place_api/icons/v2/generic_pinlet", "name": "FORMACIONES CONSTRUCTIVAS VILLAMANTA, S.L.", "opening_hours": {"open_now": false}, "photos": [{"height": 3000, "html_attributions": ["<a href=\"https://maps.google.com/maps/contrib/104992947982124478038\">FORMACIONES CONSTRUCTIVAS VILLAMANTA, S.L.</a>"], "photo_reference": "AWn5SU4ipzWtDOHHKwc8fO72bi9nCsso_SrL0z_A8nA-1AJG93PcyHjaaRT2NdkqtOyfNxQkWnVaCMTQVJ6jdD_Kn2rHhTWXiYKH353EsSmbvQd-NBQ4Lz2fOSC5LFwqRF3D_jmlFUpIH3XhTXUpWCndLj2_Vc8z-9I2eP186FuKwJ1TPqGbOyfk91NobGl7Wre90flYD-mAVQc_en2RGca2fwRARWpaj8R9Bo8UjUOtA9fFY3zYwssLd9xZYyxPBZ8GAtUWGEXFj4JARFvsgfnAm5kcT9bnCClHBwLBWD5zbusVN-XP39woGCVENqH3YGVwCNwwUcYzU8k", "width": 4000}], "place_id": "ChIJ9WJKTWC-QQ0RwN_P9Vwq-vg", "plus_code": {"compound_code": "8VRC+53 Villamantilla, Spain", "global_code": "8CGQ8VRC+53"}, "reference": "ChIJ9WJKTWC-QQ0RwN_P9Vwq-vg", "scope": "GOOGLE", "types": ["general_contractor", "point_of_interest", "establishment"], "vicinity": "Calle San Miguel, 4, Villamantilla"}, {"business_status": "OPERATIONAL", "geometry": {"location": {"lat": 40.3445249, "lng": -4.1283219}, "viewport": {"northeast": {"lat": 40.3458368302915, "lng": -4.126903519708498}, "southwest": {"lat": 40.3431388697085, "lng": -4.129601480291503}}}, "icon": "https://maps.gstatic.com/mapfiles/place_api/icons/v1/png_71/shopping-71.png", "icon_background_color": "#4B96F3", "icon_mask_base_uri": "https://maps.gstatic.com/mapfiles/place_api/icons/v2/shopping_pinlet", "international_phone_number": "+34 918 13 73 02", "name": "Confecciones Maycoll", "photos": [{"height": 1192, "html_attributions": ["<a href=\"https://maps.google.com/maps/contrib/114127913772232287390\">Confecciones Maycoll</a>"], "photo_reference": "AWn5SU6XIcg8I5e85d7kKPJO__AFHFb55VwOXPhNTbvx2ChSYdFPB6SygQKfMcGLRZRoxOBJsYb3jq2fQsViHrcQZKfOp8w1LFjkgJMGS2nvX72CDtQ1O2L001L6hVoaBerIOLgvwIanW6SDA-Yz-WoQf_2qwdXtBYdH8VNUw-ZsIgJ1xW7mIqmMk_sgsZZRr-Om5UfpgFdBx0qeUHW4aMeWGvlN5ugAGKDdHbFtuV5bogq3uMzfd1aIu9BERO4RtRrnTJ7JRm3urCo6NJO5V6kJ9Pn0PaXZd5ego_w35pWRXsF5oZg3Ao9uHQr5GKrzYVaJPVG8QroJRrc", "width": 2120}], "place_id": "ChIJkWcyqmq8QQ0RknMdBXw48nA", "plus_code": {"compound_code": "8VVC+RM Villamantilla, Spain", "global_code": "8CGQ8VVC+RM"}, "rating": 4.2, "reference": "ChIJkWcyqmq8QQ0RknMdBXw48nA", "scope": "GOOGLE", "types": ["clothing_store", "store", "point_of_interest", "establishment"], "user_ratings_total": 16, "vicinity": "Calle de los Cedros, 1, Villamantilla"}, {"business_status": "OPERATIONAL", "geometry": {"location": {"lat": 40.338215, "lng": -4.1305991}, "viewport": {"northeast": {"lat": 40.3394394302915, "lng": -4.129474819708498}, "southwest": {"lat": 40.3367414697085, "lng": -4.132172780291502}}}, "icon": "https://maps.gstatic.com/mapfiles/place_api/icons/v1/png_71/generic_business-71.png", "icon_background_color": "#7B9EB0", "icon_mask_base_uri": "https://maps.gstatic.com/mapfiles/place_api/icons/v2/generic_pinlet", "international_phone_number": "+34 648 42 47 53", "name": "MULTIVALLE SL", "place_id": "ChIJISMLHEC8QQ0RWub4AH-yrt0", "plus_code": {"compound_code": "8VQ9+7Q Villamantilla, Spain", "global_code": "8CGQ8VQ9+7Q"}, "rating": 4, "reference": "ChIJISMLHEC8QQ0RWub4AH-yrt0", "scope": "GOOGLE", "types": ["point_of_interest", "establishment"], "user_ratings_total": 3, "vicinity": "Calle General Yagüe, 5, Villamantilla"}, {"business_status": "OPERATIONAL", "geometry": {"location": {"lat": 40.3380569, "lng": -4.130836}, "viewport": {"northeast": {"lat": 40.3393539302915, "lng": -4.129444369708498}, "southwest": {"lat": 40.3366559697085, "lng": -4.132142330291502}}}, "icon": "https://maps.gstatic.com/mapfiles/place_api/icons/v1/png_71/civic_building-71.png", "icon_background_color": "#7B9EB0", "icon_mask_base_uri": "https://maps.gstatic.com/mapfiles/place_api/icons/v2/civic-bldg_pinlet", "international_phone_number": "+34 918 13 72 95", "name": "Villamantilla Town Hall", "opening_hours": {"open_now": false}, "photos": [{"height": 1920, "html_attributions": ["<a href=\"https://maps.google.com/maps/contrib/114701663474349976132\">OjeiEye</a>"], "photo_reference": "AWn5SU5gxjZpx9xU9CicLmt83rQ6238AJ8sGK9Uys61ekft8YuZaqQrFS1VRkjC1iTvBGX5-Mnn7cQ586Yd05HmwJin0u1jPp4YSagTBn8BZN9ALmrpctMovFFOGpOk5ni6_1qqHekHf3wFBh687H3zUaFNdhy557topJmQ_EJHfa6A0irRnfAxX4TSYV3pq2i6wsufqR81BRkPx_D49YZ1QTqDaTBRK59Vep5P4fv3N0vdMKqj1pWeqpxr3LNC_lZ0HhnOGQPNJAP-FPmPgREV4QKol9evCe1KJXCl2NEPiFIhpvdNYAaDo55r-OtzQmjiJs22C8Z8QI_heuyRhRV3-iXU1cjyWUoDRsrrkyoRaDoVlcpyFDm7aHao2rRaTSCROrXOD62QWBrwWrJx4WyGhsfdELODpm4Tv2NoDTAtaENLUY477olA8v9SI-YBb673NjFSOE8r_wHbYqZWPBTTfHlBGBgcAiAG2sNO2NL_uRlvTiVQoYiSx7GevF0TCPdUX8uwk_cVliWkbD-L3cCh8l9Ox0fVWDVuxAY4u1sqS4T9gFUZetNgsLOR8wj4xnG0HNvZUil0Hwpr2rbqRX70fRJLDnRV8qLcwWTnd6ngyvQeEt8S3a5nscMuYeX7qGYEG_QhFZDZSyO5gK2EBzRuf6YxcZwU", "width": 2560}], "place_id": "ChIJL3MkHUC8QQ0RHAP_vCj7G9s", "plus_code": {"compound_code": "8VQ9+6M Villamantilla, Spain", "global_code": "8CGQ8VQ9+6M"}, "rating": 3.9, "reference": "ChIJL3MkHUC8QQ0RHAP_vCj7G9s", "scope": "GOOGLE", "types": ["city_hall", "local_government_office", "point_of_interest", "establishment"], "user_ratings_total": 27, "vicinity": "Plaza de España, 1, Villamantilla"}, {"business_status": "OPERATIONAL", "geometry": {"location": {"lat": 40.3371564, "lng": -4.1297207}, "viewport": {"northeast": {"lat": 40.3384753302915, "lng": -4.128544819708498}, "southwest": {"lat": 40.33577736970851, "lng": -4.131242780291503}}}, "icon": "https://maps.gstatic.com/mapfiles/place_api/icons/v1/png_71/generic_business-71.png", "icon_background_color": "#7B9EB0", "icon_mask_base_uri": "https://maps.gstatic.com/mapfiles/place_api/icons/v2/generic_pinlet", "name": "Centro Cultural", "opening_hours": {"open_now": false}, "photos": [{"height": 4032, "html_attributions": ["<a href=\"https://maps.google.com/maps/contrib/114109886163672594678\">Ruben Mora</a>"], "photo_reference": "AWn5SU67h4xBjJSfUbHHoEY7XYVPR_PpWNBMecRgjrBJNtMT-UgByZ00KCBzLcTblqb-bLL2nmcG9Cn4Kd6RcIPhpjDU15JtsnapSU4yqcbt4nNtqLOxMd3r16ZewvBBrjQk_m5rskXDnF2CZyNNOHZyIu6_5nxLHseB7KKad9fcKW8ndP8mpXCZL-yI3JklEcc0VgRxrKcsoXXdpApjjo_0BU57VLDGdeJG7fwldAfSp3kyiOpST7gCS3RA-DzwD_MJW64CFuwZ8XoOR_FgVXzKPPnU0j2SGTiF3PNmhXPSvZJ8lzWzmhEGEmEdELQTCIuFJ0Llgtuj2yLzfuD8PrKBWvZssnosZP5sGim8kEzP5qMwcsBGfSsby77sOqIp6JmUj1NmqSywcBVmHlc1pNi_albm-LCSNNFVuLhytpr3FX03wfqqrSflt1lHHOHNmVJx-X95NeHHrsXDnGZH5zu0HfkbZ0q-cIlf9FAqsQhnOgeu3j6JqZiv69QWHbnxE47fa5O4MsVZII0XfMseGvwhrp2KQ2vrMv67Q2UbBsuZUBiB3LFqKpPOKslVH03d0MxNYiQJvAodE4v8uhGFeYwpkxBqSvOiJTs4cCP43BTIASbIsIoC_PLbZrKlWD6c3P8K", "width": 1816}], "place_id": "ChIJYxzp9D-8QQ0RGX60gYzVWH8", "plus_code": {"compound_code": "8VPC+V4 Villamantilla, Spain", "global_code": "8CGQ8VPC+V4"}, "rating": 3.9, "reference": "ChIJYxzp9D-8QQ0RGX60gYzVWH8", "scope": "GOOGLE", "types": ["point_of_interest", "establishment"], "user_ratings_total": 25, "vicinity": "Calle de la Cultura, 1, Villamantilla"}, {"business_status": "OPERATIONAL", "geometry": {"location": {"lat": 40.3368925, "lng": -4.1300825}, "viewport": {"northeast": {"lat": 40.3382540802915, "lng": -4.128684619708498}, "southwest": {"lat": 40.33555611970851, "lng": -4.131382580291502}}}, "icon": "https://maps.gstatic.com/mapfiles/place_api/icons/v1/png_71/generic_business-71.png", "icon_background_color": "#7B9EB0", "icon_mask_base_uri": "https://maps.gstatic.com/mapfiles/place_api/icons/v2/generic_pinlet", "international_phone_number": "+34 918 13 71 92", "name": "Comunidad Autónoma de Madrid", "place_id": "ChIJk-0_8T-8QQ0RTNvS6HRefL0", "plus_code": {"compound_code": "8VP9+QX Villamantilla, Spain", "global_code": "8CGQ8VP9+QX"}, "rating": 5, "reference": "ChIJk-0_8T-8QQ0RTNvS6HRefL0", "scope": "GOOGLE", "types": ["general_contractor", "point_of_interest", "establishment"], "user_ratings_total": 1, "vicinity": "Calle General Yagüe, 16, Villamantilla"}, {"business_status": "OPERATIONAL", "geometry": {"location": {"lat": 40.33684969999999, "lng": -4.1301847}, "viewport": {"northeast": {"lat": 40.3382253302915, "lng": -4.128732469708498}, "southwest": {"lat": 40.3355273697085, "lng": -4.131430430291503}}}, "icon": "https://maps.gstatic.com/mapfiles/place_api/icons/v1/png_71/hospital-71.png", "icon_background_color": "#F88181", "icon_mask_base_uri": "https://maps.gstatic.com/mapfiles/place_api/icons/v2/hospital-H_pinlet", "international_phone_number": "+34 918 13 72 76", "name": "Clinic", "opening_hours": {"open_now": false}, "photos": [{"height": 4032, "html_attributions": ["<a href=\"https://maps.google.com/maps/contrib/102243648526755885308\">Ana Fuejo</a>"], "photo_reference": "AWn5SU52-afS7R1McK3iQoAsO8QmIVriUwadr8RwZhPzY8TiPtufqQYImR8wm4LSCExnN6kSd8CLFPBish2woj5DHA4NruILoV85CeHPlCS8b4JudoziS347Kjvt2JH13nPUTpsEfog5vJnYx_15tJxMAuGPT9zi0h9208UWfYH34jyNL1xhFs4jsChg3hf_dKoKuOCzGe8ybKnn8TPBmy-YNjDflC_pBPGlWsuoYBkqSoGPnILzcy-X_mY8ShbkdPUSB26ijuMP4Fex5UpwLUyNklXn39ZosAnHsw0DvFlfpNbFUBNti5ZTOD7MeQ7d9ciK3hivzRrwfObF9MhW3tgy03jG0eOZXfyihSyz8UuXCHzOp3q5zCgiub-Jwehw9D6i9ZIsLNj3kuZD0jcxinBhp3MEyf5jXIOg8JImu58yAjPtGOo7ByFIeS_nG4MruIiftOmwjyf0XQ48f_a8HHb7Q3aMqexZ_Tu0R7oPRkHxrQsPn_7h7PeD-aZEebilK5Lr0y58TnTpD3J3Q-DT-23WPkvEMIzgtgXMxDSKVZtcnPCN87BV2JoZuNX917UJ7y3pb7imZZUdBlje_sb5j01CC9uW3Aketd1XoloFLjz6rcJ3U13HYKG3dy1hcRW-MLxDXVAgcDIP", "width": 1816}], "place_id": "ChIJHfBd8D-8QQ0RnYbPcsQeywc", "plus_code": {"compound_code": "8VP9+PW Villamantilla, Spain", "global_code": "8CGQ8VP9+PW"}, "rating": 3, "reference": "ChIJHfBd8D-8QQ0RnYbPcsQeywc", "scope": "GOOGLE", "types": ["hospital", "health", "point_of_interest", "establishment"], "user_ratings_total": 6, "vicinity": "Calle General Yagüe, 16, Villamantilla"}, {"business_status": "OPERATIONAL", "geometry": {"location": {"lat": 40.33644839999999, "lng": -4.1308045}, "viewport": {"northeast": {"lat": 40.3378595302915, "lng": -4.129443719708498}, "southwest": {"lat": 40.3351615697085, "lng": -4.132141680291503}}}, "icon": "https://maps.gstatic.com/mapfiles/place_api/icons/v1/png_71/restaurant-71.png", "icon_background_color": "#FF9E67", "icon_mask_base_uri": "https://maps.gstatic.com/mapfiles/place_api/icons/v2/restaurant_pinlet", "international_phone_number": "+34 628 44 86 07", "name": "La Cueva de Villamantilla", "opening_hours": {"open_now": false}, "photos": [{"height": 4608, "html_attributions": ["<a href=\"https://maps.google.com/maps/contrib/108391191081982370326\">Antonio Rodríguez Gata</a>"], "photo_reference": "AWn5SU4rYlIm1kcdrwyAaNb0sd0UtxNULJv2jfV_Lp4hS1CHKEhn7IWadEyxXrAmDFdCoG8p9YZtkuDpSk324qDq4Hks0gyqdegnTJeQG6sD-PWatq0ljiPYd3XECSmVJuRz8Z0yUfWpj0Tvm_x193PdobFAZUTlEGanjAjeHOVb6c64jVUro_lAh75JtDg2fpegPhGUuTIPqZCB91GkMYy42dSv2qcWBIcT7raGBPnkMmdphnoRwNl73k1ZDhvX2wXmPm0QZIvdbsWU5jdKjF0uisEYzOfLP2-_Mebg6b4Uv-g1iTQrIbfeXfEXtkcTSAju247Lh3NZw8tkBUakuqmZ0sbA5pRDpbY0AxBr56Fck_rDwjsM_LwIY272bI9A9kVzHNJPDLdUoJiBAKceEXVyAgCMBgDihygNUDRHDdz87sce_PEswjVx4XxUL1zW0wrxzhAKBJz71cl04WIz4wj5ngUQ1MhxbnZJW4Fl2YubjwP0Qm4FdcqeXDTrITRPepHsd1BQkEx2RfBXn3YwxAiYnIbZcSv52iG0PMBzNf0HVv9nk2U_4H4LWd_PoRYbYqDYvTG7FRQQXvmHopVAwCHf97n0FgoIU1BUPD2476HzhKiCK8QAjLO1BeW1m1FnPEZuzMbJMmvR", "width": 3456}], "place_id": "ChIJLy4T_T-8QQ0RSlUTj8U385o", "plus_code": {"compound_code": "8VP9+HM Villamantilla, Spain", "global_code": "8CGQ8VP9+HM"}, "price_level": 2, "rating": 4.4, "reference": "ChIJLy4T_T-8QQ0RSlUTj8U385o", "scope": "GOOGLE", "types": ["restaurant", "point_of_interest", "food", "establishment"], "user_ratings_total": 801, "vicinity": "Paseo San Antonio, Villamantilla"}, {"business_status": "OPERATIONAL", "geometry": {"location": {"lat": 40.3444213, "lng": -4.1283721}, "viewport": {"northeast": {"lat": 40.34574128029151, "lng": -4.126968819708498}, "southwest": {"lat": 40.34304331970851, "lng": -4.129666780291503}}}, "icon": "https://maps.gstatic.com/mapfiles/place_api/icons/v1/png_71/generic_business-71.png", "icon_background_color": "#7B9EB0", "icon_mask_base_uri": "https://maps.gstatic.com/mapfiles/place_api/icons/v2/generic_pinlet", "name": "Pistas De Tenis Y Pádel De Villamantilla", "photos": [{"height": 2336, "html_attributions": ["<a href=\"https://maps.google.com/maps/contrib/101881490061674311221\">Javier Sevilla</a>"], "photo_reference": "AWn5SU7Zkw8zWgfAIQrJVyDuWcqiBT4j8bknsVbxIUr4Qr4ht8vn44r-0cpvjLWNh5PRskXewa2N58-jWAKpUNQmASJiwiuqhxf2IVrToTSmMTTiilGHe7qwG2v4-h4X7EX8hmxEFa3ZT_XmWNDwrITdBlkZ9PglovmDDosjy3PBbWNurtsnlqtB25lTq5xTk89Mq6VdfQWiVH1x6jlUmYjGI9gkhh9SN1oUEuDcOScTDVsT9jSH4AXVtbJxeX-pZOfXHHI3RWajEJwvvDMrTEIQvBnbY3vHXlfsVpg_-eml_g2BHXfm4ontIlXv_vYMeSf5rM_j8vwUbj2z5pvK5oNZcEEp0SVFRD0crzaf0d0BLNJAQMfihhFBKcPcjPD8snIf5gtuW7VrcqpzCXpYpTsXi3sL1mWBj32NAP-Y01Dx664vfp8YG1IUeLvsZreEWiVRSWTJcjAmgatRAqJREM4Kw1umF7GdGxR0iDWRbYhSLdNvOATlshVCAnG7ELwq5j2EdNyU3jRP4DaTrl8o-SyQy2gmlQXaNMWAvtrySFoeTf2J55Ey_feFtIGTbk8I7QLLeW7k2rSsJ-ySi10f6Oa2F3BSgKL4m3GiNiNBCI2x_JCzgk88qPOjmpausQZJyg82X9mY1A", "width": 4160}], "place_id": "ChIJRTJur0O8QQ0R9PsSocymwxg", "plus_code": {"compound_code": "8VVC+QM Villamantilla, Spain", "global_code": "8CGQ8VVC+QM"}, "rating": 4.1, "reference": "ChIJRTJur0O8QQ0R9PsSocymwxg", "scope": "GOOGLE", "types": ["point_of_interest", "establishment"], "user_ratings_total": 37, "vicinity": "Calle de los Cedros, 2, Villamantilla"}, {"business_status": "OPERATIONAL", "geometry": {"location": {"lat": 40.345774, "lng": -4.1291171}, "viewport": {"northeast": {"lat": 40.34704798029151, "lng": -4.127831819708498}, "southwest": {"lat": 40.34435001970851, "lng": -4.130529780291503}}}, "icon": "https://maps.gstatic.com/mapfiles/place_api/icons/v1/png_71/generic_business-71.png", "icon_background_color": "#7B9EB0", "icon_mask_base_uri": "https://maps.gstatic.com/mapfiles/place_api/icons/v2/generic_pinlet", "international_phone_number": "+34 695 02 95 09", "name": "ARTIPACK S.L.", "photos": [{"height": 654, "html_attributions": ["<a href=\"https://maps.google.com/maps/contrib/105258032516717766229\">ARTIPACK S.L.</a>"], "photo_reference": "AWn5SU4W2lOQ7fSXa7UUBCB_N_L4glfZVtHAyHAzlFxrQj6quFfdwADERjiXW0DFrQoe_9hR7NmvysjePW8pVSshGWT15infHlBXJ9Vl5E2AxaWhGs8G-UgTXMNudpjX29Mk1qWsM7MR5dvxw2m5NhlZ3-ykB5Hj9mmQ0TyW6inj8itWLNJ9meUYONweyL97KydIXvaC16i8IgyfEOh9Dp2mB_70Zkhg2jDZGSph5tIFchYzFgaBBfxYVHbeR_tQvlC24DALHGfQ45XRoTBmgJENJK8E1b4WqO5shKQw2nkb6_jP-DRAdS4fQvUuWeifMV_5QbfS9FdyHwQ", "width": 1277}], "place_id": "ChIJfRMB-hspQg0RSd1u-x_xDzw", "plus_code": {"compound_code": "8VWC+89 Villamantilla, Spain", "global_code": "8CGQ8VWC+89"}, "rating": 5, "reference": "ChIJfRMB-hspQg0RSd1u-x_xDzw", "scope": "GOOGLE", "types": ["point_of_interest", "establishment"], "user_ratings_total": 1, "vicinity": "Calle de los Cedros, 5, Villamantilla"}, {"business_status": "OPERATIONAL", "geometry": {"location": {"lat": 40.3460001, "lng": -4.103356000000001}, "viewport": {"northeast": {"lat": 40.3473178802915, "lng": -4.102012869708497}, "southwest": {"lat": 40.3446199197085, "lng": -4.104710830291502}}}, "icon": "https://maps.gstatic.com/mapfiles/place_api/icons/v1/png_71/generic_business-71.png", "icon_background_color": "#7B9EB0", "icon_mask_base_uri": "https://maps.gstatic.com/mapfiles/place_api/icons/v2/generic_pinlet", "name": "Asociación la Chaparra", "opening_hours": {"open_now": false}, "place_id": "ChIJD0URqLG9QQ0RWhbfa0-T_kA", "plus_code": {"compound_code": "8VWW+CM Villanueva de Perales, Spain", "global_code": "8CGQ8VWW+CM"}, "rating": 5, "reference": "ChIJD0URqLG9QQ0RWhbfa0-T_kA", "scope": "GOOGLE", "types": ["point_of_interest", "establishment"], "user_ratings_total": 1, "vicinity": "Calle San Antonio, Villanueva de Perales"}, {"business_status": "OPERATIONAL", "geometry": {"location": {"lat": 40.34607999999999, "lng": -4.10307}, "viewport": {"northeast": {"lat": 40.3473764302915, "lng": -4.101718769708497}, "southwest": {"lat": 40.3446784697085, "lng": -4.104416730291502}}}, "icon": "https://maps.gstatic.com/mapfiles/place_api/icons/v1/png_71/generic_business-71.png", "icon_background_color": "#7B9EB0", "icon_mask_base_uri": "https://maps.gstatic.com/mapfiles/place_api/icons/v2/generic_pinlet", "international_phone_number": "+34 918 13 77 04", "name": "Excavaciones Serpa", "opening_hours": {"open_now": false}, "photos": [{"height": 1536, "html_attributions": ["<a href=\"https://maps.google.com/maps/contrib/118281181838325939824\">Excavaciones Serpa</a>"], "photo_reference": "AWn5SU4nGNXAC8wF1QVCUGOk8jBws0fxHzWew_kgh21KuKWrGI0HEggBMeMWk_HfaiVox8PkfdxKxxH_HQmW_HNx6AJ0o0eK3fi-bNsIFe3cY6zh7imfKYgGTeo6sFIzy0eYgWnyfxSKtmXK8YZL_BzlL8g-UQafoDzeJNHA64CtHTN5QpItgEVi1gURoOYVjuA_Tnq2Qc5TKqRE6rG3sIiUmy4TCbw_9XgXh9q7qk7JbqzsD9kjD9aTjkCHF_SF1CsrkD_VUbXCd-EUCkOHJPtphPWKoY59OMXyKvBUjMyFnlD5iWHn_bjAQBSATLQlpHSCh3A7KdHHbXI", "width": 2048}], "place_id": "ChIJv5LMqbG9QQ0RvOg2oqR6smM", "plus_code": {"compound_code": "8VWW+CQ Villanueva de Perales, Spain", "global_code": "8CGQ8VWW+CQ"}, "rating": 4.4, "reference": "ChIJv5LMqbG9QQ0RvOg2oqR6smM", "scope": "GOOGLE", "types": ["general_contractor", "point_of_interest", "establishment"], "user_ratings_total": 7, "vicinity": "Calle San Antonio, 3, Villanueva de Perales"}, {"business_status": "OPERATIONAL", "geometry": {"location": {"lat": 40.3375969, "lng": -4.131073499999999}, "viewport": {"northeast": {"lat": 40.3390188302915, "lng": -4.129780619708498}, "southwest": {"lat": 40.33632086970851, "lng": -4.132478580291502}}}, "icon": "https://maps.gstatic.com/mapfiles/place_api/icons/v1/png_71/restaurant-71.png", "icon_background_color": "#FF9E67", "icon_mask_base_uri": "https://maps.gstatic.com/mapfiles/place_api/icons/v2/restaurant_pinlet", "international_phone_number": "+34 918 13 75 36", "name": "Restaurante Las Meigas", "opening_hours": {"open_now": false}, "photos": [{"height": 2458, "html_attributions": ["<a href=\"https://maps.google.com/maps/contrib/105227986060372799923\">José Luis Guerrero</a>"], "photo_reference": "AWn5SU67wmyvYBUp5goyCFviWsEBE1Os3pvX5l-7YJDpORvvjnNY6c0gIAM9KEFX36Nu5xnEt6opK3O0ne9mqkXnQYIDxQsU1Wf5p3UfwHybGpR2L3CcSIJ8Ac8I5QZ9-i3dvjP60jKOe-F9K07gtEzkQOLCjfbQ5adOybndf8zbjV95XIcxAO2EefHDChWkFW1E5hhg6a5V2HzeVUnDFhyzrBbKdfXHGTa_8yqbFYqExhlLVIY9zt1GN487owJTapxL3jeE4FCIOXyXRtKFmFX5sjM7NghJ1lSR7TVhysFCF79pK8_MkUDqTCnhWeShMM4HwanEuGMRC5Y9CaxcQAX3kTpLNFcZF4CYh_QZUht97jfCc6iAbRdfO5Pyl_ftbdOogF_WlacGbljImXDxHni69bKWLBNwzzKXeZAidEgwmq-M3qMJz8OnJxxEFWIfHHgjIUrojRrkQC9fYvhbyjKVKZUyBPpOJoXaTtY1KtV2guiCAt_4GpAqZHLJOfPcvELTBw0LXtYNNmHxON0Ntrqp_ze5qAxqikVBzJUNZbKoJNOI_9xg13rDg6uYZ27U3LWBZjORuMS4s6j4HFlcVEE7ggFz77-Rrf0C-r-RCkUyBjDNxpOXV6T4AnRewU9bOkrO", "width": 4944}], "place_id": "ChIJkWcyqmq8QQ0RKQDKNGldBnw", "plus_code": {"compound_code": "8VQ9+2H Villamantilla, Spain", "global_code": "8CGQ8VQ9+2H"}, "price_level": 1, "rating": 4.4, "reference": "ChIJkWcyqmq8QQ0RKQDKNGldBnw", "scope": "GOOGLE", "types": ["restaurant", "point_of_interest", "food", "establishment"], "user_ratings_total": 956, "vicinity": "Plaza de España, 9, Villamantilla"}, {"business_status": "OPERATIONAL", "geometry": {"location": {"lat": 40.33795740000001, "lng": -4.130741499999999}, "viewport": {"northeast": {"lat": 40.3393063802915, "lng": -4.129392519708497}, "southwest": {"lat": 40.33660841970851, "lng": -4.132090480291501}}}, "icon": "https://maps.gstatic.com/mapfiles/place_api/icons/v1/png_71/shopping-71.png", "icon_background_color": "#4B96F3", "icon_mask_base_uri": "https://maps.gstatic.com/mapfiles/place_api/icons/v2/shopping_pinlet", "name": "MERCADILLOS SEMANAL MARTES", "place_id": "ChIJ-Z18XAC9QQ0RMTwWRMncmrM", "plus_code": {"compound_code": "8VQ9+5P Villamantilla, Spain", "global_code": "8CGQ8VQ9+5P"}, "reference": "ChIJ-Z18XAC9QQ0RMTwWRMncmrM", "scope": "GOOGLE", "types": ["point_of_interest", "establishment"], "vicinity": "Plaza de España, Villamantilla"}, {"business_status": "OPERATIONAL", "geometry": {"location": {"lat": 40.3380637, "lng": -4.130841599999999}, "viewport": {"northeast": {"lat": 40.3393575302915, "lng": -4.129446769708497}, "southwest": {"lat": 40.3366595697085, "lng": -4.132144730291501}}}, "icon": "https://maps.gstatic.com/mapfiles/place_api/icons/v1/png_71/civic_building-71.png", "icon_background_color": "#7B9EB0", "icon_mask_base_uri": "https://maps.gstatic.com/mapfiles/place_api/icons/v2/civic-bldg_pinlet", "international_phone_number": "+34 918 12 41 22", "name": "Oficina Rural de Correos", "opening_hours": {"open_now": false}, "place_id": "ChIJa0t1Au69QQ0RmDGMkWBWAVI", "plus_code": {"compound_code": "8VQ9+6M Villamantilla, Spain", "global_code": "8CGQ8VQ9+6M"}, "rating": 5, "reference": "ChIJa0t1Au69QQ0RmDGMkWBWAVI", "scope": "GOOGLE", "types": ["post_office", "finance", "point_of_interest", "establishment"], "user_ratings_total": 1, "vicinity": "Plaza de España, 1, Villamantilla"}, {"geometry": {"location": {"lat": 40.3418042, "lng": -4.1302671}, "viewport": {"northeast": {"lat": 40.34960293707457, "lng": -4.125811938725464}, "southwest": {"lat": 40.33572178942874, "lng": -4.134648339469273}}}, "icon": "https://maps.gstatic.com/mapfiles/place_api/icons/v1/png_71/geocode-71.png", "icon_background_color": "#7B9EB0", "icon_mask_base_uri": "https://maps.gstatic.com/mapfiles/place_api/icons/v2/generic_pinlet", "name": "Villamantilla", "photos": [{"height": 1800, "html_attributions": ["<a href=\"https://maps.google.com/maps/contrib/101321764474141234821\">ricardo fernández del Blanco</a>"], "photo_reference": "AWn5SU5MHfrV-g8r-snqbtUtXfJx3BL8abVvrDUzAB2J1M0vcTdp4oxBRtwZcK2Uu25-Ur9LvylhSIGowgbrnyb6Dl8TyXZRiIFYnD7KSIduObcOSrkhBe3QfypNUnMRSNUvIdVvd42__bLxTQq7-veus99ef7OQKgZlzrjorUj5vvAtgabprKMxCZCGXGhG120QylgjqLF9Jz4LmeYEAVPdQDHrQqP_ijfqLRL-ev2bUxA9dmrJY-9EhP260fXsVNLAxOC136XXLN63BTPrKE4gp1I_dEbEPkfS6IMXuAY9WnQWatB1aHWJX6I72FVr3Rms8H43XIE2v1TQC1zCNFV1e6bekmtQAxKMD-laYvX0QHjSGsll15JPsGc9cl7Dn_Wg0C31JHWzN38P-RWm36NXW1tlu84AbnpjoWL-uhx1CihY2hDuN081tr4J9AbhLDOBRQdNzDRduFXnP6w1OaGAFoguFPfD5_znXay2EaNwEbHcOdDfO6MSZWj_JuEIbbXmOj73yOVCNt_-cJVc01h2pTIxv0EDuzufVpVJ-BqkAtH1EvvtkISVHrID02NPipKq3ytO0TzzX-7SRZXpflcRG0bOIiGVLxtUOFWhhoYfFsQV5xn-l_dwo4Y4byWaI2dN", "width": 4000}], "place_id": "ChIJ5zlq5kG8QQ0RpkG9HTJSPpk", "reference": "ChIJ5zlq5kG8QQ0RpkG9HTJSPpk", "scope": "GOOGLE", "types": ["locality", "political"], "vicinity": "Villamantilla"}]