[{"business_status": "OPERATIONAL", "geometry": {"location": {"lat": 40.69884469999999, "lng": -3.4350058}, "viewport": {"northeast": {"lat": 40.70021113029149, "lng": -3.433621519708498}, "southwest": {"lat": 40.69751316970849, "lng": -3.436319480291502}}}, "icon": "https://maps.gstatic.com/mapfiles/place_api/icons/v1/png_71/civic_building-71.png", "icon_background_color": "#7B9EB0", "icon_mask_base_uri": "https://maps.gstatic.com/mapfiles/place_api/icons/v2/civic-bldg_pinlet", "international_phone_number": "+34 949 33 40 20", "name": "Guardia Civil de El Casar", "opening_hours": {"open_now": false}, "photos": [{"height": 3024, "html_attributions": ["<a href=\"https://maps.google.com/maps/contrib/115283681159193550984\">David Rubio Lebrato (Powerlebrato)</a>"], "photo_reference": "AWn5SU78pKID7mKffTCc4nCfxGPCaDyxwtTxjXBwKSliAdfabTshDG846jMfGmmriyZP8vXhXxyoZhht7Q3ocNS7HgtqlVKJc8BZlQqaYU6f0LMDOq0JvZFEBeehuAu6w4tGJuERWOZ_6XIVwyimy9v9QUkrL5yeLRrDvP6C5nwW6zY_O5LGe40QpPCHAufPD3SZvqhGxpkzJMxqONDWCahkRMrA6VZWX13KAel0jNVtn0WnyNKBMl1U0pIl6E3dbu1658Egs2gNneR6iFsG9u-VPZ4ogsWvtVUYc7EZg3zsmP0YY8bK7umx7W2ZNStqOn2vYsntIPTKZqnN_BRM31h0JhcaTyCN-ZC-5HvOnkGxSVxO38oGDJFKk5yo_ml3aQuGmt132wDOd73tdImCIO4KihqBXE57gH_IKPAvE0Y4jGSqDvkhsK7TGM2BkMvM8u4jfjCb73otGH7HxMIy37L1S91DiEV2xGAAKmqlZwX5rtVf9SNIlZ1XkNkE6kDq3Wb7Y9oJdcL41efhzTbICO8o0Np7GNKcbtv_DFmdTln5yeF39WrryqNzjUAywGYBBHvQXNx9rlkQ1hEe_lMa4qi-znCoZ-eqWG8pfy0tjtg8KMHV1pflsBcu6wahrTxo9SA5fP4r0Q", "width": 4032}], "place_id": "ChIJC6ayOi3IQw0RYSeS0Fd2iTM", "plus_code": {"compound_code": "MHX7+GX El Casar, Spain", "global_code": "8CGRMHX7+GX"}, "rating": 4.7, "reference": "ChIJC6ayOi3IQw0RYSeS0Fd2iTM", "scope": "GOOGLE", "types": ["police", "point_of_interest", "establishment"], "user_ratings_total": 7, "vicinity": "Calle Alcalde Manuel López, 1, El Casar"}, {"business_status": "OPERATIONAL", "geometry": {"location": {"lat": 40.6947862, "lng": -3.5103296}, "viewport": {"northeast": {"lat": 40.6961428302915, "lng": -3.509072319708498}, "southwest": {"lat": 40.6934448697085, "lng": -3.511770280291501}}}, "icon": "https://maps.gstatic.com/mapfiles/place_api/icons/v1/png_71/civic_building-71.png", "icon_background_color": "#7B9EB0", "icon_mask_base_uri": "https://maps.gstatic.com/mapfiles/place_api/icons/v2/civic-bldg_pinlet", "international_phone_number": "+34 918 41 51 76", "name": "Guardia Civil de Valdetorres de Jarama", "opening_hours": {"open_now": false}, "place_id": "ChIJR7T8q9rOQw0Ryo5ipLOnheE", "plus_code": {"compound_code": "MFVQ+WV Valdetorres de Jarama, Spain", "global_code": "8CGRMFVQ+WV"}, "rating": 4, "reference": "ChIJR7T8q9rOQw0Ryo5ipLOnheE", "scope": "GOOGLE", "types": ["police", "point_of_interest", "establishment"], "user_ratings_total": 16, "vicinity": "Calle Torrelaguna, 10, Valdetorres de Jarama"}, {"business_status": "OPERATIONAL", "geometry": {"location": {"lat": 40.729485, "lng": -3.5803289}, "viewport": {"northeast": {"lat": 40.7308613802915, "lng": -3.578941469708498}, "southwest": {"lat": 40.7281634197085, "lng": -3.581639430291502}}}, "icon": "https://maps.gstatic.com/mapfiles/place_api/icons/v1/png_71/civic_building-71.png", "icon_background_color": "#7B9EB0", "icon_mask_base_uri": "https://maps.gstatic.com/mapfiles/place_api/icons/v2/civic-bldg_pinlet", "international_phone_number": "+34 670 66 66 66", "name": "POLICÍA LOCAL EL MOLAR.", "opening_hours": {"open_now": false}, "place_id": "ChIJ7w7WUMfPQw0R7g-bqgy5dTo", "plus_code": {"compound_code": "PCH9+QV El Molar, Spain", "global_code": "8CGRPCH9+QV"}, "reference": "ChIJ7w7WUMfPQw0R7g-bqgy5dTo", "scope": "GOOGLE", "types": ["police", "point_of_interest", "establishment"], "vicinity": "El Molar"}]