[{"business_status": "OPERATIONAL", "geometry": {"location": {"lat": 40.3451631, "lng": -4.0261049}, "viewport": {"northeast": {"lat": 40.3465356302915, "lng": -4.024710119708497}, "southwest": {"lat": 40.3438376697085, "lng": -4.027408080291502}}}, "icon": "https://maps.gstatic.com/mapfiles/place_api/icons/v1/png_71/pharmacy-71.png", "icon_background_color": "#F88181", "icon_mask_base_uri": "https://maps.gstatic.com/mapfiles/place_api/icons/v2/pharmacy_pinlet", "international_phone_number": "+34 918 13 00 26", "name": "Farmacia El Hórreo", "opening_hours": {"open_now": false}, "photos": [{"height": 3024, "html_attributions": ["<a href=\"https://maps.google.com/maps/contrib/102981549850058719095\">S J</a>"], "photo_reference": "AWn5SU4cqiqM-TKkJLO5L2viRxKlu9TmWwiLhwib68Cn6LFiySKTx9dvimd0gLUxnSEaA0_pr-xVtzG_hzjXmmA8HAKhL_gmM_t-4BAJ61a2rbaG0_y2vT5cAdgLb2PnBGTsEeia7m82Y4DAYvvTeUhqD8m_6k9gW4wMmsWxueyfGsJZffzzk6928w9yLOmVf5GqFomjIcC9D_x-Qil-9H419WEj4y8Qow0v5LZNLEHgW9fZM_mHKcwPpgGm4ua0wKvko-0CCyZrQLcv7G29yOxOqYOGTSuc0IHeT0eHQkfNaralrDTuy6R8HvNSejCu6dzEa14fCQ-7dqEiCqdgMYZR7HuCBQMiyv8VDTDZtTiTTEQZF05-PvwGXLGdvEAExe6IGJKOqORiV6H50LVUh3exxQP1G1RDseNgDXjfUXin4-H6iUVsxOXxIUEGzAVe3-YhpTiWC4leT9yzhj1QN99GQ8Dw4nc_G_iHddM8-ktYmi9GXaFtVCTqYBedSfExwwB-mR0_bHq78tolHoDlc9vIUe-3iHQkFsvBebFr1XL5CL3C-PnMawhrYXHb-VyQ8qCR_JCiHHTNMkadjopbA4UQy3OpfgD7TSVnoe9u3FMxkxWBjl1DEOj-cAesDQPui5VlDHigxQ", "width": 4032}], "place_id": "ChIJf7UaI_aWQQ0RBCZsAHkrNSk", "plus_code": {"compound_code": "8XWF+3H Sevilla la Nueva, Spain", "global_code": "8CGQ8XWF+3H"}, "rating": 3.7, "reference": "ChIJf7UaI_aWQQ0RBCZsAHkrNSk", "scope": "GOOGLE", "types": ["pharmacy", "health", "point_of_interest", "store", "establishment"], "user_ratings_total": 87, "vicinity": "Calle General Asensio, 1, Sevilla la Nueva"}, {"business_status": "OPERATIONAL", "geometry": {"location": {"lat": 40.3468396, "lng": -4.1019534}, "viewport": {"northeast": {"lat": 40.3481954302915, "lng": -4.100592919708498}, "southwest": {"lat": 40.3454974697085, "lng": -4.103290880291502}}}, "icon": "https://maps.gstatic.com/mapfiles/place_api/icons/v1/png_71/pharmacy-71.png", "icon_background_color": "#F88181", "icon_mask_base_uri": "https://maps.gstatic.com/mapfiles/place_api/icons/v2/pharmacy_pinlet", "international_phone_number": "+34 918 13 70 36", "name": "Jara Colinas Fidalgo", "opening_hours": {"open_now": false}, "place_id": "ChIJuYZORLC9QQ0RdFXe3xejMtc", "plus_code": {"compound_code": "8VWX+P6 Villanueva de Perales, Spain", "global_code": "8CGQ8VWX+P6"}, "rating": 5, "reference": "ChIJuYZORLC9QQ0RdFXe3xejMtc", "scope": "GOOGLE", "types": ["pharmacy", "health", "point_of_interest", "store", "establishment"], "user_ratings_total": 7, "vicinity": "Calle Carretas, 13, Villanueva de Perales"}, {"business_status": "OPERATIONAL", "geometry": {"location": {"lat": 40.33673809999999, "lng": -4.129773599999999}, "viewport": {"northeast": {"lat": 40.3380718802915, "lng": -4.128483519708497}, "southwest": {"lat": 40.3353739197085, "lng": -4.131181480291501}}}, "icon": "https://maps.gstatic.com/mapfiles/place_api/icons/v1/png_71/pharmacy-71.png", "icon_background_color": "#F88181", "icon_mask_base_uri": "https://maps.gstatic.com/mapfiles/place_api/icons/v2/pharmacy_pinlet", "international_phone_number": "+34 918 13 72 94", "name": "FARMACIA VILLAMANTILLA", "opening_hours": {"open_now": false}, "photos": [{"height": 3096, "html_attributions": ["<a href=\"https://maps.google.com/maps/contrib/102491903607382277402\">FARMACIA VILLAMANTILLA</a>"], "photo_reference": "AWn5SU6kiJ-b08DMF-gRahItlM1KXUcwXyAk5qei2-5Dt94mNzaw7QJcvCuglaZKYj5xT_VjuNHnDZEKLTCKqDJc1w4pnx18kbkw3e5jCXXNLSmlvUJp1glpo1hegftYf1r7gyDmWBAeijD25OYoGerIN0uQC_xGL_Mn94jF4mDpyn6DVQQYYXUx7kQyN8dVNgqW73LcAwKWaLYz8KXufDIIefPWSG8Us1IxUQA_DEphO-4ShgiQUt7YTY2kP6YyEr0fiQHodzUgTUMi3b414_IkVsDOHleRE-pCfipRTvnGb3Obm8HZwO6x_gUUzazCP7o-cA_HjnzoG4w", "width": 4128}], "place_id": "ChIJARjVxpq9QQ0RV7ikZzjK0hM", "plus_code": {"compound_code": "8VPC+M3 Villamantilla, Spain", "global_code": "8CGQ8VPC+M3"}, "rating": 3.8, "reference": "ChIJARjVxpq9QQ0RV7ikZzjK0hM", "scope": "GOOGLE", "types": ["pharmacy", "health", "point_of_interest", "store", "establishment"], "user_ratings_total": 10, "vicinity": "Calle General Yagüe, Villamantilla"}, {"business_status": "OPERATIONAL", "geometry": {"location": {"lat": 40.2981851, "lng": -4.1091223}, "viewport": {"northeast": {"lat": 40.29954453029149, "lng": -4.107775769708498}, "southwest": {"lat": 40.29684656970849, "lng": -4.110473730291503}}}, "icon": "https://maps.gstatic.com/mapfiles/place_api/icons/v1/png_71/pharmacy-71.png", "icon_background_color": "#F88181", "icon_mask_base_uri": "https://maps.gstatic.com/mapfiles/place_api/icons/v2/pharmacy_pinlet", "international_phone_number": "+34 918 13 63 44", "name": "Farmacia", "opening_hours": {"open_now": false}, "place_id": "ChIJp2UvDWe-QQ0R7BhmIIjzlu4", "plus_code": {"compound_code": "7VXR+79 Villamanta, Spain", "global_code": "8CGQ7VXR+79"}, "rating": 3.2, "reference": "ChIJp2UvDWe-QQ0R7BhmIIjzlu4", "scope": "GOOGLE", "types": ["pharmacy", "health", "point_of_interest", "store", "establishment"], "user_ratings_total": 18, "vicinity": "Avenida de La Libertad, 9, Villamanta"}, {"business_status": "OPERATIONAL", "geometry": {"location": {"lat": 40.3493285, "lng": -4.028398699999999}, "viewport": {"northeast": {"lat": 40.3506251302915, "lng": -4.027031369708498}, "southwest": {"lat": 40.3479271697085, "lng": -4.029729330291502}}}, "icon": "https://maps.gstatic.com/mapfiles/place_api/icons/v1/png_71/pharmacy-71.png", "icon_background_color": "#F88181", "icon_mask_base_uri": "https://maps.gstatic.com/mapfiles/place_api/icons/v2/pharmacy_pinlet", "international_phone_number": "+34 665 38 90 86", "name": "Farmacia LOBO", "opening_hours": {"open_now": false}, "photos": [{"height": 1024, "html_attributions": ["<a href=\"https://maps.google.com/maps/contrib/105580304911718700413\">Farmacia LOBO</a>"], "photo_reference": "AWn5SU4Vaj56rKoAnQhjGm90UdelDJAkSsUAia3xpHQRYMBICNb1NfhMzDklGD6-_r6f0AAtmUwLXzUpIrqsRXSzcB5S7WXoi_mBo1WQw-BGcx6AaNVnL4maopzjYYFvIlaRJjpcHC-bcCUwG8pATdtV3gE7oL_KPDT9eFd2VfzsFVUoDqin1JPTao8FGIeGH3vfrxY8nDjSrNIDurybM5Cl5_VjTsra01uTTj58vP00KFoYthNjIuwYbIO8aacl9h-Y3hlG84Mge4NJL0kvyR_TA5kteY6LpM_JhmtZrHc3l30Q6SqA7naS7SzdaVLMZ11M-P0MMWsq9IE", "width": 472}], "place_id": "ChIJc7hoOD6XQQ0Rfk4IP4cRRJA", "plus_code": {"compound_code": "8XXC+PJ Sevilla la Nueva, Spain", "global_code": "8CGQ8XXC+PJ"}, "rating": 4.8, "reference": "ChIJc7hoOD6XQQ0Rfk4IP4cRRJA", "scope": "GOOGLE", "types": ["pharmacy", "health", "point_of_interest", "store", "establishment"], "user_ratings_total": 28, "vicinity": "Calle Cervantes, 2, Sevilla la Nueva"}, {"business_status": "OPERATIONAL", "geometry": {"location": {"lat": 40.34789660000001, "lng": -4.0260834}, "viewport": {"northeast": {"lat": 40.3492151302915, "lng": -4.024776319708498}, "southwest": {"lat": 40.34651716970851, "lng": -4.027474280291503}}}, "icon": "https://maps.gstatic.com/mapfiles/place_api/icons/v1/png_71/pharmacy-71.png", "icon_background_color": "#F88181", "icon_mask_base_uri": "https://maps.gstatic.com/mapfiles/place_api/icons/v2/pharmacy_pinlet", "international_phone_number": "+34 917 08 63 83", "name": "Farmacia Valor", "opening_hours": {"open_now": false}, "photos": [{"height": 1024, "html_attributions": ["<a href=\"https://maps.google.com/maps/contrib/113655746729411984933\">Farmacia Valor</a>"], "photo_reference": "AWn5SU5xIrM7McaLkFxc4FFLEF2iojUUA2dYnaVMKFOBjCwA2K5uml6rWs6lAfdRgEZstD2IUWR9_OAZJ7GYLjbpCsPu_xX9gQ6B-HGhccG0IL8IXyJNca5jk8fcANUOApSbVNPW8So5cMOPatrfXiMcWL7Lb-WUmq1sYdemzK6fSzFqgM52J9Mhc_57IPZ20bVMj0vDvSMmWtWhYmsH3yjN490My8YFrt1xFLrsEfCrZSFX6RBSKzZ0OtpRWODYiOL8ohn95HKX1xGSTC4LKz6B57mk6yiVfLJr96Wj2I02W2LbF11YGm--0Fw3sDkDLzfvEsj97jCa3bU", "width": 1024}], "place_id": "ChIJG2fVhHGXQQ0R6y8hhkyaGS4", "plus_code": {"compound_code": "8XXF+5H Sevilla la Nueva, Spain", "global_code": "8CGQ8XXF+5H"}, "rating": 5, "reference": "ChIJG2fVhHGXQQ0R6y8hhkyaGS4", "scope": "GOOGLE", "types": ["pharmacy", "health", "point_of_interest", "store", "establishment"], "user_ratings_total": 32, "vicinity": "Calle José Antonio, 16, Sevilla la Nueva"}, {"business_status": "OPERATIONAL", "geometry": {"location": {"lat": 40.3451313, "lng": -4.0260492}, "viewport": {"northeast": {"lat": 40.34651648029151, "lng": -4.024675069708497}, "southwest": {"lat": 40.34381851970851, "lng": -4.027373030291502}}}, "icon": "https://maps.gstatic.com/mapfiles/place_api/icons/v1/png_71/pharmacy-71.png", "icon_background_color": "#F88181", "icon_mask_base_uri": "https://maps.gstatic.com/mapfiles/place_api/icons/v2/pharmacy_pinlet", "international_phone_number": "+34 918 13 00 26", "name": "Freijeiro Carmen", "photos": [{"height": 3096, "html_attributions": ["<a href=\"https://maps.google.com/maps/contrib/101125462108647390827\">Natacha Celeste Martínez Regueiro</a>"], "photo_reference": "AWn5SU6vPPtH4rlEdB6lNq21QqSbgO7uUbkFv7W2O7_tFmOFEIUc_3f9NIVxD47JtQlsggsP2BD_sJUdwj9juHD83YqXBFDigD1z8p7NPqwDE34Xer7O6o2Djnz9qpepYd7vw8V4kYleiFF-QuyqpOr2gRyU4MJ_wKUp5kktRwaGbmvGH5s-0E3DtJtEkpk7LZvbgRoQMT89DqNlvF0xK0qJpXz18yaHLXr09L4zYrcL1fWnxPqo09Z7MDeZIJWVGsuXBKmopACvOgLV3voScHhTA-yc7GYOzUHmujnt0HZz5gD3FnVUwxAW7yOEx-kzvwqRcets-xFxyEUOUY31eiM7PXMa5HNwgjlt9wSv5z35a__TIgK2sFWDT1eRiDJtUVJbG9epnLFD3006thRNZx2AZwPiMBQo48svIx0hdxXPXSySYPmIn6S6uqPg9h1mg1Y-zUlq5TfSeDQYmwiztrnlPsV8bwKbdLBGU6xPdS25oE4l0hqVDf_lVU7OHu-1c0Z0Ry1vS8comhrNmDzZXSoopFqBXOiwHjFJzGFfTFOdxgatGAE2fNPQbwEjy7HzzQsl0ty-DmvrW1V8TamF40Qaina-SEwDYHEHBXgTHf6Ak2e93e9XSneDypNeN_o4DSqYt6Q6h7p6", "width": 4128}], "place_id": "ChIJw-BWzfWWQQ0RluKSpL6Ordk", "plus_code": {"compound_code": "8XWF+3H Sevilla la Nueva, Spain", "global_code": "8CGQ8XWF+3H"}, "rating": 5, "reference": "ChIJw-BWzfWWQQ0RluKSpL6Ordk", "scope": "GOOGLE", "types": ["pharmacy", "health", "point_of_interest", "store", "establishment"], "user_ratings_total": 3, "vicinity": "Calle General Asensio, 1, Sevilla la Nueva"}, {"business_status": "OPERATIONAL", "geometry": {"location": {"lat": 40.3451313, "lng": -4.0260492}, "viewport": {"northeast": {"lat": 40.34651648029151, "lng": -4.024675069708497}, "southwest": {"lat": 40.34381851970851, "lng": -4.027373030291502}}}, "icon": "https://maps.gstatic.com/mapfiles/place_api/icons/v1/png_71/pharmacy-71.png", "icon_background_color": "#F88181", "icon_mask_base_uri": "https://maps.gstatic.com/mapfiles/place_api/icons/v2/pharmacy_pinlet", "international_phone_number": "+34 918 12 94 17", "name": "Farmavirtual SL", "place_id": "ChIJf7UaI_aWQQ0R7dhMsdYvNDg", "plus_code": {"compound_code": "8XWF+3H Sevilla la Nueva, Spain", "global_code": "8CGQ8XWF+3H"}, "rating": 5, "reference": "ChIJf7UaI_aWQQ0R7dhMsdYvNDg", "scope": "GOOGLE", "types": ["pharmacy", "health", "point_of_interest", "store", "establishment"], "user_ratings_total": 1, "vicinity": "Calle General Asensio, 1, Sevilla la Nueva"}, {"business_status": "OPERATIONAL", "geometry": {"location": {"lat": 40.3450946, "lng": -4.0259852}, "viewport": {"northeast": {"lat": 40.34648238029149, "lng": -4.024641019708497}, "southwest": {"lat": 40.34378441970849, "lng": -4.027338980291502}}}, "icon": "https://maps.gstatic.com/mapfiles/place_api/icons/v1/png_71/pharmacy-71.png", "icon_background_color": "#F88181", "icon_mask_base_uri": "https://maps.gstatic.com/mapfiles/place_api/icons/v2/pharmacy_pinlet", "international_phone_number": "+34 656 88 17 10", "name": "Ortopedia El Horreo", "opening_hours": {"open_now": false}, "photos": [{"height": 442, "html_attributions": ["<a href=\"https://maps.google.com/maps/contrib/111341552475924359758\">Ortopedia El Horreo</a>"], "photo_reference": "AWn5SU78HkHu2gK3v5H20lIO8K5GfWoOaewCgScGKWkesVkl0HAM3Fif9yqnFB_2lOC06rVoFFAtanYyiPRq9k6CED4WlRTlRB8MzgD54O4lusmtxe0CTLbs4TystabFepWnTZr2JPk_FhdvJrcHyO8HJEPszs2kQDoo7uIK6lkKbK1Ve_g9KdgbrAmXyzVVYL98h_eHHb4yjp6tweZ_AtbODJFd2io4eQ_MW5lSDCFvLaRVz4740TeDenBciL5zYEdTZ7lE1dDEBU1ydzPsUvO2tLtBE7HubZdCl4JJREwJOCiyceuv0he6c5nXFtQ5h3gSkM6rTzQz", "width": 735}], "place_id": "ChIJCeKw0K2XQQ0RoW0vpwcMxa4", "plus_code": {"compound_code": "8XWF+2J Sevilla la Nueva, Spain", "global_code": "8CGQ8XWF+2J"}, "reference": "ChIJCeKw0K2XQQ0RoW0vpwcMxa4", "scope": "GOOGLE", "types": ["pharmacy", "health", "point_of_interest", "store", "establishment"], "vicinity": "Calle General Asensio, 1, Sevilla la Nueva"}, {"business_status": "OPERATIONAL", "geometry": {"location": {"lat": 40.3495251, "lng": -4.0247548}, "viewport": {"northeast": {"lat": 40.3507550302915, "lng": -4.023303869708498}, "southwest": {"lat": 40.3480570697085, "lng": -4.026001830291502}}}, "icon": "https://maps.gstatic.com/mapfiles/place_api/icons/v1/png_71/pharmacy-71.png", "icon_background_color": "#F88181", "icon_mask_base_uri": "https://maps.gstatic.com/mapfiles/place_api/icons/v2/pharmacy_pinlet", "international_phone_number": "+34 614 11 50 66", "name": "Farmacia Sevillanos", "opening_hours": {"open_now": false}, "photos": [{"height": 3779, "html_attributions": ["<a href=\"https://maps.google.com/maps/contrib/113756098339899812971\">Farmacia Sevillanos</a>"], "photo_reference": "AWn5SU4wnlJt1I-OmRQzq_DDRHTbiau2w8yJbKxOqX_XNJV40XtyHBYNTiqOEjjn11XPm3TuI2939tF0SKejgwXFA3gnulOSfqitMUrcVj94hAT1GEt59AXsaMYGl9t0_VK2WE7cH4nFnsAeAGnz_qp9u9BYOWeyGw5lr25nIaQqIXNukUd3dF3cgSjmV_H8GTSqa6HUyPCQVFbfUooIHr7Sulv5AHnbLh3q1ztLB6_0goZe4YjLOwsWTTkrrcE_UuhBUJ7acck7XPm1Kdt5ud6tpNv1SI0wwEmAWrYrI4WoJJ3z60A49OcXTxsOGpk_iIvgwHapbhMZQNI", "width": 3023}], "place_id": "ChIJTSEji1uXQQ0RmaKpiTcuZ4E", "plus_code": {"compound_code": "8XXG+R3 Sevilla la Nueva, Spain", "global_code": "8CGQ8XXG+R3"}, "rating": 5, "reference": "ChIJTSEji1uXQQ0RmaKpiTcuZ4E", "scope": "GOOGLE", "types": ["pharmacy", "health", "point_of_interest", "store", "establishment"], "user_ratings_total": 9, "vicinity": "Calle Santa Bárbara, 2, LOCAL D, Sevilla la Nueva"}]