[{"business_status": "OPERATIONAL", "geometry": {"location": {"lat": 40.166778, "lng": -3.286111}, "viewport": {"northeast": {"lat": 40.1681914302915, "lng": -3.284729819708498}, "southwest": {"lat": 40.16549346970851, "lng": -3.287427780291502}}}, "icon": "https://maps.gstatic.com/mapfiles/place_api/icons/v1/png_71/gas_station-71.png", "icon_background_color": "#909CE1", "icon_mask_base_uri": "https://maps.gstatic.com/mapfiles/place_api/icons/v2/gas_pinlet", "international_phone_number": "+34 918 74 24 64", "name": "CEPSA", "opening_hours": {"open_now": false}, "photos": [{"height": 576, "html_attributions": ["<a href=\"https://maps.google.com/maps/contrib/100865011066730548790\">Estación de servicio Moeve, antes Cepsa</a>"], "photo_reference": "AWn5SU7OfGw6IDcfxgH1iFk06mc3zhoSQXDBlaWtxz928OSCJ5UWnwWR-oxH4202jwoTtDf2q_5-ButXULiRup_akNd-7dIZb3mCd85TAXA_PhSRoP4T4SmGehhdBH6rh8rGCizETwrmUyYRlC73hgUmLlFPHNFSVJ2Z45tG3TqrZe-990tqnTn4GMKSxYsgNR0zbceemo40JGCbocvd1Iy540TYM_Y9V114yMP_LfXaZdTX1I9u4UnbbwRgNZE67wje-4T5WtcN6s5s4BmnjBNREZakjeJda8IRHstzCxCe-AD0Hc_GjWRTnUM_x3A-dyUxW9xCibcsIls", "width": 1024}], "place_id": "ChIJXQNlsjtvQg0RI1Cubswlj3w", "plus_code": {"compound_code": "5P87+PH Villarejo de Salvanés, Spain", "global_code": "8CGR5P87+PH"}, "rating": 3.8, "reference": "ChIJXQNlsjtvQg0RI1Cubswlj3w", "scope": "GOOGLE", "types": ["gas_station", "point_of_interest", "establishment"], "user_ratings_total": 415, "vicinity": "Autovía del Este, PK: 49, 4, Villarejo de Salvanés"}, {"business_status": "OPERATIONAL", "geometry": {"location": {"lat": 40.1696888, "lng": -3.2835404}, "viewport": {"northeast": {"lat": 40.1710377802915, "lng": -3.282195419708498}, "southwest": {"lat": 40.1683398197085, "lng": -3.284893380291502}}}, "icon": "https://maps.gstatic.com/mapfiles/place_api/icons/v1/png_71/gas_station-71.png", "icon_background_color": "#909CE1", "icon_mask_base_uri": "https://maps.gstatic.com/mapfiles/place_api/icons/v2/gas_pinlet", "name": "Gasolinera cooperativa", "place_id": "ChIJ3yUlK4FvQg0Rw880GW8mt5E", "plus_code": {"compound_code": "5P98+VH Villarejo de Salvanés, Spain", "global_code": "8CGR5P98+VH"}, "rating": 4.3, "reference": "ChIJ3yUlK4FvQg0Rw880GW8mt5E", "scope": "GOOGLE", "types": ["gas_station", "point_of_interest", "establishment"], "user_ratings_total": 4, "vicinity": "Avenida Mariano Diaz, 20, Villarejo de Salvanés"}, {"business_status": "OPERATIONAL", "geometry": {"location": {"lat": 40.167722, "lng": -3.285472}, "viewport": {"northeast": {"lat": 40.1690890302915, "lng": -3.284107969708498}, "southwest": {"lat": 40.1663910697085, "lng": -3.286805930291502}}}, "icon": "https://maps.gstatic.com/mapfiles/place_api/icons/v1/png_71/gas_station-71.png", "icon_background_color": "#909CE1", "icon_mask_base_uri": "https://maps.gstatic.com/mapfiles/place_api/icons/v2/gas_pinlet", "international_phone_number": "+34 918 74 24 65", "name": "Cepsa", "opening_hours": {"open_now": true}, "photos": [{"height": 576, "html_attributions": ["<a href=\"https://maps.google.com/maps/contrib/108103098705363039585\">Estación de servicio Moeve, antes Cepsa</a>"], "photo_reference": "AWn5SU4MlSyDdAbfoi2vHkRqNdt5JZy2-XS20rJ9bJShnMvhe0Ubkjksdg6QuX3cUMkZevQ6P9GRi7y55C5fNW6EVzvoHOHp3uxel20vHf6Ap9piXV_yKg66fn_LjFWOxU0qQfREL-Pq3CL-eqQFrIQGneCmgyr7nlO06IzWc_F6v2d2u85UWLtB2q_xRwOAwX_O2vn4u8l0ProqkA__65-zTYEuURIiAOBFYJDkvMKMd1PlAbqpiDkzvbReerG7FOMbxm--fEyNSrJsGTbvB-5hp-aTNFBbOEAQ3ZXqWuTpiTU9mnwvuG5rjtbHEDyFzpA1Kt-JS0IpRaI", "width": 1024}], "place_id": "ChIJoRCZsjtvQg0RAj2WzuOd7gs", "plus_code": {"compound_code": "5P97+3R Villarejo de Salvanés, Spain", "global_code": "8CGR5P97+3R"}, "rating": 3.9, "reference": "ChIJoRCZsjtvQg0RAj2WzuOd7gs", "scope": "GOOGLE", "types": ["gas_station", "point_of_interest", "establishment"], "user_ratings_total": 535, "vicinity": "Autovía del Este, PK: 49, 3, Villarejo de Salvanés"}, {"business_status": "OPERATIONAL", "geometry": {"location": {"lat": 40.1725, "lng": -3.29152}, "viewport": {"northeast": {"lat": 40.1738415802915, "lng": -3.290185969708498}, "southwest": {"lat": 40.1711436197085, "lng": -3.292883930291502}}}, "icon": "https://maps.gstatic.com/mapfiles/place_api/icons/v1/png_71/gas_station-71.png", "icon_background_color": "#909CE1", "icon_mask_base_uri": "https://maps.gstatic.com/mapfiles/place_api/icons/v2/gas_pinlet", "international_phone_number": "+34 918 74 84 93", "name": "Galp", "opening_hours": {"open_now": false}, "photos": [{"height": 1080, "html_attributions": ["<a href=\"https://maps.google.com/maps/contrib/114946783425773510038\">Galp</a>"], "photo_reference": "AWn5SU4iY6GFpnhwog2zSEtdd-C-0nHTnwXmZh5euED3YEBEXpYU768-dnhPkR9sgXU6nOOaigIr55Ut7crn0fXQ5xDtxMiFACFmsG94_CTVZTx67ctRUF2bwWimHHYT4zpyCu1iKRSQp2DHlHnKV-ocX_J915AEtm6qqoppanjrWkCDJvM7OG2ars3yuI1PX0F2lZQi207nTmPgI84FTLIuwRvgKxS2Sf6t3S8WM1nHlEJ1yjPU6CU4lsovkA_58mKTeRPRYtbhZRnpoVT6e9BZfNm9c-lx9WI15oau-mbM5wZmb_eow-OaRxhuamtY00Irc7YGbvOqriU", "width": 1920}], "place_id": "ChIJT8tA4e1vQg0R85ZU3hoH05w", "plus_code": {"compound_code": "5PF5+29 Villarejo de Salvanés, Spain", "global_code": "8CGR5PF5+29"}, "rating": 4.2, "reference": "ChIJT8tA4e1vQg0R85ZU3hoH05w", "scope": "GOOGLE", "types": ["gas_station", "car_wash", "cafe", "point_of_interest", "food", "establishment"], "user_ratings_total": 220, "vicinity": "Avenida Juan Carlos I Rey de España, 3, Villarejo de Salvanés"}]