[{"geometry": {"location": {"lat": 40.505008, "lng": -4.2345159}, "viewport": {"northeast": {"lat": 40.51424924042487, "lng": -4.224608126745959}, "southwest": {"lat": 40.48966112694036, "lng": -4.245552737746594}}}, "icon": "https://maps.gstatic.com/mapfiles/place_api/icons/v1/png_71/geocode-71.png", "icon_background_color": "#7B9EB0", "icon_mask_base_uri": "https://maps.gstatic.com/mapfiles/place_api/icons/v2/generic_pinlet", "name": "Robledo de Chavela", "photos": [{"height": 1860, "html_attributions": ["<a href=\"https://maps.google.com/maps/contrib/101321764474141234821\">ricardo fernández del Blanco</a>"], "photo_reference": "AWn5SU6Ux3beLxibTSHqeYkS61b6j6R004SSkPeBIB_2tSqiPMnZ0KAR8KLaOaJSYsizI2TfOgUqUz8iDnC5KHsTAACtIDx2y9Fapi7T9p1F_jmTDg2F1I4PattGioBJMLPs1rLUBNtdCats_hgTNGKY2y51s0SS99FYNM1A5mpbk7dD5YGDNpkJUmxOnqD8kraea0FuCteJy31m82egpIkKzKvseDq37PudOgZhgFDLiT_1Lpzz_aCM6125T36Tb1fNUiNw2dSNoswKUNL39it4wED8daTSwcVlXt8HETVbhzOL8dVkyC-v4pVH4U3BdQjmA2AnydttBp5LYDvZ0wKqHYd_-yXkH1lELJr2cnadg0f9Z2kucyH-eiFiBlvlGCohoA03MIkE5Ywkc5MEP8Otz4oJ42yULAtdqznMeXxEyeJSNllo28hYhLv3-VZs0AZDXbDwuvHjaP52IPW4n3hlPjjlrKnus2L8Nepsi8S7xqjtO1pyItQ4kjOEJi5s3slsMXYZcmDRyzuhzfZmA3i0wehC3wI895pkMk7lDK3EIDsfODukmOHadR9IcFJ7Td5evvny7sfDodTyRmx9o_5KwFkWsZoLvyte2pbCI4i7O7XyMaCSUFYC7fLpdvzWbWMm34ceymfe", "width": 4032}], "place_id": "ChIJmU2rPZ2oQQ0RyJ8IPIWWr8c", "reference": "ChIJmU2rPZ2oQQ0RyJ8IPIWWr8c", "scope": "GOOGLE", "types": ["locality", "political"], "vicinity": "Robledo de Chavela"}, {"business_status": "OPERATIONAL", "geometry": {"location": {"lat": 40.5004809, "lng": -4.237308200000001}, "viewport": {"northeast": {"lat": 40.5016640302915, "lng": -4.2358208197085}, "southwest": {"lat": 40.4989660697085, "lng": -4.238518780291503}}}, "icon": "https://maps.gstatic.com/mapfiles/place_api/icons/v1/png_71/lodging-71.png", "icon_background_color": "#909CE1", "icon_mask_base_uri": "https://maps.gstatic.com/mapfiles/place_api/icons/v2/hotel_pinlet", "international_phone_number": "+34 918 98 15 30", "name": "Hotel Restaurante Rincón de Traspalacio", "photos": [{"height": 4032, "html_attributions": ["<a href=\"https://maps.google.com/maps/contrib/105708187545181825816\">Juan S. Martínez de la Peña</a>"], "photo_reference": "AWn5SU4tpT-JtiKWyqHAjbJxiUnhxBxiJh9n6zBerN_O5aUNllr8HxBgKnYhEr4Ny9c3EadTijDNNH8mLs9O6Mc1jOYwAdEm3WF6lGfkscwF8hObo4Z1m25uszxntDVGRM2aryAk1MTWYaATD6Vjr1mLLgJjk4efyk-JU3ri9-Zneff8QpA0TUVISAvvsAQAUr3r4xJsA4WNsboMtegtY_ckARVvYKU5CXbnrtEkUINYqJXsx4YmTilfjTeC1tZHnocgw3G3rUpomkK-YHxat-Ii38n9XWlNldHvMeR5V2RQFqWe4K8hFE-p56houpEMEEMNR4LBSHUk02QO40-CyYCJdcRnwZFNi0WQmgxQSIwULz1n7ofn9rFCUj7M_BIeQ0PZ2imMiY0dKKMuxFu2LxNWD5_XuqbSmOgBIRAEPYJxPP1w_-eH_qNthjUJ-DDcMh-1mTxnm6uNuXZv9HZlFQcINlG7hGJjWVQn6FYNfDpps3UyrdomLbIx4vstJZ1EAX9KL-00weKDo-WAOmhdp29-WKBK30DGUm4oUyfCpHU305GL5u-hog2nsxkUxQo4lbUrNKo6WFEz54jtDa6nkVBGv8bRHAADGUcqq7tjMFsj6j5Vu6XkwN7V8WsfnpYsXvGStiOOXzhn", "width": 3024}], "place_id": "ChIJn3zqlZ6oQQ0RC0wnhphxK8E", "plus_code": {"compound_code": "GQ27+53 Robledo de Chavela, Spain", "global_code": "8CGQGQ27+53"}, "rating": 4.2, "reference": "ChIJn3zqlZ6oQQ0RC0wnhphxK8E", "scope": "GOOGLE", "types": ["bar", "lodging", "restaurant", "food", "point_of_interest", "establishment"], "user_ratings_total": 388, "vicinity": "Calle Traspalacio, 24, Robledo de Chavela"}, {"business_status": "OPERATIONAL", "geometry": {"location": {"lat": 40.51086549999999, "lng": -4.2576256}, "viewport": {"northeast": {"lat": 40.51229678029149, "lng": -4.256304469708497}, "southwest": {"lat": 40.50959881970849, "lng": -4.259002430291502}}}, "icon": "https://maps.gstatic.com/mapfiles/place_api/icons/v1/png_71/lodging-71.png", "icon_background_color": "#909CE1", "icon_mask_base_uri": "https://maps.gstatic.com/mapfiles/place_api/icons/v2/hotel_pinlet", "international_phone_number": "+34 918 98 15 62", "name": "Los Cinco Enebros", "photos": [{"height": 576, "html_attributions": ["<a href=\"https://maps.google.com/maps/contrib/112303886779331897749\">Los Cinco Enebros</a>"], "photo_reference": "AWn5SU6u4Z6PuujigY01Fzc3T4m53nO0C_XI6osQueqhCbXl1-twyx9nO_SqZMMUM52iuS9jojZYkP2it8DtajsUVZTmgAxZ9v_X_hWjajYYdNHuVz3f7_wB4GaI1p1Logif0qGF3jurqQokvz7RMt_z2SPDyR8madH4e7Vaz-S-d9yEjGv60HfhByta09_sAgJ4SxH8soo1JndUbKrwrkZeHEeiIxUCdmOy0HJ_TRnO5HrAkWD2wGe9Pnbw-L92qUQg0NWo-7fEnSoS14uVwjlEkvC5ZEjBNobrEg_26u6_q_uRtTHgxs8usgaf-n129IDA5b2lFyvTV1U", "width": 1024}], "place_id": "ChIJ3-sUuoyoQQ0RMmADMnlV5TY", "plus_code": {"compound_code": "GP6R+8W Robledo de Chavela, Spain", "global_code": "8CGQGP6R+8W"}, "rating": 4.5, "reference": "ChIJ3-sUuoyoQQ0RMmADMnlV5TY", "scope": "GOOGLE", "types": ["spa", "lodging", "point_of_interest", "establishment"], "user_ratings_total": 788, "vicinity": "Calle de Almenara, 33, Robledo de Chavela"}, {"business_status": "OPERATIONAL", "geometry": {"location": {"lat": 40.4985441, "lng": -4.240799}, "viewport": {"northeast": {"lat": 40.49981933029149, "lng": -4.239392969708498}, "southwest": {"lat": 40.4971213697085, "lng": -4.242090930291503}}}, "icon": "https://maps.gstatic.com/mapfiles/place_api/icons/v1/png_71/shopping-71.png", "icon_background_color": "#4B96F3", "icon_mask_base_uri": "https://maps.gstatic.com/mapfiles/place_api/icons/v2/shopping_pinlet", "international_phone_number": "+34 918 99 52 82", "name": "Robledauto", "opening_hours": {"open_now": false}, "photos": [{"height": 1920, "html_attributions": ["<a href=\"https://maps.google.com/maps/contrib/103233943723551864210\">Santiago giraldo cardona</a>"], "photo_reference": "AWn5SU7wFnzLuOphbN_4OOYh-o3I3PnJy5Ef3pGyTLVC9Bu7-0FLGuVIge5SsArsKBBy5KLxIUq1xfE828jwRlcqXi5RY0vz4yjH0AvHJ5ACNnAIBJEC-yMsdTtCtaMllipqjTiSBw0SxNme8e4nh2K7NdLr-ync_0T5TCZGrOxuN3B3mQ69IwT4YG1X9JmIuF8ABoPoqnI9nO8tmkKzg5ACnd0P5s6pxI6PwDIOOOVS3-87nHeGceafD32B-NoT9e73F2B3sZTEQUglKUavoHj6ET7RM_Y9Lb4fpZWK6DWJb4C_sKtq6ailqZL2ZUTjwzy7Fcccyfsp0IMUxo__EpZODf6IIrStp1LbatLVakNviLcgCgw4sGmdV0Ewx0zRabXikQa9Cse0EHEPPiZdKG-nTxtaf8vK86c8rFMKI8f3dQhWsz_W6t6DAKtB4AeA5TPAg_6cgiuK-ERd11UQkvGItLzN6q5_SdCkJ7lJaWctVE9i56QWSzZVH5wdb2AcFN91Pfick4uYudymrD7WtvIY11bXxBa0gnakCYzJ-gJGIAQeBcZdmSUBKwy5l0kjEmVK9WiwnnBvfvi9NEvtQWXJCJcb_yqGDImCcSWWb_4N0RGLuKDVtEowtnDBNsBXkU3QSGcUc5vB", "width": 1080}], "place_id": "ChIJAUzl_JioQQ0RozctCoc1z-w", "plus_code": {"compound_code": "FQX5+CM Robledo de Chavela, Spain", "global_code": "8CGQFQX5+CM"}, "rating": 4.2, "reference": "ChIJAUzl_JioQQ0RozctCoc1z-w", "scope": "GOOGLE", "types": ["car_wash", "car_dealer", "car_repair", "store", "point_of_interest", "establishment"], "user_ratings_total": 93, "vicinity": "Calle Miguel de Unamuno, 10-12, Robledo de Chavela"}, {"business_status": "OPERATIONAL", "geometry": {"location": {"lat": 40.5265772, "lng": -4.259298899999999}, "viewport": {"northeast": {"lat": 40.5278614302915, "lng": -4.258035619708498}, "southwest": {"lat": 40.5251634697085, "lng": -4.260733580291503}}}, "icon": "https://maps.gstatic.com/mapfiles/place_api/icons/v1/png_71/lodging-71.png", "icon_background_color": "#909CE1", "icon_mask_base_uri": "https://maps.gstatic.com/mapfiles/place_api/icons/v2/hotel_pinlet", "international_phone_number": "+34 634 59 31 13", "name": "Casa de Alannis", "photos": [{"height": 3072, "html_attributions": ["<a href=\"https://maps.google.com/maps/contrib/110912754824051027168\">LDominguez</a>"], "photo_reference": "AWn5SU7UbQPxG6mTFD6DGPa1T32UqXVKRZWieExGnk5A9OJMe4NoPG4VkCAy36owz1iuJwLYUpLx46zUrKqu3g6ak0QiR0xcgIS8vQMzsjVddcTnaOuLHtyWKCYpzJP2OTVYwLIwC_xpG6R2y24Iis61fefecvAnWpAa177lrXfe_n-OfQduAk446MmRYuM5GMjCbtHDqeORDRSaOB3erVB7XKbpxKaW_p61VB1oFLF8JFnIOZ_Pj_IUG9aBT5rlXYoH7V3hD9lRCAD8Yir5UECJgBEzuIWCLFIxQta0P_p9cIj9BaSMI1DMT80yqZ2EWiuEcXfQR7Vwm28ErcjDH6UK4sL2-M3fOtIOti_CJwiuRCu8MY1v6wZMhJ0nSXsWAxHd_V2mfsfJJZT3ivUsusG9Ufep9hn3X9BYvQL1vpprf-5i3zjuqlmUIjnS-BLrqBWORKG5BA66AlmW37miyB3DfJw-Cvdc1FqIjcrvktBgZhVKhBoxwpi8OIp0o7iv_hv0k6J-iE2sI2vMYm8bOxGRqAnIHD5zDdNXOBVNye5Vt4Xl6CgobGSkOhkrTb8vqFcK8shl4JfCCEuNJXh8qHYDGXmXeNhKP14PzICN5f6jWnxpwqcCICvElzVVosXykpM-", "width": 4080}], "place_id": "ChIJ41zYpESoQQ0R-UqnLNIpTEA", "plus_code": {"compound_code": "GPGR+J7 La Estación, Spain", "global_code": "8CGQGPGR+J7"}, "rating": 4, "reference": "ChIJ41zYpESoQQ0R-UqnLNIpTEA", "scope": "GOOGLE", "types": ["lodging", "point_of_interest", "establishment"], "user_ratings_total": 22, "vicinity": "Calle del Aguila, 410, número 16, La Estación"}, {"business_status": "OPERATIONAL", "geometry": {"location": {"lat": 40.4991645, "lng": -4.238516300000001}, "viewport": {"northeast": {"lat": 40.50054803029149, "lng": -4.237251919708498}, "southwest": {"lat": 40.49785006970849, "lng": -4.239949880291503}}}, "icon": "https://maps.gstatic.com/mapfiles/place_api/icons/v1/png_71/generic_business-71.png", "icon_background_color": "#7B9EB0", "icon_mask_base_uri": "https://maps.gstatic.com/mapfiles/place_api/icons/v2/generic_pinlet", "international_phone_number": "+34 918 99 50 10", "name": "Hermanos Barbarena, S.l.", "opening_hours": {"open_now": false}, "photos": [{"height": 2448, "html_attributions": ["<a href=\"https://maps.google.com/maps/contrib/111431222532452723989\">Hermanos Barbarena, S.l.</a>"], "photo_reference": "AWn5SU7Y9jixWuY56VEhpSY9TEW-2pk3Uz6pI3dXwTkRalr2oI2HpOAVDPc4wxyuI_yLHXdVBBw1W1FzhXr2CYZmxelJrIJDJMUd4SoEa3yW3dDGfqJgVKkX3cfZP4abISqxToFlsKG-ByzBDWBQCM31mC85ZitB1p7cV0pGFOjMffzKc4_eNW-cqypaW-11xVkwil1LzuCPfZnngks-2iorcH2O6ARtVR-zaoSO0wtP2c53SaysBu11kyxUl_pSf7KM0rTvAkaBrkoAAIDca3xiDFITZu2emJAtmFJQnEbcIkOqPldZhmf44byTpiU4-26Uz5FgKjVynX4", "width": 3264}], "place_id": "ChIJOZ6mKZmoQQ0RM_z_D-yryis", "plus_code": {"compound_code": "FQX6+MH Robledo de Chavela, Spain", "global_code": "8CGQFQX6+MH"}, "rating": 4.1, "reference": "ChIJOZ6mKZmoQQ0RM_z_D-yryis", "scope": "GOOGLE", "types": ["hardware_store", "store", "point_of_interest", "establishment"], "user_ratings_total": 62, "vicinity": "Avenida de la Constitución, 23, Robledo de Chavela"}, {"business_status": "OPERATIONAL", "geometry": {"location": {"lat": 40.5014157, "lng": -4.2370803}, "viewport": {"northeast": {"lat": 40.5027382802915, "lng": -4.235707119708498}, "southwest": {"lat": 40.5000403197085, "lng": -4.238405080291503}}}, "icon": "https://maps.gstatic.com/mapfiles/place_api/icons/v1/png_71/generic_business-71.png", "icon_background_color": "#7B9EB0", "icon_mask_base_uri": "https://maps.gstatic.com/mapfiles/place_api/icons/v2/generic_pinlet", "international_phone_number": "+34 918 99 56 60", "name": "HERCARO 2007 S.L.", "opening_hours": {"open_now": false}, "place_id": "ChIJbzaiN5yoQQ0RkMJbuxaAKtM", "plus_code": {"compound_code": "GQ27+H5 Robledo de Chavela, Spain", "global_code": "8CGQGQ27+H5"}, "reference": "ChIJbzaiN5yoQQ0RkMJbuxaAKtM", "scope": "GOOGLE", "types": ["point_of_interest", "establishment"], "vicinity": "Paseo de los Álamos, 23, Robledo de Chavela"}, {"business_status": "OPERATIONAL", "geometry": {"location": {"lat": 40.4975033, "lng": -4.239884099999999}, "viewport": {"northeast": {"lat": 40.49888618029149, "lng": -4.238600919708499}, "southwest": {"lat": 40.49618821970849, "lng": -4.241298880291503}}}, "icon": "https://maps.gstatic.com/mapfiles/place_api/icons/v1/png_71/generic_business-71.png", "icon_background_color": "#7B9EB0", "icon_mask_base_uri": "https://maps.gstatic.com/mapfiles/place_api/icons/v2/generic_pinlet", "international_phone_number": "+34 650 41 75 90", "name": "Pinturas y Reformas DENKO", "photos": [{"height": 809, "html_attributions": ["<a href=\"https://maps.google.com/maps/contrib/101785062161059317548\">Pinturas y Reformas DENKO</a>"], "photo_reference": "AWn5SU5shSceBs6TS7ecOAWGfZo8ulZCv-BV4KGMSnADzgsqcOOfOpuW5LYO6tTxREIRt_i5RSzGbb52RAr6Zh7ckhKjecmloZd62IenAxtuZNpUJNvKJKV00ytNNiYbu2qpih-QLjRYopJ_IUuCfIrigL8LH3ZYiljBc2xuDd-BNQG724TOHtj4pa3Sp5cJQQBM-yc6emGFVFtvK0OZuS8R5QSFSz4ECsebMEwHst8sPyX3tYcpyauyZNNL-7gOM78EJtB6j7rHqQjJntt6dDGGJhHdC1fGcABMsh_A3sgHonNXOvfj5br1m8k_Hx54Y5EeJO1jk-8_", "width": 1080}], "place_id": "ChIJE_EJ6pioQQ0Rd3gfrRiQgZE", "plus_code": {"compound_code": "FQX6+22 Robledo de Chavela, Spain", "global_code": "8CGQFQX6+22"}, "rating": 5, "reference": "ChIJE_EJ6pioQQ0Rd3gfrRiQgZE", "scope": "GOOGLE", "types": ["point_of_interest", "establishment"], "user_ratings_total": 1, "vicinity": "Calle Santo Tomás, 15, Robledo de Chavela"}, {"business_status": "OPERATIONAL", "geometry": {"location": {"lat": 40.4985073, "lng": -4.2342093}, "viewport": {"northeast": {"lat": 40.4998833302915, "lng": -4.232822319708498}, "southwest": {"lat": 40.4971853697085, "lng": -4.235520280291501}}}, "icon": "https://maps.gstatic.com/mapfiles/place_api/icons/v1/png_71/school-71.png", "icon_background_color": "#7B9EB0", "icon_mask_base_uri": "https://maps.gstatic.com/mapfiles/place_api/icons/v2/school_pinlet", "international_phone_number": "+34 918 99 83 13", "name": "CEIP Nuestra Señora de Navahonda", "place_id": "ChIJt_0MTZ6oQQ0RKmqpPtT7ui8", "plus_code": {"compound_code": "FQX8+C8 Robledo de Chavela, Spain", "global_code": "8CGQFQX8+C8"}, "reference": "ChIJt_0MTZ6oQQ0RKmqpPtT7ui8", "scope": "GOOGLE", "types": ["school", "point_of_interest", "establishment"], "vicinity": "Calle Elisadero, 25, Robledo de Chavela"}, {"business_status": "OPERATIONAL", "geometry": {"location": {"lat": 40.51275280000001, "lng": -4.2428082}, "viewport": {"northeast": {"lat": 40.51407318029151, "lng": -4.241504469708498}, "southwest": {"lat": 40.51137521970851, "lng": -4.244202430291502}}}, "icon": "https://maps.gstatic.com/mapfiles/place_api/icons/v1/png_71/generic_business-71.png", "icon_background_color": "#7B9EB0", "icon_mask_base_uri": "https://maps.gstatic.com/mapfiles/place_api/icons/v2/generic_pinlet", "international_phone_number": "+34 918 99 82 00", "name": "Diegraphiks s.c.", "opening_hours": {"open_now": false}, "place_id": "ChIJfWhNI4aoQQ0Rng4KQZ96rZE", "plus_code": {"compound_code": "GQ74+4V Robledo de Chavela, Spain", "global_code": "8CGQGQ74+4V"}, "reference": "ChIJfWhNI4aoQQ0Rng4KQZ96rZE", "scope": "GOOGLE", "types": ["point_of_interest", "establishment"], "vicinity": "Urb, La Suiza Española, c/ Berna 61 C, Robledo de Chavela"}, {"business_status": "OPERATIONAL", "geometry": {"location": {"lat": 40.5027388, "lng": -4.2393501}, "viewport": {"northeast": {"lat": 40.50408888029149, "lng": -4.238010319708498}, "southwest": {"lat": 40.50139091970849, "lng": -4.240708280291502}}}, "icon": "https://maps.gstatic.com/mapfiles/place_api/icons/v1/png_71/generic_business-71.png", "icon_background_color": "#7B9EB0", "icon_mask_base_uri": "https://maps.gstatic.com/mapfiles/place_api/icons/v2/generic_pinlet", "international_phone_number": "+34 699 29 14 34", "name": "Anemgar Construcciones SL", "opening_hours": {"open_now": false}, "photos": [{"height": 814, "html_attributions": ["<a href=\"https://maps.google.com/maps/contrib/112368977388003055200\">Anemgar Construcciones SL</a>"], "photo_reference": "AWn5SU6jfwdatmUX-zQ8Mw3zD7BeAMbQiE43JRi_M8cg4P6rcn5QNtxFhyGy88nmoucOSKSJkdSX9-Ik7HjQgcxO6TdTHGSFCkJS6oCXMhHtnnxStiqdtXDWzTw-utDkFb3_8XXSj4bnIFySXbgIjWJE8-afb5fhVXMjdEh0IUG0P4UFtxnZG7CSaQC4MMWwDr3luDzP2Yic1E2Y6XRc-QvcXfx0k2nErAAmzHMoBP5ktn9NdE-Ls5CuRUy1l7o7W_Q2WowYd3t8wcudqUCZ8DP9UNpF7CJzTbOTfIolfqWZSYm0EVCjKVaUUQdvMSp1XIkTLh4l3zsP", "width": 1942}], "place_id": "ChIJHchMk5uoQQ0Roth85Foy4sA", "plus_code": {"compound_code": "GQ36+37 Robledo de Chavela, Spain", "global_code": "8CGQGQ36+37"}, "rating": 5, "reference": "ChIJHchMk5uoQQ0Roth85Foy4sA", "scope": "GOOGLE", "types": ["general_contractor", "plumber", "painter", "electrician", "point_of_interest", "establishment"], "user_ratings_total": 2, "vicinity": "Calle de, Calle Emilio Castelar, 51, bajo izqu, Robledo de Chavela"}, {"business_status": "OPERATIONAL", "geometry": {"location": {"lat": 40.4990358, "lng": -4.2355576}, "viewport": {"northeast": {"lat": 40.5004352302915, "lng": -4.234171369708498}, "southwest": {"lat": 40.4977372697085, "lng": -4.236869330291502}}}, "icon": "https://maps.gstatic.com/mapfiles/place_api/icons/v1/png_71/school-71.png", "icon_background_color": "#7B9EB0", "icon_mask_base_uri": "https://maps.gstatic.com/mapfiles/place_api/icons/v2/school_pinlet", "international_phone_number": "+34 918 98 15 26", "name": "Biblioteca Municipal Antoniorrobles", "place_id": "ChIJXy42wJ6oQQ0R5RkTuas5Ccw", "plus_code": {"compound_code": "FQX7+JQ Robledo de Chavela, Spain", "global_code": "8CGQFQX7+JQ"}, "rating": 4, "reference": "ChIJXy42wJ6oQQ0R5RkTuas5Ccw", "scope": "GOOGLE", "types": ["library", "point_of_interest", "establishment"], "user_ratings_total": 6, "vicinity": "Calle Elisadero, 26, Robledo de Chavela"}, {"business_status": "OPERATIONAL", "geometry": {"location": {"lat": 40.5150538, "lng": -4.2492238}, "viewport": {"northeast": {"lat": 40.51637328029149, "lng": -4.247860319708498}, "southwest": {"lat": 40.51367531970849, "lng": -4.250558280291502}}}, "icon": "https://maps.gstatic.com/mapfiles/place_api/icons/v1/png_71/generic_business-71.png", "icon_background_color": "#7B9EB0", "icon_mask_base_uri": "https://maps.gstatic.com/mapfiles/place_api/icons/v2/generic_pinlet", "international_phone_number": "+34 913 20 63 37", "name": "AliveArquitectura", "opening_hours": {"open_now": false}, "place_id": "ChIJPVvGXoqoQQ0RXTXWzuJbQVU", "plus_code": {"compound_code": "GQ82+28 La Estación, Spain", "global_code": "8CGQGQ82+28"}, "rating": 3.5, "reference": "ChIJPVvGXoqoQQ0RXTXWzuJbQVU", "scope": "GOOGLE", "types": ["general_contractor", "point_of_interest", "establishment"], "user_ratings_total": 4, "vicinity": "Calle de Lausana, 138, La Estación"}, {"business_status": "OPERATIONAL", "geometry": {"location": {"lat": 40.5008583, "lng": -4.2382127}, "viewport": {"northeast": {"lat": 40.5022559802915, "lng": -4.236830769708497}, "southwest": {"lat": 40.49955801970851, "lng": -4.239528730291502}}}, "icon": "https://maps.gstatic.com/mapfiles/place_api/icons/v1/png_71/civic_building-71.png", "icon_background_color": "#7B9EB0", "icon_mask_base_uri": "https://maps.gstatic.com/mapfiles/place_api/icons/v2/civic-bldg_pinlet", "international_phone_number": "+34 679 10 01 00", "name": "Policía Local", "photos": [{"height": 1184, "html_attributions": ["<a href=\"https://maps.google.com/maps/contrib/115055383090176917276\">Miguel angel Manzaneque gallego</a>"], "photo_reference": "AWn5SU6VwbUobXPLgJ570nrC9fz8ppJrSvXBmAT1iD149aBDVQxzX61_91C3UB2euLViADny8KTsmB8oRNwJxlP_KB5ukehvDSl-WIBUl5tgZYo3kJbZxZeXXXk-xoJi7sPyZLuUCGeTxFAuoX4xUAgbO3AfAnsyh7mvFyH5SL85rsKEfW0vE7uUP3XmOLtsLicgeqOVUj548WycO9PndIFEAK3Sdsed5vdQU-NBG6YhAVNppXFUvguabPrfVdpNzkA3OamqSPyPDSIsOBOxGD7t7XMuQR7Iug-biCEw0bEehY9A75y7UFvLqAgJ9WyIXxXt9KAXRpNwYHR2OBVkqnHK3ubTfEts1318V-WD-Ia2R_mlMks091stEEUtES5xyHk84t5xcRgXqhzq1mREWyD8hY8gESTOZArDqtFtWPiqHjTz5ni4iJkhvwciFSiVIlpW56sFPA1b0cXZUDs00dAUxtX4ki3WzlRyTgnjDCuDuf7gUncFJVtOomvodBMO8_YoftnUhPGx7Jv1CVTPb5RbIzJDfoQT_nuivvE_2b3cx4E0JKe5he7JazbXcI8p2KFgOBjaUzPFs7xtDSaeEIlV_pEJyRLdmO-jwzihlfXplo8KQLmof1jT8R4QfK9cVxrSjp-KdOrE", "width": 2560}], "place_id": "ChIJXWArA5yoQQ0RjGcSd-HRb7k", "plus_code": {"compound_code": "GQ26+8P Robledo de Chavela, Spain", "global_code": "8CGQGQ26+8P"}, "reference": "ChIJXWArA5yoQQ0RjGcSd-HRb7k", "scope": "GOOGLE", "types": ["police", "point_of_interest", "establishment"], "vicinity": "Plaza de España, 1, Robledo de Chavela"}, {"business_status": "OPERATIONAL", "geometry": {"location": {"lat": 40.5003694, "lng": -4.238005100000001}, "viewport": {"northeast": {"lat": 40.50171963029149, "lng": -4.236671619708497}, "southwest": {"lat": 40.49902166970849, "lng": -4.239369580291502}}}, "icon": "https://maps.gstatic.com/mapfiles/place_api/icons/v1/png_71/shopping-71.png", "icon_background_color": "#4B96F3", "icon_mask_base_uri": "https://maps.gstatic.com/mapfiles/place_api/icons/v2/shopping_pinlet", "name": "Kiosco Once", "opening_hours": {"open_now": false}, "photos": [{"height": 4032, "html_attributions": ["<a href=\"https://maps.google.com/maps/contrib/100349536285627811286\">El Troll de Robledo</a>"], "photo_reference": "AWn5SU4j3zPO8Ou0KZc1g2yFaA9fHe8bBzk690_DwaOMgNIzjJiDXphze5OcvXjs4zDcUortBEuo2X7umGKbosbPGowzIIvWHPj5K5nNrTFqrPj-9lVysJVsqOmS0Unnn3_bI2YJ253I6C4utj0JGBzzppyLWAVPgR3Ifac-8PFCWgfLQ-IcKLWPbGoBExPMyMgsXnqnsJC1fTyQKhdG29lmhIxbNRVx1nK5EcohlaI4Alg4J0PbVfqROMQ1SIa1BTDF5rmj2LGZxg60ZOmf1HrxD0ID6NkyjElH_39GHyPs_Mtaar6bQCpeUB836LaRl5aXRcOcjWkQUKneZ6sOBOxXglLFG0KYMaINR7Hr1-H-D6S-rTZG6h1GiBHMrmVqIYYFxnfJlmXflfxg13wJOn9F8enmyCu0DcBPbahs_yuxZ5JEmdD3rSFk9MiVcLa-rXU3fsnU-sJbvsCrwIhammW4ITJ4lndXKy2SpJNYWQJ5fajeQlmhjb793Ud24n4dkiVjIqnDmLnqL6ogE1z6AT4rnIH0gi92AkKY-c5OXRoD1is6wPBMo-SSkmFAYjpOb_Q1zzzj30GbrO5m-E6VSLIFKHF1fSJxcfr0NWtSRs1WfcHkZUYa35Y0qQgCIPtXyNTYXB2i-UAS", "width": 2268}], "place_id": "ChIJXXu3TJmoQQ0ROFt-r0d8kuc", "plus_code": {"compound_code": "GQ26+4Q Robledo de Chavela, Spain", "global_code": "8CGQGQ26+4Q"}, "rating": 4, "reference": "ChIJXXu3TJmoQQ0ROFt-r0d8kuc", "scope": "GOOGLE", "types": ["store", "point_of_interest", "establishment"], "user_ratings_total": 5, "vicinity": "Plaza Piedita, Robledo de Chavela"}, {"business_status": "OPERATIONAL", "geometry": {"location": {"lat": 40.5017523, "lng": -4.2389523}, "viewport": {"northeast": {"lat": 40.5030945302915, "lng": -4.237594469708497}, "southwest": {"lat": 40.5003965697085, "lng": -4.240292430291501}}}, "icon": "https://maps.gstatic.com/mapfiles/place_api/icons/v1/png_71/worship_general-71.png", "icon_background_color": "#7B9EB0", "icon_mask_base_uri": "https://maps.gstatic.com/mapfiles/place_api/icons/v2/worship_christian_pinlet", "name": "Iglesia de Robledo de Chavela", "photos": [{"height": 1600, "html_attributions": ["<a href=\"https://maps.google.com/maps/contrib/115202754861856814258\">Pedro Garcia</a>"], "photo_reference": "AWn5SU4SxcEIRBiHWcsaEfXsksdC1VNw80hoqR2Fg8EepDvfG6Qs7tcOqhVeFMw28vP-e7ecQK3TQ_7ERhopZIHwK7uRnegHiHExP_81OSHLD6f8sbraYZyj5Ii2DMuhnRhciRfnhW0vx5Vf-OAu315su9JE0tsEZujfDoB-uk3lBZ1bUmWW5BmtxLN5yIMrKRr4T4usybxh07NhBM5gQCqnjHYsl9DlqYNZpS38N9MtGGwrp2BoAN1XYzTDZYreIVEwKbqqC8PNLXo85JvSYGa4mij1jemfH9c18ZpZvhzEfHyiK8Na9yqZysvnv3uMfSiAdey-A9YYlXCJCek1ar-o8hQyZ-I1Ji6prIW4-BCh4YbAx08V4X4P4IUCgq806mRj8-2AINLruN1CJGaiIau2CPDbItycranweDheS_betZgIYmRjQTwad32vbEFS6w9F_WxCxsbHspu2kYoXuEhCxhycHtiIWl90XJTGw8-NwmRTrKY8fsNQBSPa7pldVe4vgXJI-kDBg8R585aeT4CJa6WlwcO5caeMfP36CWsOXSu7YqvlAGi6Ao17xZYZ4w-NHa-867KWJO2l5SfSUQHxlupIWJwYZrhtZETkInRv48RXSNAGDdnjB8pUjyTN7AzPn4ubtg", "width": 1200}], "place_id": "ChIJiSO8-puoQQ0RbVMoDJ5rFf4", "plus_code": {"compound_code": "GQ26+PC Robledo de Chavela, Spain", "global_code": "8CGQGQ26+PC"}, "rating": 4.6, "reference": "ChIJiSO8-puoQQ0RbVMoDJ5rFf4", "scope": "GOOGLE", "types": ["church", "place_of_worship", "point_of_interest", "establishment"], "user_ratings_total": 78, "vicinity": "Plaza de la Iglesia, 2, Robledo de Chavela"}, {"business_status": "OPERATIONAL", "geometry": {"location": {"lat": 40.501672, "lng": -4.237414000000001}, "viewport": {"northeast": {"lat": 40.5030453302915, "lng": -4.236075119708497}, "southwest": {"lat": 40.5003473697085, "lng": -4.238773080291502}}}, "icon": "https://maps.gstatic.com/mapfiles/place_api/icons/v1/png_71/restaurant-71.png", "icon_background_color": "#FF9E67", "icon_mask_base_uri": "https://maps.gstatic.com/mapfiles/place_api/icons/v2/restaurant_pinlet", "international_phone_number": "+34 649 41 81 09", "name": "RESTAURANTE *EL VIEJO CINE*", "opening_hours": {"open_now": false}, "photos": [{"height": 968, "html_attributions": ["<a href=\"https://maps.google.com/maps/contrib/106992828572082740108\">RESTAURANTE *EL VIEJO CINE*</a>"], "photo_reference": "AWn5SU59jf5EcYv6xoyC2CKN1kx9Ea6DaHwOiiL1Fk4j36pq7HzkmbT0axe-fbw2cWbDJB6s5fY3UA934OsoeFyLJnGhihakQXT6lk7qNHkycxLvxkyUz-2pzElKanJqlhUfxDrQIrUoWosCFgewrpZqffl2pq_HwBlAkxVtcOpXOKCjKDvWSuVqyVhNIBKmVd91kE3gaFPIDUMK5UIvIYe2u1y0BjCvCpzfGfN5oRfedQO0SOKp4DqsjG4AT_9nUj8djiweLacx5vQO-mqjaBMg3OMb5hhzB6ZSmsryWmxDewwo5dOdQ_2964JnExGfjmkP1iwMVjw2NgQ", "width": 2046}], "place_id": "ChIJbTExGZyoQQ0RiAKJm0D8AF4", "plus_code": {"compound_code": "GQ27+M2 Robledo de Chavela, Spain", "global_code": "8CGQGQ27+M2"}, "price_level": 1, "rating": 4.8, "reference": "ChIJbTExGZyoQQ0RiAKJm0D8AF4", "scope": "GOOGLE", "types": ["restaurant", "movie_theater", "food", "point_of_interest", "establishment"], "user_ratings_total": 913, "vicinity": "Plaza Bartolomé Murillo, 4, Robledo de Chavela"}, {"business_status": "OPERATIONAL", "geometry": {"location": {"lat": 40.5008832, "lng": -4.239619299999999}, "viewport": {"northeast": {"lat": 40.5022297302915, "lng": -4.238270969708497}, "southwest": {"lat": 40.4995317697085, "lng": -4.240968930291501}}}, "icon": "https://maps.gstatic.com/mapfiles/place_api/icons/v1/png_71/generic_business-71.png", "icon_background_color": "#7B9EB0", "icon_mask_base_uri": "https://maps.gstatic.com/mapfiles/place_api/icons/v2/generic_pinlet", "international_phone_number": "+34 629 95 19 97", "name": "Hermanos Manzano", "opening_hours": {"open_now": true}, "photos": [{"height": 716, "html_attributions": ["<a href=\"https://maps.google.com/maps/contrib/114804576442703344772\">Hermanos Manzano</a>"], "photo_reference": "AWn5SU4bQsQQP-fV9v4sSVTa5Iw6yI8VajaPkoJGcGsnxRXL6ZhvLGpUMkVcxyLU-NXCrI2L3V5TaURA8M1htzsg2tkJ0u5ns-6SJbmn0j8KuIBjRsJYkHdVFpFa7aqQlLbOHIeZMLO2OedRCDAvPsfoIhfPa3MWh1LWGTq-z_fpcx66AnsD17Dh6QX1S__LBYOHGptDD0U-fuEZ3rf-v_vdu4JCcX8YNSaaW_f4cE1_GL0d94rJwVjt2MNepHxX-MR0MkTvFFODtvqd-_AWxClqB5xfqH7j9859fMfmzjTWLIpHQaoTlxOpGuXuuach_p9b-gKjl7U7rUk", "width": 1280}], "place_id": "ChIJVbjIXZmoQQ0RGzsfprASVoE", "plus_code": {"compound_code": "GQ26+95 Robledo de Chavela, Spain", "global_code": "8CGQGQ26+95"}, "rating": 5, "reference": "ChIJVbjIXZmoQQ0RGzsfprASVoE", "scope": "GOOGLE", "types": ["point_of_interest", "establishment"], "user_ratings_total": 3, "vicinity": "Calle Sagasta, 24, Robledo de Chavela"}, {"business_status": "OPERATIONAL", "geometry": {"location": {"lat": 40.5019211, "lng": -4.2371789}, "viewport": {"northeast": {"lat": 40.5032594802915, "lng": -4.235867619708498}, "southwest": {"lat": 40.5005615197085, "lng": -4.238565580291502}}}, "icon": "https://maps.gstatic.com/mapfiles/place_api/icons/v1/png_71/generic_business-71.png", "icon_background_color": "#7B9EB0", "icon_mask_base_uri": "https://maps.gstatic.com/mapfiles/place_api/icons/v2/generic_pinlet", "international_phone_number": "+34 671 19 25 73", "name": "PcMarquez Design", "opening_hours": {"open_now": false}, "place_id": "ChIJVyNqGJyoQQ0R_zcxjGfkvhU", "plus_code": {"compound_code": "GQ27+Q4 Robledo de Chavela, Spain", "global_code": "8CGQGQ27+Q4"}, "rating": 5, "reference": "ChIJVyNqGJyoQQ0R_zcxjGfkvhU", "scope": "GOOGLE", "types": ["point_of_interest", "establishment"], "user_ratings_total": 1, "vicinity": "Plaza Dos de Mayo, 4, Robledo de Chavela"}, {"geometry": {"location": {"lat": 40.5190874, "lng": -4.2543866}, "viewport": {"northeast": {"lat": 40.5296729605426, "lng": -4.238385704620806}, "southwest": {"lat": 40.50773447002241, "lng": -4.270073115036269}}}, "icon": "https://maps.gstatic.com/mapfiles/place_api/icons/v1/png_71/geocode-71.png", "icon_background_color": "#7B9EB0", "icon_mask_base_uri": "https://maps.gstatic.com/mapfiles/place_api/icons/v2/generic_pinlet", "name": "La Estación", "photos": [{"height": 2988, "html_attributions": ["<a href=\"https://maps.google.com/maps/contrib/106762751680076532835\">H. Elmer Huacho</a>"], "photo_reference": "AWn5SU57b5ReVO_bsLk36256-kKwcyFxZYF6OoWSrYMO1Ba6HG927jadAMlPify9muR28N-nUDEwBWLD_wrcC2xFGbmGg9PlCwpGebPQ9kMwNTg1_GWGfrYhgCHYNH7KAIJm2FSScOlpwl-ginwLvSUaJB1yngtaEvIQFFu_j0WkGLEpdRNfnpmD61Wr00W7JcskI7LTDy6abciGGrfD4cMR_y_fP6ZBD9fwmOU1HWE7YhzYCFS1LLUJcgNzNffVTdE3lZZv0Hjc2RGKl2lXfqPppq2tX2ETmekr2hc0ExNlQEuvxeK95ZCGKbemtlgwQ5YrsmnWT1PDi-0HbGQmnY3vmB6nSen9O5jpXcANs0md_-lfGK2KOWliv9AnxP8YZwOzq7ItOrXbbWq8JHWU0LqIoE2oe6wWN8QRUtySJo6cek14lXz4hKG2MDiqnJY2bf_-bK5txIT49AdKZwuqQnmFgcv_hVu52FhcGzrMPXIbaycxiltzutX_kh1yQDWZozXM7ASQ7wgvqFZT8S3E8WnG3y6UBCpMDcFx3TiYqisiF934mfWQIF0kpDcNLuVcKqjiCeun4tXt-MGcVyHQw49ykZ_HxnbSW0Qy9ONIksZ2jqqzipMxEKeC02eOvvDdXXmTBZrkVQ", "width": 5312}], "place_id": "ChIJN09DL16oQQ0RVUhmsTDucLw", "reference": "ChIJN09DL16oQQ0RVUhmsTDucLw", "scope": "GOOGLE", "types": ["locality", "political"], "vicinity": "La Estación"}]