[{"geometry": {"location": {"lat": 40.1044848, "lng": -3.4864498}, "viewport": {"northeast": {"lat": 40.10832626072985, "lng": -3.478586128516526}, "southwest": {"lat": 40.09388277814953, "lng": -3.497801422516456}}}, "icon": "https://maps.gstatic.com/mapfiles/place_api/icons/v1/png_71/geocode-71.png", "icon_background_color": "#7B9EB0", "icon_mask_base_uri": "https://maps.gstatic.com/mapfiles/place_api/icons/v2/generic_pinlet", "name": "Villaconejos", "photos": [{"height": 2080, "html_attributions": ["<a href=\"https://maps.google.com/maps/contrib/103446463928834320522\">Marian Rodriguez</a>"], "photo_reference": "AWn5SU7wWuNvj0tUEF2-mjRK8eGLyZWGhDl3Gck7u6kqOv-saLMnQV2wTUaATBHhfBx2j21j53UBjYUBLLa2sLkFThp7qfzmJcq03F7KQrph6k38lN9wlOn0ucFB0qWHK21h3-XhyFJnSYtjwq8yZGlU6LpkBNlWhGW7XkRnW9Aj6N3i1ArFQ6K-3cVg9nCjDRw4D_aaiO1rRMDyKS3a11aTKHB-P9b2WFnzFI3tmMsxf8QNHTOaFQLWh6LJXn3EiNmNIFB_zyAvIZ1nkJgC9b7dTktXqR0cy01MEs-vnV4L0oCKHEHsz69bh8kgGMN2D6ughhP8vF_b0C7V5Z9i_kBJne5pB78ckznr9T4IYE5SA9wIhfuWFDrNrj07IGDj4ejhBM4rEp_begSdXPdqDt7oxY9gTsLr5keJ9XUizoeZIzemm7UJ0WLEK96WP_z_jxh3xUVa1UbmVHnCrAiw_hIZNczWvALTTuExVqmQ97rGrUPlXKbh-KgyP5GTi-dcRpFde10zIYyBkkW3YIjUoyF6KaMliZFB-jeZpxE1weZUXdeylLStMmfecnbicd1hJZxp-uLsX8l0d1WUp-6G6uZ63YSiRB_4dE_ko3WgcmO7PTic9crWsglp2i8o3HfVoVairgwcoQ", "width": 4624}], "place_id": "ChIJD8tzAxISQg0RCo_1tVRSubI", "reference": "ChIJD8tzAxISQg0RCo_1tVRSubI", "scope": "GOOGLE", "types": ["locality", "political"], "vicinity": "Villaconejos"}, {"business_status": "OPERATIONAL", "geometry": {"location": {"lat": 40.10312349999999, "lng": -3.4827578}, "viewport": {"northeast": {"lat": 40.10448243029149, "lng": -3.481475319708498}, "southwest": {"lat": 40.10178446970849, "lng": -3.484173280291502}}}, "icon": "https://maps.gstatic.com/mapfiles/place_api/icons/v1/png_71/generic_business-71.png", "icon_background_color": "#7B9EB0", "icon_mask_base_uri": "https://maps.gstatic.com/mapfiles/place_api/icons/v2/generic_pinlet", "international_phone_number": "+34 686 53 98 89", "name": "Angel Sánchez Sánchez", "opening_hours": {"open_now": false}, "place_id": "ChIJxdCvcBISQg0RSUJmhko_nt0", "plus_code": {"compound_code": "4G38+6V Villaconejos, Spain", "global_code": "8CGR4G38+6V"}, "rating": 5, "reference": "ChIJxdCvcBISQg0RSUJmhko_nt0", "scope": "GOOGLE", "types": ["electrician", "point_of_interest", "establishment"], "user_ratings_total": 7, "vicinity": "Calle Hospital, 35, Villaconejos"}, {"business_status": "OPERATIONAL", "geometry": {"location": {"lat": 40.1017446, "lng": -3.4938313}, "viewport": {"northeast": {"lat": 40.1030280302915, "lng": -3.492357169708499}, "southwest": {"lat": 40.10033006970851, "lng": -3.495055130291502}}}, "icon": "https://maps.gstatic.com/mapfiles/place_api/icons/v1/png_71/generic_business-71.png", "icon_background_color": "#7B9EB0", "icon_mask_base_uri": "https://maps.gstatic.com/mapfiles/place_api/icons/v2/generic_pinlet", "international_phone_number": "+34 919 36 33 49", "name": "FRUTAS EL QUE FALTABA C-B", "opening_hours": {"open_now": false}, "photos": [{"height": 3333, "html_attributions": ["<a href=\"https://maps.google.com/maps/contrib/117573615698189455662\">Bolitas de melon</a>"], "photo_reference": "AWn5SU4kuWMLf5KpyUKCWlcyfrdvzKLedjeC9RTYLyG1QlKipfVGqamDu3FaedF3a8i3Ean4lcbYT0KjsBhAWKwCSnDEj3nLtSUPFC-aDtpdgCWgqCNUPKQK7t3RgZ61UZ0h-LjmfRXCdzV8YTUZV_Y71SpvZqJ7E5NQx1wpjBfV2wp-KXR_vlFJ-0zovGi5VGnLnOVsJpkT8wnjJhcff-_NfP-ERKVB9LIbD-FUs9gX0-F1qZyHk2aAU1rNu4dzz5KpRfo20jKWjgFY_qXx3ySiRBpSXy_l_iFNbjTjw-etG2DUsYkMX1HKyUvr9AvA5wvPBvKRaqf5gJ8rbZpGpyIECiTC2G_LgtchebbQx1XIfRr1Hwda0SGXBC-dXZHpEosOozz5CFuNUyenwIGr5U-zxO1t0eUOCzBh4diP_pvuwUExX4WGHbqdfArg0sG_bBLriD5Cska7HTN7HmFSsx-djDICZoDxgQrtpIEvooEKbX-xIAIoHnvElCagPysYxt2UsbQ0msZu2N3l01KFTbERzMhxeCPgi3KOL977fEwN1z3RLbebaa6GA7rSdxo7kjF2-S352hKiWzA6pB9cvnZBcZWr5gYiquga1xKaw-PiWJPThknJOM6JNQlZw7DXXEw11bq--w", "width": 5000}], "place_id": "ChIJHSYb3QQSQg0RGOn6-hZJmmw", "plus_code": {"compound_code": "4G24+MF Villaconejos, Spain", "global_code": "8CGR4G24+MF"}, "rating": 4.2, "reference": "ChIJHSYb3QQSQg0RGOn6-hZJmmw", "scope": "GOOGLE", "types": ["point_of_interest", "food", "establishment"], "user_ratings_total": 17, "vicinity": "C/ Camino Cooperativa, 10, Villaconejos"}, {"business_status": "OPERATIONAL", "geometry": {"location": {"lat": 40.1039959, "lng": -3.486586999999999}, "viewport": {"northeast": {"lat": 40.1053435802915, "lng": -3.485256819708498}, "southwest": {"lat": 40.1026456197085, "lng": -3.487954780291502}}}, "icon": "https://maps.gstatic.com/mapfiles/place_api/icons/v1/png_71/generic_business-71.png", "icon_background_color": "#7B9EB0", "icon_mask_base_uri": "https://maps.gstatic.com/mapfiles/place_api/icons/v2/generic_pinlet", "international_phone_number": "+34 918 93 85 51", "name": "Eurocaja Rural", "opening_hours": {"open_now": false}, "photos": [{"height": 1920, "html_attributions": ["<a href=\"https://maps.google.com/maps/contrib/105251327616044100373\">alicia s</a>"], "photo_reference": "AWn5SU76xJTAEcpVWkKEYU6GLWSOPFuuckzCF6PoN3PpK9Vu6l6WqHEgnEhdgDXiBuAC_92fazJYAXB54fwhkzqHI1tjx7-1FmB0gH4lmHgCS2OxKJxlO3tSiqFkC7BHYVsHye8rslCrrOE46NB9IDgUoBIVMmt1pgJDVG2MQpVWfGqtHWd4NyeGT-CX63Rldi815V6qmdxSZcXayM49axtQxK4_-IlQy86uptoc2r_HBWf_3hoeD1QXb9uswEstmTHOkX_3rn0TcbrIOMRH9Sy15B5U5b0aHY0WliXEZPBRBSdJWMecHr0x26NQV_vB79aGTYWD56ltf2ECOgT2M_1bPu4FgrIcIZ66Ak-Fxy2I1BecvCKTTSL-lThTljJyH1WnL-k32EHJjxVsabvqvrMzh7F6qrnhQrYCBxk8VijuonOUn2lKpepnSq99MSyB6yId78JSL0Hh5g1gsYuhXMD0cyEGS2U_H0ANfvp7FWtaGhx9xPM9YCJNmomNHqRIR_E1Cky9bnOHJSA6slvBvRxRCf1A7CcJAC9XwolBb5DWOu2p7G81v8CrXUwR0eqsyJzymlJrPGc9yQmUK2CQ7CLFzKA9qg2CmrA4Na0jjsxg-oFyhGNdaR2tiG4jaBR7cO5KLqxrWA", "width": 1080}], "place_id": "ChIJtfvwDBISQg0RuNQKk6RUyBk", "plus_code": {"compound_code": "4G37+H9 Villaconejos, Spain", "global_code": "8CGR4G37+H9"}, "rating": 3.7, "reference": "ChIJtfvwDBISQg0RuNQKk6RUyBk", "scope": "GOOGLE", "types": ["atm", "bank", "finance", "point_of_interest", "establishment"], "user_ratings_total": 6, "vicinity": "Calle de Pradillo, 1, Villaconejos"}, {"business_status": "OPERATIONAL", "geometry": {"location": {"lat": 40.1046418, "lng": -3.4865292}, "viewport": {"northeast": {"lat": 40.10593633029149, "lng": -3.485144319708498}, "southwest": {"lat": 40.10323836970849, "lng": -3.487842280291502}}}, "icon": "https://maps.gstatic.com/mapfiles/place_api/icons/v1/png_71/civic_building-71.png", "icon_background_color": "#7B9EB0", "icon_mask_base_uri": "https://maps.gstatic.com/mapfiles/place_api/icons/v2/civic-bldg_pinlet", "international_phone_number": "+34 918 94 01 34", "name": "Oficina Rural de Correos", "opening_hours": {"open_now": false}, "photos": [{"height": 1920, "html_attributions": ["<a href=\"https://maps.google.com/maps/contrib/105251327616044100373\">alicia s</a>"], "photo_reference": "AWn5SU6cMs-nxWW7COkOldkkAxBdjCLJT16HUjNNnXg1EPu86jneQlMvWlAONyprLWLxf_OpW7zYrUy2P_-v4zOebLYsilQyCqBgINP1UYM3K-iKyW7ING8GoPAgG6ZCqApZw3VM8lbLmxN4FOTd5mK3SG_p7PwNHkKwJW5y7dIepIPBDD0Oh-qLwjmmPhOUltti2MUy72LTPrQm_UUjRal83CmUiK4tK4HHx0xvTFPbiALwjYw9zupNJDiMCooOFSk2xO6YwQkTkkXQNXtQZl6WDnR5aSOXbTifPLCmj1EfKOYiIFR2zTik-m3Pnv_VE2tb-lU_YCBc6NnEjRp1zPMXpbFnPvSxS3XQAsB15sRYmT-tnUqt4dWIqjOfny4cX_8mvp-Eo5MjEuZWDeL3g46hj2QE5ePiitE1hg7aoVA0HPuT3HwPiRolgEgXr3mCqByFSAKKz8t75Z5yXpq289aEykt_RxowNnSxpHNAdy8WWwUFYrin2qnqpF0M8EMxhy8vsYJ6sjXlxvCfd31FOA6d1ReBI2oT5AnRw_Y4FRWxAIoMvxk8Pnm4jjEdqmKYItrB-aG-sjbPX-8LcW-jTPsOD76m_ZaKpf-lf6zqqqqRHEKeQ-Pb0cQuTtL2XMTDVjT_EetASw", "width": 1080}], "place_id": "ChIJow6q6hESQg0RIKCnfRMRvrk", "plus_code": {"compound_code": "4G37+V9 Villaconejos, Spain", "global_code": "8CGR4G37+V9"}, "rating": 1.9, "reference": "ChIJow6q6hESQg0RIKCnfRMRvrk", "scope": "GOOGLE", "types": ["post_office", "finance", "point_of_interest", "establishment"], "user_ratings_total": 9, "vicinity": "C/ CONCEPCION GARCÍA ROBLES:3, Villaconejos"}, {"business_status": "OPERATIONAL", "geometry": {"location": {"lat": 40.102005, "lng": -3.4945218}, "viewport": {"northeast": {"lat": 40.1034337802915, "lng": -3.493178969708497}, "southwest": {"lat": 40.1007358197085, "lng": -3.495876930291501}}}, "icon": "https://maps.gstatic.com/mapfiles/place_api/icons/v1/png_71/generic_business-71.png", "icon_background_color": "#7B9EB0", "icon_mask_base_uri": "https://maps.gstatic.com/mapfiles/place_api/icons/v2/generic_pinlet", "international_phone_number": "+34 918 93 84 23", "name": "Gradenes Cuesta", "opening_hours": {"open_now": false}, "photos": [{"height": 3264, "html_attributions": ["<a href=\"https://maps.google.com/maps/contrib/114900334830809941019\">GRADENES CUESTA, S.L.</a>"], "photo_reference": "AWn5SU7sPbd0ToZeBQjbaQaArt84cQnPvacFrnZLJH7tjDGHBnSr43tVRAcBz0VXbIQwTjKnP0lw-pseFPbe73Nf44GU93ZB7R6lTeEfOHeTJQsvxVzplo6EbDCfj_4VlTqDcebRJSvqEXajt9afj0Ibvb4mex00uMaB4nuDMLnRw9meN5X-mXNj8mTwy0S3LJRJ-2Y5hfvDUo-Z_4Z_QOt022NZj8DvDKrc1uscwIMTh02lg0_g9i7C07aAhP5SllxW5HIKduEvIDxNF4sgSJ9L46YrXq85KQ1HutOtj0sxf6bS5iG6cCQ_kGexegDS82s1GNv_GB96s1qnFeUq6unZfYLr8imh8RAfrJLd_u-Xf-UulO8oHLHUkbvMul9mElisX4IjQByoKydTdFAv7bXK0_JvwtMMfr903Vrj4bkCfHPXaaIiH_HsIlMdk0IduiOb0Ws0OGTcweIN0X6sk1xH42YWJgasmzA2ZbLnkzvC2gvIOoqsQ4MoNQxEyBkHnlPruUtsWId2gYeRgMAK0xTVlzgd6ULnMN7q5TyDQtFb0SleJCSPjvl9uxaI5fpy1aqDs9cGA_XSamEVl4_HJ-iuGoXBeDjmPSgBGWrMs44gJa0F0QKknVbaSjCQ6rTknjup", "width": 3369}], "place_id": "ChIJV4EQLRASQg0RKZgo9EDzgro", "plus_code": {"compound_code": "4G24+R5 Villaconejos, Spain", "global_code": "8CGR4G24+R5"}, "rating": 4.5, "reference": "ChIJV4EQLRASQg0RKZgo9EDzgro", "scope": "GOOGLE", "types": ["point_of_interest", "establishment"], "user_ratings_total": 19, "vicinity": "Camino de Titulcia, 39, Villaconejos"}, {"business_status": "OPERATIONAL", "geometry": {"location": {"lat": 40.1046368, "lng": -3.485130599999999}, "viewport": {"northeast": {"lat": 40.1059675802915, "lng": -3.483774869708498}, "southwest": {"lat": 40.1032696197085, "lng": -3.486472830291502}}}, "icon": "https://maps.gstatic.com/mapfiles/place_api/icons/v1/png_71/generic_business-71.png", "icon_background_color": "#7B9EB0", "icon_mask_base_uri": "https://maps.gstatic.com/mapfiles/place_api/icons/v2/generic_pinlet", "international_phone_number": "+34 918 93 80 24", "name": "MAPFRE", "opening_hours": {"open_now": false}, "photos": [{"height": 2048, "html_attributions": ["<a href=\"https://maps.google.com/maps/contrib/118049540884617122475\">MAPFRE</a>"], "photo_reference": "AWn5SU5kfRV6kM687X_nwHwB_Uy_K6HcjqKlS0nzhlQq5jMLQMlogOk6znk_wM96y_-AhyrLtPZQ_LRoyfv03DDjYmPZNIaqH5puq-rKJHXlrfRFNm_ZkWeUzMFPkx6yZIr89Bm7XHS-zwMFjrekAS54op7OvhD8105OhqYSnx1fVyCjimPXSnX41iJpqkBmeyZwxJR9ofR7vl-x31VUvY9N-bZ0HuL4-LxjDksEjlbbVhi6XANy7GHVb2SNP6oTXfJ3kljpCXA4VXwZrzcYaCG1FQHTJcZATgr7mU4_e6v_tedT9Wba4L4MyQTbyXaYyWgH6gCMawKi", "width": 1536}], "place_id": "ChIJIZ3HGhISQg0RimbrLoKYguA", "plus_code": {"compound_code": "4G37+VW Villaconejos, Spain", "global_code": "8CGR4G37+VW"}, "reference": "ChIJIZ3HGhISQg0RimbrLoKYguA", "scope": "GOOGLE", "types": ["insurance_agency", "accounting", "finance", "health", "point_of_interest", "establishment"], "vicinity": "Calle Huertos, 20, Villaconejos"}, {"business_status": "OPERATIONAL", "geometry": {"location": {"lat": 40.1018066, "lng": -3.493987699999999}, "viewport": {"northeast": {"lat": 40.1033462802915, "lng": -3.492653419708498}, "southwest": {"lat": 40.1006483197085, "lng": -3.495351380291501}}}, "icon": "https://maps.gstatic.com/mapfiles/place_api/icons/v1/png_71/generic_business-71.png", "icon_background_color": "#7B9EB0", "icon_mask_base_uri": "https://maps.gstatic.com/mapfiles/place_api/icons/v2/generic_pinlet", "international_phone_number": "+34 918 93 80 81", "name": "Hermanos Agudo El Melonero", "photos": [{"height": 3096, "html_attributions": ["<a href=\"https://maps.google.com/maps/contrib/104173619311613553150\">Jorge Garvia Uceda</a>"], "photo_reference": "AWn5SU5_d8zyJ1C6IFA5lcajHZSCUWfAppd-HuTWrQ884EKC2M4i-Tj9KofXcaImw-cKG32UGEkXdqc8AkSfPhmixpACWMKrZGNci6373bMUWXkp2wnNgp-19-_6Jco2P8rgJkHU8CAHYlWna7JXb6igeW7pSOy_1kycIknlw0fvSJh5M4xWYG5EzdN58xEfGZ57UUYyMMKDfE95ov7HSblAdvq4L-_VAHAegN8bSveYTLG4rYEx7dOc6uRCVM3c9cDN8-oDQdFI2x2ydHPiTM6wUkH1n0yWp5vR2zTKxyV7VMraZFB4s_1Nmqa-1pptjaVIMBCNpWR83HC-64QPs5pWHxJ3mROzkLhL4D7upPupoU-4qma9UyEtBQNGuFpdjzmlG74AYVlKmRYaHsIWi9xH4lRZPF93oY0Wm092hEyVDy7nJ6bM-Q74M09T5-Ar7swhw7GLHWhq8RmYbJ-kg2RO7Gs2NcSr42y_P1p5r7lnV9ZQJwiuWJzPZ6BaRw5tZBfe4uwXa3BsPN91WnKNYYhm6_At1ZqGzLe6uf2Awjir_tddOmAaohBmLGZ2KWdrBL5-Fr34VPkgZqGI_MzHxyAHDKEZPVxrffyKq_9Qil26mf4fJ3zXPCn8bE_WVoEI66A1nSeQwg", "width": 4128}], "place_id": "ChIJ1-cdARASQg0Rk5TswSzLI68", "plus_code": {"compound_code": "4G24+PC Villaconejos, Spain", "global_code": "8CGR4G24+PC"}, "rating": 4.4, "reference": "ChIJ1-cdARASQg0Rk5TswSzLI68", "scope": "GOOGLE", "types": ["point_of_interest", "food", "establishment"], "user_ratings_total": 47, "vicinity": "Carretera de Titulcia, 37, Villaconejos"}, {"business_status": "OPERATIONAL", "geometry": {"location": {"lat": 40.1025708, "lng": -3.4866673}, "viewport": {"northeast": {"lat": 40.1039231802915, "lng": -3.485322619708498}, "southwest": {"lat": 40.1012252197085, "lng": -3.488020580291502}}}, "icon": "https://maps.gstatic.com/mapfiles/place_api/icons/v1/png_71/generic_business-71.png", "icon_background_color": "#7B9EB0", "icon_mask_base_uri": "https://maps.gstatic.com/mapfiles/place_api/icons/v2/generic_pinlet", "international_phone_number": "+34 918 93 84 08", "name": "BELEN INNOVACION Estilistas", "opening_hours": {"open_now": false}, "photos": [{"height": 4608, "html_attributions": ["<a href=\"https://maps.google.com/maps/contrib/110163051000229905790\">MARIA BELEN PEREZ BENAVENTE</a>"], "photo_reference": "AWn5SU4cgGL3iuYsjH-hxfc5o8OJCN0rehYrxhuf3od2lvF7zj2PrJUjzxha8RXIq5vTjLrb1_Ow4EIGxKtLsIZl5bEQWVfI4kU_5bMuOXeVxZUitP_vrxzTiisFVnjKkanJS-sFaUJwc_tkzA0kOdGbvaPJHqW0foYuERQj6DYHwkIR3VTJvvJkmM2acVIqkTmVl_IBeKdOvs_HUDmJg1abMZYS5a_K_7aTMIHpvjQ2KDjLGAI3m5vi0G7P1orqX9eD4av2LUGvUQmsy6o0KTDb6ZESOyn8rc1MDaOKsz_tgIN357__jd-VtKwPTd0Pkp_5vFl7C1IALeDpvmKTonJ39_UXPEfqc-8yFmAeSxqfiBtb7kISbIyopYMROdY7uKShCYZivRyKKhZbJEX4gB9Q0FzjBzVJraqctSFuhgOw7KXGXHbewCIGzrGE32A6NZbEqhA08b-2S9YD5SkFjzSiaRk4TZXeC_J8ktA-hxnGn73O4d7ff3KeKaCtiwFwjowm3kDDyRNKIVqBJW0-nGl8p2yz9_0DYU3S9tMXqp6vtWdiquRVdD8LGw3I2aFW9knlMVi4kaqVZ5I0GS9oGWiUPHQIARK0Ho7hMhLaTR-Ro7d5H6_Zgv8fDjDaR-2JUHb2lO0Ww0Ua", "width": 2592}], "place_id": "ChIJzXg0Iw4SQg0RPKZTSxuXvsU", "plus_code": {"compound_code": "4G37+28 Villaconejos, Spain", "global_code": "8CGR4G37+28"}, "rating": 4.7, "reference": "ChIJzXg0Iw4SQg0RPKZTSxuXvsU", "scope": "GOOGLE", "types": ["beauty_salon", "hair_care", "point_of_interest", "establishment"], "user_ratings_total": 53, "vicinity": "Callejón de la Soledad, 23, Villaconejos"}, {"business_status": "OPERATIONAL", "geometry": {"location": {"lat": 40.1020791, "lng": -3.493021}, "viewport": {"northeast": {"lat": 40.1033842802915, "lng": -3.491637469708499}, "southwest": {"lat": 40.1006863197085, "lng": -3.494335430291502}}}, "icon": "https://maps.gstatic.com/mapfiles/place_api/icons/v1/png_71/generic_business-71.png", "icon_background_color": "#7B9EB0", "icon_mask_base_uri": "https://maps.gstatic.com/mapfiles/place_api/icons/v2/generic_pinlet", "international_phone_number": "+34 918 93 80 04", "name": "Villauto Wagen", "opening_hours": {"open_now": false}, "photos": [{"height": 3456, "html_attributions": ["<a href=\"https://maps.google.com/maps/contrib/115133255947198065550\">Oscar GG</a>"], "photo_reference": "AWn5SU6tuUjA9y-xoEY1C5arE_Z8aT2XMzOrxCnDl2dk2mRle5tEuQ8xcqioHpdXvJ27FUx2rKLHn9CE8pCu22PH_OCpXb6kuXC_kO9QxqDTXdBmqOxutcMZi678gcvh5LTi1mL_jj3bC3TEcxhRe3KoihWz7pk_tzu_27woyh4ojHBoeUinpY-TESWARkXueNMdQL1Q5TqqVqiW0mOHLs6qAeZEq6oKqi7Z-t6zaB7orOM-QiUhTNmHwpLhO3mpiiR6Quqvl5cV4vkYBcb60hUPdhez7t5TOJj5Cxj30TkkZVbrtArJiF5LRlLj4eVrWT5plE8PIt0sQD4d8QEZmVImOxG65XO2eZYRh_PtwDezoZD19VHgs9DjVylT4HixwY9EBEaeJ-S3dRfT-eI-Fo-AHII7Ak5bdOt_WgjjZ8ynfsycU3hqZoJWBthSBSKWkz2l0c9DXgM1GtD-Oh8tt5N3uez_D-NLz6kUkAAQy82Zt8FOObFuAIdGX6airVzJLJSSR_UJ5-H_ipnleS2AytcpnQHiX3Rjp5old-Qi7FR9IqdsndePFB77Q-EUKBrlqKBmlTxqx3Oa8cMP_pFgakI6YYYTThW5Uc_QG1p6UOFW1mk0_JXkQaNcVsWUW3wnmms62L01Gg", "width": 4608}], "place_id": "ChIJDSA3Sm0SQg0R0HBMVkeZj54", "plus_code": {"compound_code": "4G24+RQ Villaconejos, Spain", "global_code": "8CGR4G24+RQ"}, "rating": 4.6, "reference": "ChIJDSA3Sm0SQg0R0HBMVkeZj54", "scope": "GOOGLE", "types": ["car_repair", "point_of_interest", "establishment"], "user_ratings_total": 67, "vicinity": "Camino de la cooperativa, 6, Villaconejos"}, {"business_status": "OPERATIONAL", "geometry": {"location": {"lat": 40.1035474, "lng": -3.4880594}, "viewport": {"northeast": {"lat": 40.10490138029149, "lng": -3.486710969708498}, "southwest": {"lat": 40.10220341970849, "lng": -3.489408930291502}}}, "icon": "https://maps.gstatic.com/mapfiles/place_api/icons/v1/png_71/generic_business-71.png", "icon_background_color": "#7B9EB0", "icon_mask_base_uri": "https://maps.gstatic.com/mapfiles/place_api/icons/v2/generic_pinlet", "international_phone_number": "+34 918 93 80 65", "name": "Proyectos Y Construcciones Mecano SL", "opening_hours": {"open_now": false}, "photos": [{"height": 700, "html_attributions": ["<a href=\"https://maps.google.com/maps/contrib/108504988305155958129\">Proyectos Y Construcciones Mecano SL</a>"], "photo_reference": "AWn5SU7obZvTi1IzZ4oN5ZNk-DiYW-3rMq36U8F3E6w695RwUp3OGEX1aEHfGRlcy8XSSI8s7pyizJtZUIvtGz-ifK7U7IKIAy1YsYttx3txgZSbbBEJbaleLkTsJ_xWrScA50FVtyEQQeWM546QjxdTwiSrFL4B292drkF9UjxtDsrpZDg5ziQgVATm03DhKYOr-r2yYLVe6VvwfMImczk6bYXRHwB-eFKoZ_ITEbFBHnu1NTrP7bysAB1q9fozEm2ifQR2IMpMskn45IFAXQRpnVNkgAO75uEtg8lCISfKsJurpcYxB0qAvTFXgvJsHtUO79QX9QXi", "width": 1800}], "place_id": "ChIJgdSMPRASQg0R74SYcUeclpc", "plus_code": {"compound_code": "4G36+CQ Villaconejos, Spain", "global_code": "8CGR4G36+CQ"}, "rating": 3.9, "reference": "ChIJgdSMPRASQg0R74SYcUeclpc", "scope": "GOOGLE", "types": ["general_contractor", "point_of_interest", "establishment"], "user_ratings_total": 16, "vicinity": "C arretera 28360, Calle Aranjuez, 14, Villaconejos"}, {"business_status": "OPERATIONAL", "geometry": {"location": {"lat": 40.104065, "lng": -3.4860276}, "viewport": {"northeast": {"lat": 40.1054186302915, "lng": -3.484678019708498}, "southwest": {"lat": 40.1027206697085, "lng": -3.487375980291502}}}, "icon": "https://maps.gstatic.com/mapfiles/place_api/icons/v1/png_71/generic_business-71.png", "icon_background_color": "#7B9EB0", "icon_mask_base_uri": "https://maps.gstatic.com/mapfiles/place_api/icons/v2/generic_pinlet", "international_phone_number": "+34 620 39 55 38", "name": "Tecnicos reunidos", "place_id": "ChIJ0Y9m7hESQg0RIcVa676oOUo", "plus_code": {"compound_code": "4G37+JH Villaconejos, Spain", "global_code": "8CGR4G37+JH"}, "reference": "ChIJ0Y9m7hESQg0RIcVa676oOUo", "scope": "GOOGLE", "types": ["point_of_interest", "establishment"], "vicinity": "Calle Iglesia, Villaconejos"}, {"business_status": "OPERATIONAL", "geometry": {"location": {"lat": 40.1041339, "lng": -3.483228999999999}, "viewport": {"northeast": {"lat": 40.10548103029149, "lng": -3.481880469708498}, "southwest": {"lat": 40.10278306970849, "lng": -3.484578430291501}}}, "icon": "https://maps.gstatic.com/mapfiles/place_api/icons/v1/png_71/generic_business-71.png", "icon_background_color": "#7B9EB0", "icon_mask_base_uri": "https://maps.gstatic.com/mapfiles/place_api/icons/v2/generic_pinlet", "name": "Agrupacion Socialista de Villaconejos", "opening_hours": {"open_now": false}, "place_id": "ChIJ7f2iZRISQg0RzZx3e4GW1fI", "plus_code": {"compound_code": "4G38+MP Villaconejos, Spain", "global_code": "8CGR4G38+MP"}, "reference": "ChIJ7f2iZRISQg0RzZx3e4GW1fI", "scope": "GOOGLE", "types": ["point_of_interest", "establishment"], "vicinity": "Calle Guindalera, 16, Villaconejos"}, {"business_status": "OPERATIONAL", "geometry": {"location": {"lat": 40.10314750000001, "lng": -3.4857561}, "viewport": {"northeast": {"lat": 40.1044785802915, "lng": -3.484398019708498}, "southwest": {"lat": 40.1017806197085, "lng": -3.487095980291502}}}, "icon": "https://maps.gstatic.com/mapfiles/place_api/icons/v1/png_71/generic_business-71.png", "icon_background_color": "#7B9EB0", "icon_mask_base_uri": "https://maps.gstatic.com/mapfiles/place_api/icons/v2/generic_pinlet", "international_phone_number": "+34 918 93 82 71", "name": "MONTAJES ELECTRICOS VELAZQUEZ ALVAREZ", "place_id": "ChIJuzG5Ag4SQg0RR9cydSriXV4", "plus_code": {"compound_code": "4G37+7M Villaconejos, Spain", "global_code": "8CGR4G37+7M"}, "reference": "ChIJuzG5Ag4SQg0RR9cydSriXV4", "scope": "GOOGLE", "types": ["electrician", "point_of_interest", "establishment"], "vicinity": "Calle Soledad, 48, Villaconejos"}, {"business_status": "OPERATIONAL", "geometry": {"location": {"lat": 40.10385369999999, "lng": -3.4875607}, "viewport": {"northeast": {"lat": 40.1051828302915, "lng": -3.486172719708498}, "southwest": {"lat": 40.1024848697085, "lng": -3.488870680291502}}}, "icon": "https://maps.gstatic.com/mapfiles/place_api/icons/v1/png_71/shopping-71.png", "icon_background_color": "#4B96F3", "icon_mask_base_uri": "https://maps.gstatic.com/mapfiles/place_api/icons/v2/shoppingcart_pinlet", "international_phone_number": "+34 912 17 04 53", "name": "Supermercados Dia", "opening_hours": {"open_now": false}, "photos": [{"height": 1536, "html_attributions": ["<a href=\"https://maps.google.com/maps/contrib/102397852127802262337\">Supermercados Dia</a>"], "photo_reference": "AWn5SU6TvDNq2WojudE8_696Nu9UtVydiQ9en8dEU1Kf-yVSr943qYdlUMTqk1cZTOoQumKWq1mBuRJ5Z24C8mxFB2ASCCCobL45KgGj73OP1Aw1dIpSOedY4irybs-M1I-pLCPelSRnQvRAIeXE-WlrvKljBrLsHtP3wvI8_HTGM7fdTuLU6MJC_L4w2uRsFDO185nG_wIiDKynsDrGGAdWHujtqOiiiVbebZJcHflx1biQ6xowZvVutZ1bwy2rOG_RcLVXyKLv08Ozsdq_os4l-eO9a1m1LsL7mRcgDugECgTZUN_GlwSPPq6bHmQHNmuQ2OcykobJWDw", "width": 2048}], "place_id": "ChIJ6ft3zRESQg0RdHPTAs_A4bw", "plus_code": {"compound_code": "4G36+GX Villaconejos, Spain", "global_code": "8CGR4G36+GX"}, "rating": 3.7, "reference": "ChIJ6ft3zRESQg0RdHPTAs_A4bw", "scope": "GOOGLE", "types": ["supermarket", "bakery", "grocery_or_supermarket", "store", "point_of_interest", "food", "establishment"], "user_ratings_total": 296, "vicinity": "Calle Carrretera Aranjuez, 6, Villaconejos"}, {"business_status": "OPERATIONAL", "geometry": {"location": {"lat": 40.10529549999999, "lng": -3.4822127}, "viewport": {"northeast": {"lat": 40.1067205302915, "lng": -3.480979219708499}, "southwest": {"lat": 40.1040225697085, "lng": -3.483677180291502}}}, "icon": "https://maps.gstatic.com/mapfiles/place_api/icons/v1/png_71/generic_business-71.png", "icon_background_color": "#7B9EB0", "icon_mask_base_uri": "https://maps.gstatic.com/mapfiles/place_api/icons/v2/generic_pinlet", "international_phone_number": "+34 918 93 89 05", "name": "Centro Cultural Santa Ana", "photos": [{"height": 4000, "html_attributions": ["<a href=\"https://maps.google.com/maps/contrib/109147106909162874219\">Lola Hm</a>"], "photo_reference": "AWn5SU55FgIYlsh0gbzUJZQdriVp3qZ0HEqdVu5bYQlfaxylmHwszdAhbsq4HbjGjwxnCwlpd9ZRoFfg7MsJJIUar0wRBAtqdwvgBjPi2GYyy7WnIghM79mTUbQ1Jb6mIXGhKvXy-AzNcvhr83HRnPrA8BYMwPwY8sj-3A92sp770oS0eBr3IWBjRLjZh_4zBURNpQYzncJurNeS8ZWWLjTzmwWgZir5ezW_ih3f-4ZtUy3rsp7Hr4MvTyJ77nYge6kJha01lmbQmhDRlbi2zwm2LtF95JIDVj2hY2Vr4LtLGt7gqCOAVoD-gcFWpEj1Pe_m5VcAE01R4ZxZGRcDcUcdwjRQrYGw84a6-iH04nuKsCNtnzSG0jaYSjF9KkAprpSyJW8sNYy6YzUA6BZfNvL2do02e_TcIKiO5T_h9n8aDRYzgRdhmUCzJN6a_Lw0a5h8BDG8ddod4WOTdtwjx7hfhv-sIOLIdxclJ9yjEAQPTfSPY6wWcLWpkArOYvyliPGej_Gqi66Mw_rSkKQYl_IIL1Rj0HxnOYJF1HKMIsvuxIAOqz03ERavWfmY-iD9ZUiHG1I9P03JzwuXeeDP--qjvZ1dEwMtRqXS-8oQHgjwOlPF09ZZRqRyGmSAJ7GjPWfX", "width": 3000}], "place_id": "ChIJCQUJWRISQg0R6ncMHttOksE", "plus_code": {"compound_code": "4G49+44 Villaconejos, Spain", "global_code": "8CGR4G49+44"}, "rating": 3.7, "reference": "ChIJCQUJWRISQg0R6ncMHttOksE", "scope": "GOOGLE", "types": ["point_of_interest", "establishment"], "user_ratings_total": 27, "vicinity": "Carretera de Chinchon, 58, Villaconejos"}, {"business_status": "OPERATIONAL", "geometry": {"location": {"lat": 40.1025695, "lng": -3.4885969}, "viewport": {"northeast": {"lat": 40.1039522302915, "lng": -3.487321869708498}, "southwest": {"lat": 40.1012542697085, "lng": -3.490019830291502}}}, "icon": "https://maps.gstatic.com/mapfiles/place_api/icons/v1/png_71/generic_business-71.png", "icon_background_color": "#7B9EB0", "icon_mask_base_uri": "https://maps.gstatic.com/mapfiles/place_api/icons/v2/generic_pinlet", "international_phone_number": "+34 918 93 87 09", "name": "Talleres Quinientos", "opening_hours": {"open_now": false}, "photos": [{"height": 747, "html_attributions": ["<a href=\"https://maps.google.com/maps/contrib/108743629840992357131\">TALLERES QUINIENTOS</a>"], "photo_reference": "AWn5SU41V0eMsdEkSkXxMpWB4WD60thl9AH6ixNfO9bLXJRN37WfrKT4XdO9CGiCcX80mVQ7nnh7NyOepn66rGH5TP0m6DIy2Bb-52IJBJGFLumXi6ixOQ10SHIw_QAMphidhx4W4XXOEEKiGhakbK5Yadpca9mwuw_jEFbXF23TYNMluFi9HKfoRjEP-xaZ317avn3rMr8xlslp1y-6ZODkPZmEE3QjyDfh0zv7xbhpbdK2ajOg683ciCMUg46wnahs-I1nsFIN4Fp0dywdg8EM6xXNfdM8fDolaPQtroG1MmKFxQozxhxY1Jvxmf_f7nDHTpk5N_aX", "width": 1328}], "place_id": "ChIJz2BWbQ4SQg0RMrdDv_EQN-c", "plus_code": {"compound_code": "4G36+2H Villaconejos, Spain", "global_code": "8CGR4G36+2H"}, "rating": 4.6, "reference": "ChIJz2BWbQ4SQg0RMrdDv_EQN-c", "scope": "GOOGLE", "types": ["car_repair", "point_of_interest", "establishment"], "user_ratings_total": 187, "vicinity": "Calle Carrretera Aranjuez, 15, Villaconejos"}, {"business_status": "OPERATIONAL", "geometry": {"location": {"lat": 40.1017775, "lng": -3.4885444}, "viewport": {"northeast": {"lat": 40.1031501302915, "lng": -3.487294369708498}, "southwest": {"lat": 40.1004521697085, "lng": -3.489992330291502}}}, "icon": "https://maps.gstatic.com/mapfiles/place_api/icons/v1/png_71/shopping-71.png", "icon_background_color": "#4B96F3", "icon_mask_base_uri": "https://maps.gstatic.com/mapfiles/place_api/icons/v2/shopping_pinlet", "name": "Frutas y verduras Marisa S.L.", "opening_hours": {"open_now": false}, "photos": [{"height": 3472, "html_attributions": ["<a href=\"https://maps.google.com/maps/contrib/117221443389706524082\">José Luis Zamora Pineda</a>"], "photo_reference": "AWn5SU5B1G5EerQxbhgvHIsa5dAgws-APV9q6D3Irk_uIMa-PmqTsu7qFxuBlJE6ZnGjTiI8Pro2-qNItruePNkBKy9JsebEjju0vLm9cN7OKP_yBlUS2N_S5Ss0bb5AqxiJ7gajqtMvO-r_c8hkmEfgnOBNAOKOubRC9p0Lk49j_cPqL4_F5MPXbPvWt6I0dKqCOgb4aqNMvfWLwSTsYOZ_nvHc5BrQqYSp97NyyVjDmnKhK4Ng4bXc29--1-fe_GupEkrpnV6TePyCkFEQd7iFLw14RwrWgXVkOwxBrAuoG0if6J7h2QG94V6WWHWIOsUWlaa73Ijyretsoq-BINH0OTyfo8xa-rZa2oYTedptDJwhVaVldgQ0omsBGtNBAoMWvTvKDMCVlcZeHDn3I01them_SHsnUtEvQpi560DMJJ-eaEdNljJcbDAigQp0mSYdD8ExRkICPm2Yy484DkVLYcdkOkgDwN3o-9Sx2d6HJUkYv7YhngvY5koUdnVjJTLSpcYO8Ecu2o3fJAAgzCHPgJirRnSixBw6yU9fs-mVnmOC4ReGlruq3lyN-W1wKjfVG8vSVdZnAwBOXOsmu2_i-ZCMREMc87u9We8UzShuMuc6TMmdzgR00Rcw4cdi-DO-KBgzgSux", "width": 4624}], "place_id": "ChIJ1csWvw8SQg0RW-zR9-Og-uk", "plus_code": {"compound_code": "4G26+PH Villaconejos, Spain", "global_code": "8CGR4G26+PH"}, "rating": 4.5, "reference": "ChIJ1csWvw8SQg0RW-zR9-Og-uk", "scope": "GOOGLE", "types": ["grocery_or_supermarket", "store", "point_of_interest", "food", "establishment"], "user_ratings_total": 624, "vicinity": "Carretera de Villarrubia, 7D, Villaconejos"}, {"business_status": "OPERATIONAL", "geometry": {"location": {"lat": 40.10022469999999, "lng": -3.4886468}, "viewport": {"northeast": {"lat": 40.10154043029149, "lng": -3.487231519708498}, "southwest": {"lat": 40.09884246970849, "lng": -3.489929480291502}}}, "icon": "https://maps.gstatic.com/mapfiles/place_api/icons/v1/png_71/school-71.png", "icon_background_color": "#7B9EB0", "icon_mask_base_uri": "https://maps.gstatic.com/mapfiles/place_api/icons/v2/school_pinlet", "international_phone_number": "+34 918 93 83 68", "name": "C.E.I.P. Concepción García Robles", "opening_hours": {"open_now": false}, "place_id": "ChIJe-giEw8SQg0Rx98FufFv1V0", "plus_code": {"compound_code": "4G26+3G Villaconejos, Spain", "global_code": "8CGR4G26+3G"}, "reference": "ChIJe-giEw8SQg0Rx98FufFv1V0", "scope": "GOOGLE", "types": ["primary_school", "school", "point_of_interest", "establishment"], "vicinity": "Calle de los Colegios, 2, Villaconejos"}, {"geometry": {"location": {"lat": 40.0776881, "lng": -3.4934182}, "viewport": {"northeast": {"lat": 40.08670143207154, "lng": -3.481444447077207}, "southwest": {"lat": 40.07264673113546, "lng": -3.503056031553407}}}, "icon": "https://maps.gstatic.com/mapfiles/place_api/icons/v1/png_71/geocode-71.png", "icon_background_color": "#7B9EB0", "icon_mask_base_uri": "https://maps.gstatic.com/mapfiles/place_api/icons/v2/generic_pinlet", "name": "Urtajo", "photos": [{"height": 2105, "html_attributions": ["<a href=\"https://maps.google.com/maps/contrib/117221443389706524082\">José Luis Zamora Pineda</a>"], "photo_reference": "AWn5SU5z6Ap7LRDmrv_X2_49LD1ymKVeDgx9jLEw1notuKmW0_gMHFvrd-unJf-Q83srHQ9bEql95Iy7MlnHuhmPVXSFZM7bkaF2IX9MAyKqWuhRFDq1OY9IVTF3q-bO3xSIx8gHp5f14y52t3-SAx0NmlOjmzI3bJ8PCOO7y7PcUlqlYJBbBV1e7jyW6T0JozbOt2yhCU9j_lOGBB73H4jt71thR5W9YRT20imzykcdmbFpD-ALjT-nYzabF5F6laezDlO0b2GNvKBLPz1cBzWiXHmW9DwUDzfK9Kr001goEOATNbUz4hKKZgJBPUo9G7KUQtbKOfEDhkrNOjdcAE1ru_ar2WRqUNmIZBjlbqmqkQlCap49LfzSJFH0R041nk06Unu_QnOnH5EfmVZeO73BdrRp7mGVY2n2sapFYaztST4PCAxH1ZhBbM5jdsDqrkGu2st9QmitC8Abi5grqs1_PD-WgL4njzLu0jM9jln4q89s-Ak-JTTa5RofJNt7muEHPR6A17ga8gHpzzGysqvODb4hzibFY6kkUFH-L2KqKXD68gN20wPt-C0ZmVi4mw0c05uyd9EzVls3A-6KKWVOW3nuXXnaJgmp3CRMlmHskJQSkQWtxMIdGSxV3ZhNlpo4V7ThXA", "width": 1440}], "place_id": "ChIJl46t9-QNQg0RzTcssZbk5Bw", "reference": "ChIJl46t9-QNQg0RzTcssZbk5Bw", "scope": "GOOGLE", "types": ["locality", "political"], "vicinity": "Urtajo"}]