[{"geometry": {"location": {"lat": 40.3208765, "lng": -4.1987434}, "viewport": {"northeast": {"lat": 40.32692660324898, "lng": -4.190980211994662}, "southwest": {"lat": 40.31234985035402, "lng": -4.207417838778352}}}, "icon": "https://maps.gstatic.com/mapfiles/place_api/icons/v1/png_71/geocode-71.png", "icon_background_color": "#7B9EB0", "icon_mask_base_uri": "https://maps.gstatic.com/mapfiles/place_api/icons/v2/generic_pinlet", "name": "Aldea del Fresno", "photos": [{"height": 3472, "html_attributions": ["<a href=\"https://maps.google.com/maps/contrib/106412199642014872960\">Pedro Domínguez García (Konti)</a>"], "photo_reference": "AWn5SU7hDPJeyZ1q5NShgo0BrKmNOfU9l0rNUWgYOPPyvzl2iUfCnj13XIC9xTqz595Dm8qVKMd5T3JDATPJnXTybYurie5O_haSIKiK9E8r2MWRSc9BVELiiUHtZcJZl5pGIugm2ztyspb5k9jk4I5Uu6MB_eW-4Dtqa7JeSyF89Zn2anw9JcP-Km0Mtdg_UzUAFJQdF4dAVaTG1ji9OxQUBSRDXvDr_CcJyoPO8Yg8qkQAYaeb4Xj7hGJ2-omFR6uFmYySBWT9s1QBi8ddTHboSYHVaWim_v4UmFl-3Yvnz_S4J370JPT5XZHz71l_g5EjRAiQzWxcUNCipigtAR_zv-WyVXeFPnG1blrhyX-vxzEWtLqix0qtx3hyeNknyoS6qNb-77g4kUKiAQUdpRh2tkAaxi1wQ42EFkhS4JF-5R3c49nlxUK_GofPS-PqzL-lPNBoHS9DWF9uuV1LB9t1oxnin6A41SpQTkBa23uLRMo96GGuhswoQvOW3rezDX9S3sfNaB8_BNwV5RPxNGaQ8JpUq0aYJwTph5Oyv559-z55zgdHAMWS0iDBc-a2bErpGBhsh6_f3yY2bwpNv_2nr5No5-B-GzhJmOR2gjkooxg0Jzb0yU1rjUFstAOC4kFxmJJ1sw", "width": 4640}], "place_id": "ChIJGehhwi66QQ0R4BFqRA014B8", "reference": "ChIJGehhwi66QQ0R4BFqRA014B8", "scope": "GOOGLE", "types": ["locality", "political"], "vicinity": "Aldea del Fresno"}, {"business_status": "OPERATIONAL", "geometry": {"location": {"lat": 40.41577839999999, "lng": -4.2010149}, "viewport": {"northeast": {"lat": 40.41673438029149, "lng": -4.199832719708498}, "southwest": {"lat": 40.4140364197085, "lng": -4.202530680291503}}}, "icon": "https://maps.gstatic.com/mapfiles/place_api/icons/v1/png_71/lodging-71.png", "icon_background_color": "#909CE1", "icon_mask_base_uri": "https://maps.gstatic.com/mapfiles/place_api/icons/v2/hotel_pinlet", "international_phone_number": "+34 912 79 88 34", "name": "Albus Albi Hotel y Apartamentos Rurales en Madrid", "opening_hours": {"open_now": false}, "photos": [{"height": 1536, "html_attributions": ["<a href=\"https://maps.google.com/maps/contrib/114498105779716824489\">Albus Albi Hotel y Apartamentos Rurales en Madrid</a>"], "photo_reference": "AWn5SU6FCsy1N6Osvo0KKoVnmiaUubhNW9uflMaMreMheBgV0WTSgwcC7XNBoLRZD1xkOF-KGKg8d5Kgv5ITw1MuV6xBsueh-xmA303veX5O2dHnTM-QYJ-nERBFYvTAJ4oXgOvjHn3fM0rtujgsxyeKG9QEqpyZBmKTtAJVtgcfcbs1Zq_rVFGP0yCcKFVIaEbxAbpV9Y9s71in-H8y30tE-g62EWsvCBRRhDNIwDXtnyIVLlf4LJVzFJgomaOPyL8vW53yIrZLLVS6_0IrLjB9eiHppmwfSXQQB5d8b7LD6msKyCNCa-RmM4Y21aX2ysNKfnTzWZOPcI0", "width": 2048}], "place_id": "ChIJhyrl3BilQQ0ROg-YpIbN-tU", "plus_code": {"compound_code": "CQ8X+8H Colmenar del Arroyo, Spain", "global_code": "8CGQCQ8X+8H"}, "rating": 4.8, "reference": "ChIJhyrl3BilQQ0ROg-YpIbN-tU", "scope": "GOOGLE", "types": ["lodging", "point_of_interest", "establishment"], "user_ratings_total": 197, "vicinity": "Calle Toledo, 1, Colmenar del Arroyo"}, {"business_status": "OPERATIONAL", "geometry": {"location": {"lat": 40.32263879999999, "lng": -4.2017959}, "viewport": {"northeast": {"lat": 40.3240471302915, "lng": -4.200399169708498}, "southwest": {"lat": 40.3213491697085, "lng": -4.203097130291502}}}, "icon": "https://maps.gstatic.com/mapfiles/place_api/icons/v1/png_71/generic_business-71.png", "icon_background_color": "#7B9EB0", "icon_mask_base_uri": "https://maps.gstatic.com/mapfiles/place_api/icons/v2/generic_pinlet", "international_phone_number": "+34 626 17 84 71", "name": "Aldea", "photos": [{"height": 2801, "html_attributions": ["<a href=\"https://maps.google.com/maps/contrib/107144783885462998284\">La Aldea</a>"], "photo_reference": "AWn5SU5Zcocp-1ZxKL4h3zlYSkTF5ecwDcEaKCOrMguFRW-7rgXqKwcDlhDSu4bVJ7n3OtcBUIZwUR7JUMoncMs9dZ369AQwtgYawG8-z2oNbVYVZXN5YVu95-oFo45BusHnVh4cLfZynxWsXICTj3XXz3lIY711W-oKxe6joNP07iACPKDznpKMkrLV56xl5WZujiDXmwfFW2JGIWCL04uhqpuizGyVJ-atyyQ6dXN2EgoobOf8ad4ZgQ37LIyzopSKhJUgogTDxXooEWTiYR9XIgWe56unCGqgVHliEkxvZDw1Jbrf_-V_1qDrdfItau6xjOix9md83uE", "width": 4772}], "place_id": "ChIJP3abkC-6QQ0RX7Lw5pQnPa4", "plus_code": {"compound_code": "8QFX+37 Aldea del Fresno, Spain", "global_code": "8CGQ8QFX+37"}, "rating": 5, "reference": "ChIJP3abkC-6QQ0RX7Lw5pQnPa4", "scope": "GOOGLE", "types": ["point_of_interest", "establishment"], "user_ratings_total": 23, "vicinity": "Travesía del Sauce, 5, Aldea del Fresno"}, {"business_status": "OPERATIONAL", "geometry": {"location": {"lat": 40.38110729999999, "lng": -4.2172822}, "viewport": {"northeast": {"lat": 40.38249608029149, "lng": -4.215939919708498}, "southwest": {"lat": 40.3797981197085, "lng": -4.218637880291503}}}, "icon": "https://maps.gstatic.com/mapfiles/place_api/icons/v1/png_71/generic_business-71.png", "icon_background_color": "#7B9EB0", "icon_mask_base_uri": "https://maps.gstatic.com/mapfiles/place_api/icons/v2/generic_pinlet", "international_phone_number": "+34 918 65 01 33", "name": "Extintores Hermanos Zoyo SL", "opening_hours": {"open_now": false}, "photos": [{"height": 2448, "html_attributions": ["<a href=\"https://maps.google.com/maps/contrib/101419470144107994701\">Extintores Hermanos Zoyo SL</a>"], "photo_reference": "AWn5SU57zakY1I4CS9SMNexHBfWsx0hyripqQyun413K8y_oFenlf6ZTBpU_VzgjC43VdBYOlJEV1qcl9tPdBpvP1qe-CUlwM1TFmX7MC6OdXAKH5aFWhii2berQ_nkzP1Y93xasOWkDpwKvZ-6p1C-ngWf_YUFEOaZKC4FXMRCLJWDy2bKEIhNmimKIepzJMeocY_RYzxEXXmqehjsNwkKuvIQxuavxAk_qZkVwyHxrPlvoOFANte__K76qHtZqPZ346iRu7NIZJPJJxjy7tI2nLi9hFt0VuOUSWyU9A-gAtpiTzwb-HcbHElsuwQgjBe6bMHvn2LPL4AE", "width": 3264}], "place_id": "ChIJcahqEBuwQQ0RubJMxkNHhYM", "plus_code": {"compound_code": "9QJM+C3 Chapinería, Spain", "global_code": "8CGQ9QJM+C3"}, "rating": 4.3, "reference": "ChIJcahqEBuwQQ0RubJMxkNHhYM", "scope": "GOOGLE", "types": ["point_of_interest", "establishment"], "user_ratings_total": 12, "vicinity": "Avenida de los Cañales, 5, Chapinería"}, {"business_status": "OPERATIONAL", "geometry": {"location": {"lat": 40.4053175, "lng": -4.210198499999999}, "viewport": {"northeast": {"lat": 40.4067896802915, "lng": -4.208547119708498}, "southwest": {"lat": 40.4040917197085, "lng": -4.211245080291502}}}, "icon": "https://maps.gstatic.com/mapfiles/place_api/icons/v1/png_71/generic_business-71.png", "icon_background_color": "#7B9EB0", "icon_mask_base_uri": "https://maps.gstatic.com/mapfiles/place_api/icons/v2/generic_pinlet", "international_phone_number": "+34 616 01 50 04", "name": "Centro Canino entrEncinas", "opening_hours": {"open_now": false}, "photos": [{"height": 720, "html_attributions": ["<a href=\"https://maps.google.com/maps/contrib/105216054899087486470\">Centro Canino entrEncinas</a>"], "photo_reference": "AWn5SU5QRWqPaPCLm35JtAt2jx9hZRFUZ449Y1wEv4v1yX6EENrcP0EC0DT9phw6SA7By592zLG4nS9YT8Vdke4cmYe9i-nM5RruLNxGAddslMIdZ5ZdjhwxTNmcqThwJc8WWVtBAVv8kbLY9orb3kN3KcyypNG43zUT8FJC4Drzgw8aNVEc-BFoMvY22aIPeAXZhCxIBC06lx8rHbIOgccFEFhLZ8ZzSw2_V_3tGm3ijhCGALmG80RLQpa4X8cNlmUxogmOu1GM-1uw862dKPOe1o58KFkoAdmOvNeIMljAVI8fgrd8mwPugTdIkCZ0HnK3BvxUFtD1nPM", "width": 720}], "place_id": "ChIJF5FAYDqlQQ0RnpqlGrX3O58", "plus_code": {"compound_code": "CQ4Q+4W Colmenar del Arroyo, Spain", "global_code": "8CGQCQ4Q+4W"}, "rating": 4.6, "reference": "ChIJF5FAYDqlQQ0RnpqlGrX3O58", "scope": "GOOGLE", "types": ["point_of_interest", "establishment"], "user_ratings_total": 371, "vicinity": "M-510, km. 37, 500, Colmenar del Arroyo"}, {"business_status": "OPERATIONAL", "geometry": {"location": {"lat": 40.381121, "lng": -4.2183705}, "viewport": {"northeast": {"lat": 40.3824584802915, "lng": -4.217019419708498}, "southwest": {"lat": 40.3797605197085, "lng": -4.219717380291502}}}, "icon": "https://maps.gstatic.com/mapfiles/place_api/icons/v1/png_71/generic_business-71.png", "icon_background_color": "#7B9EB0", "icon_mask_base_uri": "https://maps.gstatic.com/mapfiles/place_api/icons/v2/generic_pinlet", "international_phone_number": "+34 918 60 55 17", "name": "Armaclos S L", "opening_hours": {"open_now": false}, "place_id": "ChIJJUMhQrm6QQ0Rt3U-t61SGM0", "plus_code": {"compound_code": "9QJJ+CM Chapinería, Spain", "global_code": "8CGQ9QJJ+CM"}, "rating": 5, "reference": "ChIJJUMhQrm6QQ0Rt3U-t61SGM0", "scope": "GOOGLE", "types": ["point_of_interest", "establishment"], "user_ratings_total": 2, "vicinity": "Avenida de los Cañales, 20, Chapinería"}, {"business_status": "OPERATIONAL", "geometry": {"location": {"lat": 40.38757059999999, "lng": -4.251220899999999}, "viewport": {"northeast": {"lat": 40.38895423029149, "lng": -4.249801819708497}, "southwest": {"lat": 40.38625626970849, "lng": -4.252499780291502}}}, "icon": "https://maps.gstatic.com/mapfiles/place_api/icons/v1/png_71/generic_business-71.png", "icon_background_color": "#7B9EB0", "icon_mask_base_uri": "https://maps.gstatic.com/mapfiles/place_api/icons/v2/generic_pinlet", "international_phone_number": "+34 918 65 03 95", "name": "Residencia Navas del Rey", "opening_hours": {"open_now": true}, "photos": [{"height": 480, "html_attributions": ["<a href=\"https://maps.google.com/maps/contrib/104053259527651730033\">Residencia Navas del Rey</a>"], "photo_reference": "AWn5SU5bGzHGIP3DFxI6CwJyQNPkEar4N4X8I3guOUuzV7fkSNjLfW7coujCEC2f2su7RPfSOTThPjb3xFsN24Sl3uwxnGgrOhImTC5_vBwne_kSGZhPQVry_6XMy_kOqF9vP6RsP3KDgOqycUhu_KFP9ItsmPPmlzdM14F9IV89rY_vb-mY6S_EBWjmC6EOXVAFMledQ5VHAZjAAcXRrXITsEG2du_JM8Q_U9yzX7jn1ZB8mW9wIxyjvbYBXG0NiHgt481YRndaycM_EQFpJ1huoNsfgDodBIfg2M-UuGswBh8eF2paHZLWDdocdAxYba08EXrFxam8cbQ", "width": 640}], "place_id": "ChIJwdoOHxmwQQ0RDTDwF_X398g", "plus_code": {"compound_code": "9PQX+2G Navas del Rey, Spain", "global_code": "8CGQ9PQX+2G"}, "rating": 4.2, "reference": "ChIJwdoOHxmwQQ0RDTDwF_X398g", "scope": "GOOGLE", "types": ["health", "point_of_interest", "establishment"], "user_ratings_total": 65, "vicinity": "Calle Aparejador Pedro de Tolosa, 1, Navas del Rey"}, {"business_status": "OPERATIONAL", "geometry": {"location": {"lat": 40.3808584, "lng": -4.220901199999999}, "viewport": {"northeast": {"lat": 40.3821606802915, "lng": -4.219540519708498}, "southwest": {"lat": 40.3794627197085, "lng": -4.222238480291503}}}, "icon": "https://maps.gstatic.com/mapfiles/place_api/icons/v1/png_71/generic_business-71.png", "icon_background_color": "#7B9EB0", "icon_mask_base_uri": "https://maps.gstatic.com/mapfiles/place_api/icons/v2/generic_pinlet", "international_phone_number": "+34 918 60 55 58", "name": "Neuforma S.L Ventanas de madera", "opening_hours": {"open_now": false}, "photos": [{"height": 1536, "html_attributions": ["<a href=\"https://maps.google.com/maps/contrib/101838254408614106792\">Neuforma S.L Ventanas de madera</a>"], "photo_reference": "AWn5SU6D9RSk9wWjkZOIPKjSc18_wTYk820KKmnipUasVPB9ejd--4pJDG5BpL8C9vNdhoTWh97YBHNw0xIzhLMF6eSNUEmst3wW4N7LYqW7i28joJFm1zIR8oOyKQpwtX9EYZ4u-4MttWlJ13MV1gBKushB8zH4W5ganDqP2MDKoyIRBijryiR0zss9yaM1hE8aSKhIqKYvSeMfZv_qx3LNPXaDM0gEj9NoJLuNo2vk-S9nJIqyZWCCElhoIslKRWJOchN6PTwOlArIHyiOUT6XivqFGFJ1ZvwUCNer-mLuAMZ461D1Yf6y6qvcX2nXdq_V0u3Lnmd5VXU", "width": 2048}], "place_id": "ChIJ2Ubec7u6QQ0R-ZVs1w7xDtc", "plus_code": {"compound_code": "9QJH+8J Chapinería, Spain", "global_code": "8CGQ9QJH+8J"}, "rating": 5, "reference": "ChIJ2Ubec7u6QQ0R-ZVs1w7xDtc", "scope": "GOOGLE", "types": ["general_contractor", "point_of_interest", "establishment"], "user_ratings_total": 16, "vicinity": "Avenida de los Cañales, 34, Chapinería"}, {"business_status": "OPERATIONAL", "geometry": {"location": {"lat": 40.39919019999999, "lng": -4.199850899999999}, "viewport": {"northeast": {"lat": 40.40055598029149, "lng": -4.198447169708498}, "southwest": {"lat": 40.39785801970849, "lng": -4.201145130291502}}}, "icon": "https://maps.gstatic.com/mapfiles/place_api/icons/v1/png_71/shopping-71.png", "icon_background_color": "#4B96F3", "icon_mask_base_uri": "https://maps.gstatic.com/mapfiles/place_api/icons/v2/shopping_pinlet", "international_phone_number": "+34 609 20 50 36", "name": "Grupo Foto", "place_id": "ChIJJajSL4WJQQ0RvQpjoDR7Gsg", "plus_code": {"compound_code": "9RX2+M3 Chapinería, Spain", "global_code": "8CGQ9RX2+M3"}, "reference": "ChIJJajSL4WJQQ0RvQpjoDR7Gsg", "scope": "GOOGLE", "types": ["electronics_store", "home_goods_store", "point_of_interest", "store", "establishment"], "vicinity": "Calle Eucalipto, 2, Chapinería"}, {"business_status": "OPERATIONAL", "geometry": {"location": {"lat": 40.3818853, "lng": -4.2169174}, "viewport": {"northeast": {"lat": 40.3833475802915, "lng": -4.215594369708498}, "southwest": {"lat": 40.3806496197085, "lng": -4.218292330291503}}}, "icon": "https://maps.gstatic.com/mapfiles/place_api/icons/v1/png_71/shopping-71.png", "icon_background_color": "#4B96F3", "icon_mask_base_uri": "https://maps.gstatic.com/mapfiles/place_api/icons/v2/shopping_pinlet", "international_phone_number": "+34 918 54 80 84", "name": "Galpark Ibérica", "opening_hours": {"open_now": false}, "photos": [{"height": 768, "html_attributions": ["<a href=\"https://maps.google.com/maps/contrib/117142952443570834146\">Galpark Ibérica</a>"], "photo_reference": "AWn5SU4TFxWbVqsNrDP47tXm63N5rd04Opcnf99D0t6_Z1n3kLvfzi7-820RWkPlFQIQoNuL7FTjoeveKRTrFgZ2qd08Jp8TUEaYimltT-WfOj6U_pYsKA6noiNNvoXJtPekx-xCvpOajWJeX4Rb2jHy2yT1qlAej15v6NgK6ivkfNc6oQI0wQkPpwCxn6CwF69-m9mDeuNwijxNM7H9NGCtv0MhlFm0tW3uwGEJuNyq4s_SsFgUW2dv1FdAsAtjdUzwydnlCIJBvuoaIZiKnGrhu6c2aGvcuanbj3mHvdOwPEOQGM98Bueh-W5TSgvisoaMV2uOuRbsNJU", "width": 1024}], "place_id": "ChIJzwAzTrYMQQ0Rw2OS3YFLxSw", "plus_code": {"compound_code": "9QJM+Q6 Chapinería, Spain", "global_code": "8CGQ9QJM+Q6"}, "rating": 4.3, "reference": "ChIJzwAzTrYMQQ0Rw2OS3YFLxSw", "scope": "GOOGLE", "types": ["furniture_store", "home_goods_store", "point_of_interest", "store", "establishment"], "user_ratings_total": 13, "vicinity": "Calle Fuente de la Apretura, 13, Chapinería"}, {"business_status": "OPERATIONAL", "geometry": {"location": {"lat": 40.3849558, "lng": -4.2481352}, "viewport": {"northeast": {"lat": 40.3863026802915, "lng": -4.246738969708498}, "southwest": {"lat": 40.3836047197085, "lng": -4.249436930291503}}}, "icon": "https://maps.gstatic.com/mapfiles/place_api/icons/v1/png_71/generic_business-71.png", "icon_background_color": "#7B9EB0", "icon_mask_base_uri": "https://maps.gstatic.com/mapfiles/place_api/icons/v2/generic_pinlet", "international_phone_number": "+34 655 49 17 86", "name": "Clínica Veterinaria Huellas", "opening_hours": {"open_now": false}, "photos": [{"height": 2448, "html_attributions": ["<a href=\"https://maps.google.com/maps/contrib/116038292274854872541\">Rocio Fernández</a>"], "photo_reference": "AWn5SU4RUYomEQc4vshFx1IF1tiqyfwwoV4m9ETsl1OOW6qiM48VDdTi4jR17v_fmNhgglVBT_UOetNIwFE-Kt2J4_jUySPQI890OnvZ5otnCLN8EHl33qKEcP1U547zgokSo4XBUd8TU5vkb1M-CTXAsQ1AyNt1w2waelDk9RFQVGDEWWtfzcqaNl-e9GVjp6iHLoqAkGHa2x0DVTXJXLqMAIPFWxaOcVafzkdWf3FXpvFEq5D1kyiBxelcYHkwZ0Y962R9tzZwWw2sgqu4S6q9D4wxwwPvcKI9gFD5JXfzIuKxAkYuwcO4jD0b3_ZGhO7mpcAaWM2eqsS03AWqwvF0mtCpNDxJgjaHD3jVm_8tJEE8Whsth7zLYRl0GGf4py4HOSHCbKEgjkHAj_ezxvaexyvwNNO4nc2IuykCqGoxOwwiO7wJvDVH9NSlPI6K2basOmDcmPz5IsTHJELB-8IbxagdQO57xWOdvO_94jumPx44mNiNLVOGyGICd5DcI8qyLA2U3dLw_yPMwUXae_GEZVR5G755H7szh4xK2YZD8i0yJs_vno4LNZSZUREPreWufzRQ7vhc0PzVDdLSeF-scEK-9U9sJ9y14jTy3X03iJoXTdCCPWLIg_Rb4paXyooShghDPQ", "width": 3264}], "place_id": "ChIJz3-uOxqwQQ0R5EGwZSaqdl4", "plus_code": {"compound_code": "9QM2+XP Navas del Rey, Spain", "global_code": "8CGQ9QM2+XP"}, "rating": 4.8, "reference": "ChIJz3-uOxqwQQ0R5EGwZSaqdl4", "scope": "GOOGLE", "types": ["veterinary_care", "point_of_interest", "establishment"], "user_ratings_total": 97, "vicinity": "Avenida de Madrid, 4, Navas del Rey"}, {"business_status": "OPERATIONAL", "geometry": {"location": {"lat": 40.383895, "lng": -4.2512994}, "viewport": {"northeast": {"lat": 40.38523058029151, "lng": -4.249929069708498}, "southwest": {"lat": 40.38253261970851, "lng": -4.252627030291502}}}, "icon": "https://maps.gstatic.com/mapfiles/place_api/icons/v1/png_71/school-71.png", "icon_background_color": "#7B9EB0", "icon_mask_base_uri": "https://maps.gstatic.com/mapfiles/place_api/icons/v2/school_pinlet", "international_phone_number": "+34 619 03 21 11", "name": "Autoescuela San Martín - Navas del Rey", "opening_hours": {"open_now": false}, "place_id": "ChIJDS8SWhewQQ0RVJgmJFRPjAw", "plus_code": {"compound_code": "9PMX+HF Navas del Rey, Spain", "global_code": "8CGQ9PMX+HF"}, "rating": 4.9, "reference": "ChIJDS8SWhewQQ0RVJgmJFRPjAw", "scope": "GOOGLE", "types": ["point_of_interest", "establishment"], "user_ratings_total": 109, "vicinity": "Avenida de Madrid, 62, Navas del Rey"}, {"business_status": "OPERATIONAL", "geometry": {"location": {"lat": 40.3841341, "lng": -4.251130799999999}, "viewport": {"northeast": {"lat": 40.3854921302915, "lng": -4.249726119708497}, "southwest": {"lat": 40.3827941697085, "lng": -4.252424080291502}}}, "icon": "https://maps.gstatic.com/mapfiles/place_api/icons/v1/png_71/civic_building-71.png", "icon_background_color": "#7B9EB0", "icon_mask_base_uri": "https://maps.gstatic.com/mapfiles/place_api/icons/v2/civic-bldg_pinlet", "international_phone_number": "+34 918 65 08 70", "name": "Oficina Rural de Correos", "opening_hours": {"open_now": false}, "photos": [{"height": 3024, "html_attributions": ["<a href=\"https://maps.google.com/maps/contrib/107824108004755455711\">Anna N</a>"], "photo_reference": "AWn5SU7DmxdmQCqZRRt__qq85iUzKyb644gAa4TvJMT47Bs-7oUM0PrCibabdf_2NmIjV2MYT_bVJ4wHsufGp6a-NqnizQagegVp5RJy2EJoWLeoLzgW7tYVJNdu5p2i1TFOhr1CgUMIzg2cpiaQybERVZZadv2WRORgGrohQBeGvpqSeAWQYPSj0UPEh8DnldZ1opSKmmrv5w0wYTIm5rbuWqNLs9Ng0pE0Up_zH6uC3PEkGBnVess-DVTDMPn6ooo78bMBOrAbHXZyKOiqvtopEQKdWUuhdvIbsZC4wzfxfYx_ul_B06wsu4xwhsXrK3x7yw9d73P1HdRXfVb4BOmhWlv1svS-eOnWeiCM_B93OePVpLwNlWxeqb-mA5XHI4ZudcI3hsE7M3qgDnrKDY8hOGdWjo90NM88AnGeJwKdslKA-NmFhoDAd5IYjSQI3WvUyFC1U8m4oAs0MPumHlzJtzCXhRSHrtU42VZYCIvCzxV-5A8LcFTXYxvYdAZRpjwlvZLBYglZfY1hBAQUWTH0KskDuSQbKhnZzH8WGhurNgbQLWI6aIKuP9yr8P5QzMbaw1vLQD-0a4dOUT7A8pxxYwZTQxA_jcf0uc3bMOldHci-8ehjm_Pc3PlHBws7BJU6", "width": 3024}], "place_id": "ChIJndoX0RmwQQ0Rj1UXwnRz0Ew", "plus_code": {"compound_code": "9PMX+MG Navas del Rey, Spain", "global_code": "8CGQ9PMX+MG"}, "rating": 2.3, "reference": "ChIJndoX0RmwQQ0Rj1UXwnRz0Ew", "scope": "GOOGLE", "types": ["post_office", "finance", "point_of_interest", "establishment"], "user_ratings_total": 17, "vicinity": "Avenida de Madrid, 56, Navas del Rey"}, {"business_status": "OPERATIONAL", "geometry": {"location": {"lat": 40.4194482, "lng": -4.1984254}, "viewport": {"northeast": {"lat": 40.4207876802915, "lng": -4.197028069708498}, "southwest": {"lat": 40.4180897197085, "lng": -4.199726030291503}}}, "icon": "https://maps.gstatic.com/mapfiles/place_api/icons/v1/png_71/civic_building-71.png", "icon_background_color": "#7B9EB0", "icon_mask_base_uri": "https://maps.gstatic.com/mapfiles/place_api/icons/v2/civic-bldg_pinlet", "international_phone_number": "+34 918 65 10 24", "name": "Consultorio Local Colmenar Del Arroyo", "opening_hours": {"open_now": false}, "photos": [{"height": 2351, "html_attributions": ["<a href=\"https://maps.google.com/maps/contrib/103644858766260406648\">Un opinante delirante</a>"], "photo_reference": "AWn5SU4mErAHgTQdlEUJiGupOf_RNEkwSTKPbP6vWzKG7vWQyvmY5qUxuAh1Z8HE01v5CsULys5YmRQcXO1hcHVMm4axn9rAPka7ncCaQj6UtHXcyN2p8nf0ic65TMoihNeVZHCiF_uJkxmiMOItDkKjnnv6rmvkhk9PYR_PJ59pfz0apsmxAq07ufLzWM8aTPlQwCB1JsePEJuWaU3Ni5X6bQIpWTJzEiejOnxvCvBvgCF5JMbYS0MLosQzqBgo6LawCK-v6DB4zggHhXZT5e49WSYgbdXrf5EIy-nIBaz-vohXnShbFyzeTPFGfvUgscAVsh7UsUH5Xgczuyihzd6myRy8F3rwA71GVQAENll1U4ATq7ITCzNeUtVCpN6ZIqO9vu0sz7wPBm7ta8F5UDPlOOV9l1rKZRxz3zyf_XgotzhwYHptr_BEoY_JtWNLE3juDkQ7I1pZAE4Rewql9bXtqgkyf0I4aJK8-3BQLxMw3QHT4N-ZMVCHP4OldRm6DHn2E_BTUtVI8jaB1cPQR-62OaVSpXYXdb7lXnt0mdWccsRwwgli_yK4ylFNGaGAG6aRQvzyM5QtRPsbFKTEGBgIFPe1RgJ3XzRAPEeij-A2N2cLlQI1SZ_UJo8W3YPiVGTMKCxAyA", "width": 3887}], "place_id": "ChIJg6L83hmwQQ0RSawHpYFt4uk", "plus_code": {"compound_code": "CR92+QJ Colmenar del Arroyo, Spain", "global_code": "8CGQCR92+QJ"}, "rating": 3.4, "reference": "ChIJg6L83hmwQQ0RSawHpYFt4uk", "scope": "GOOGLE", "types": ["health", "point_of_interest", "establishment"], "user_ratings_total": 11, "vicinity": "Calle Real, 7, Colmenar del Arroyo"}, {"business_status": "OPERATIONAL", "geometry": {"location": {"lat": 40.3860327, "lng": -4.244468999999999}, "viewport": {"northeast": {"lat": 40.3873384802915, "lng": -4.243186019708499}, "southwest": {"lat": 40.3846405197085, "lng": -4.245883980291503}}}, "icon": "https://maps.gstatic.com/mapfiles/place_api/icons/v1/png_71/generic_business-71.png", "icon_background_color": "#7B9EB0", "icon_mask_base_uri": "https://maps.gstatic.com/mapfiles/place_api/icons/v2/generic_pinlet", "international_phone_number": "+34 918 65 02 56", "name": "Maydecor Núñez", "opening_hours": {"open_now": false}, "photos": [{"height": 768, "html_attributions": ["<a href=\"https://maps.google.com/maps/contrib/104683067626746567939\">Maydecor Núñez</a>"], "photo_reference": "AWn5SU5EGAXKC3YRvaOcn7HXta5LXS6mkmbjoNgqUWPoZNX5_cO4WVvX27yQm7e78QcGSCh2ucoZ7HLH44Ffu3DsNJ-TYrGxcJLEZxvfiq3qzilKpOiEkeyWvqVhfKUZx5catUFMYK8_lBtuA-uKwzIjrjEYzGUKyhvWR7prpHNdwZuVdAt07Um4reC5FoEDC1xPG4XsEA8lb96fuJ52DlMofAvP33cMRGQASxi0AX-hilaGlWGopFt_NYn_3vdhc5R6oFiQVEd9pW2ZSiZnix4ly9bgL-QwqtaCdEhDkp-CRM-Xb7trZlitIvMppROYZE5Tu0qfGBSVHGY", "width": 1366}], "place_id": "ChIJE0V_R8SxQQ0RmbZJwu-whCY", "plus_code": {"compound_code": "9QP4+C6 Navas del Rey, Spain", "global_code": "8CGQ9QP4+C6"}, "rating": 4.4, "reference": "ChIJE0V_R8SxQQ0RmbZJwu-whCY", "scope": "GOOGLE", "types": ["home_goods_store", "point_of_interest", "store", "establishment"], "user_ratings_total": 55, "vicinity": "Calle de la Cañada Ajos, 4, 6, Navas del Rey"}, {"business_status": "OPERATIONAL", "geometry": {"location": {"lat": 40.4185129, "lng": -4.199547}, "viewport": {"northeast": {"lat": 40.4198081802915, "lng": -4.198123319708499}, "southwest": {"lat": 40.4171102197085, "lng": -4.200821280291503}}}, "icon": "https://maps.gstatic.com/mapfiles/place_api/icons/v1/png_71/school-71.png", "icon_background_color": "#7B9EB0", "icon_mask_base_uri": "https://maps.gstatic.com/mapfiles/place_api/icons/v2/school_pinlet", "international_phone_number": "+34 918 65 13 48", "name": "Public school San Vicente", "photos": [{"height": 3984, "html_attributions": ["<a href=\"https://maps.google.com/maps/contrib/116159096298803854095\">Antoño “El Tio Antoño” El Tío</a>"], "photo_reference": "AWn5SU4nQpyOY5Teoztp9PqXiUxDA9GDh4d-KfZbzq-MyAPoIrHcOtAlitHcRbMsN2prPKQSulFjd4epSAD46Qx-9yyx4pwIsdKuRbOISQ9QUNROm-YNpbh9VDyZ-scAlcI6FqgfrYSgPNGTvUIv7lGeIlx7bF2_uqLFpvAMY4wtbuQvD0rcJL-m0VpkxIEJOpBgr89Jn41luTvyFHI6fJ_5o-kowfOCXRewPtC8epdRmhu-5eLsCVfjkiLuAvl5Z0KZYN1FwD_pUlSJwKfo3DhBahrmgAsACx6UzzCyVowIve4yq6QGutExYOt6RGKFXFo-ULmbE8w7hLdn_XXpgPpLzjSDHmQATfitadQJC9hi3EGlObe_5opP9_JMj4mm9WkGL69n5JdM1ocGHZzk5KCAz5jTV3K_2m32M0ybK1ptFLrY1KHCWZ-GFHRA4x87Jt8aHRkODCIrHOuaNA6j68SzVgl8q3y8rssQHkBHwyaZScb8X13widHHoirbhGdVAt4ULdsf-2waFt0R_BnGbWOCV0f2X5nvF6wQv7pTM8uImpWLuN8OmviNU137uyMWLWk3XLE9SHxyEG7FE4PGEpLlcjSdXSusECwAUqFr3-18cIzUI9cBepjjA0sAbR1F7ETNYenn3A", "width": 2988}], "place_id": "ChIJW-bj_BilQQ0R6eDHGjCwLAc", "plus_code": {"compound_code": "CR92+C5 Colmenar del Arroyo, Spain", "global_code": "8CGQCR92+C5"}, "reference": "ChIJW-bj_BilQQ0R6eDHGjCwLAc", "scope": "GOOGLE", "types": ["school", "point_of_interest", "establishment"], "vicinity": "Calle de las Escuelas, Colmenar del Arroyo"}, {"business_status": "OPERATIONAL", "geometry": {"location": {"lat": 40.3801574, "lng": -4.2082166}, "viewport": {"northeast": {"lat": 40.3814697802915, "lng": -4.206883919708497}, "southwest": {"lat": 40.3787718197085, "lng": -4.209581880291502}}}, "icon": "https://maps.gstatic.com/mapfiles/place_api/icons/v1/png_71/generic_business-71.png", "icon_background_color": "#7B9EB0", "icon_mask_base_uri": "https://maps.gstatic.com/mapfiles/place_api/icons/v2/generic_pinlet", "international_phone_number": "+34 918 65 21 87", "name": "Saina E Hijos S L", "opening_hours": {"open_now": false}, "photos": [{"height": 3000, "html_attributions": ["<a href=\"https://maps.google.com/maps/contrib/110537374073773109895\">IRIS HERNANDEZ MUÑOZ</a>"], "photo_reference": "AWn5SU7EWfzlq3xMMlfn2LAX7M-MfhYWKY8SVhcX_Sl-h6pMwrCrImTAiU-_Dyikv_BL9K8a4uQcMH6saAwoGFRcIuyIlknzbXf3q9h-cOfgOWpqPTsoJG2MvLQH1VVBFx87w5XKwyOhF2nIP8-6wk_Hj5FN0u5tl8EybF4lJsQwybjXRIfVTDtXjxiQgHEyXeXhOQB3wsrp7K0LzPgAZyxOOv6u45IHo8jrX-OfvHeAx9wh4MBvn3MoU9h4EvXSWK7Mj_rJCQlTIUc-dQrkbZX0FhJ_JzUxy-IYIz2w3AISk6qQGde_fvqb5znd7OE1HsCkfuGP_aoxjeGNo9rVM-jCfNPFVoITG2AdFks9dQHAuq9zZjO-nWzxOAYd6c6uiKWUisy9eGnAQ3qHCTB6TImv3QEEQjhiJ558BZcmFBJvcarYnx6MzXCgRRDIbeueC7CtLeui4jvk8ITL2GdHxNQhvFMpApa36RnqK3huj8PV8SFGJTqYDPQYRSsZU-9eq7Ef1VU0JYyqQAEiEiW4nUv8tCoPkED6NNkLiZOQeua3T8feMO_6AqOY9rV-GYCrOUGzBtDXDKOGAZYLjOH1oJlDOFOgL4AWYqP_lQP3bpqPgbyNxObZbWFoXIRSc0rPhcn5S016NQ", "width": 4000}], "place_id": "ChIJpS_2TMG6QQ0RXVdJdO1AxLs", "plus_code": {"compound_code": "9QJR+3P Chapinería, Spain", "global_code": "8CGQ9QJR+3P"}, "rating": 4.2, "reference": "ChIJpS_2TMG6QQ0RXVdJdO1AxLs", "scope": "GOOGLE", "types": ["point_of_interest", "establishment"], "user_ratings_total": 12, "vicinity": "Calle del Matadero, 1, Chapinería"}, {"business_status": "OPERATIONAL", "geometry": {"location": {"lat": 40.37956579999999, "lng": -4.2192142}, "viewport": {"northeast": {"lat": 40.38095733029149, "lng": -4.217875019708498}, "southwest": {"lat": 40.37825936970849, "lng": -4.220572980291502}}}, "icon": "https://maps.gstatic.com/mapfiles/place_api/icons/v1/png_71/generic_business-71.png", "icon_background_color": "#7B9EB0", "icon_mask_base_uri": "https://maps.gstatic.com/mapfiles/place_api/icons/v2/generic_pinlet", "international_phone_number": "+34 918 65 21 86", "name": "ROTULAND", "opening_hours": {"open_now": false}, "photos": [{"height": 2654, "html_attributions": ["<a href=\"https://maps.google.com/maps/contrib/110985290954833923819\">ROTULAND</a>"], "photo_reference": "AWn5SU652cZ03Zij8ICC30BcdwxNGo6g7cT5pskGzeZofVERH4IwReXa-wkjx-8EAgZqDtjOUWosoyR_aASIOXWcG1tL10N9QKZp-iiVe92db-XwzVUGVVdgi_TNzwPqvRr7Hntq7UAtaqIiNUE_PJwUh0xk805vRv4hMbBA3UP8XPFHzu50UH1ucdPS0BBhO06-1XhiDl7q2vm8UZQJebBa2An5TeE6SntTjT9Aoj4Vf4ByrbxDEn2famtGlFW1_LLRi5NM4ja54W07krzrLciJzV7cD-Dt5Coua9IesIuUZlqPk4pz0mCRcLV4YoWDlOLMVSL4R3ChVWo", "width": 2271}], "place_id": "ChIJC8LXery6QQ0Ry4HDk9kjgQk", "plus_code": {"compound_code": "9QHJ+R8 Chapinería, Spain", "global_code": "8CGQ9QHJ+R8"}, "reference": "ChIJC8LXery6QQ0Ry4HDk9kjgQk", "scope": "GOOGLE", "types": ["point_of_interest", "establishment"], "vicinity": "Calle Marqués de Villanueva de la Sagra, 54, Chapinería"}, {"business_status": "OPERATIONAL", "geometry": {"location": {"lat": 40.3784536, "lng": -4.2101315}, "viewport": {"northeast": {"lat": 40.3797837802915, "lng": -4.208720669708498}, "southwest": {"lat": 40.3770858197085, "lng": -4.211418630291503}}}, "icon": "https://maps.gstatic.com/mapfiles/place_api/icons/v1/png_71/generic_business-71.png", "icon_background_color": "#7B9EB0", "icon_mask_base_uri": "https://maps.gstatic.com/mapfiles/place_api/icons/v2/generic_pinlet", "international_phone_number": "+34 918 65 24 74", "name": "DECA ASESORAMIENTO Y GESTION INTEGRAL DE EMPRESAS, S.L.", "opening_hours": {"open_now": false}, "place_id": "ChIJy3eWHMG6QQ0RPNXoEwclPg4", "plus_code": {"compound_code": "9QHQ+9W Chapinería, Spain", "global_code": "8CGQ9QHQ+9W"}, "rating": 3.4, "reference": "ChIJy3eWHMG6QQ0RPNXoEwclPg4", "scope": "GOOGLE", "types": ["finance", "point_of_interest", "establishment"], "user_ratings_total": 17, "vicinity": "Calle de Prudencio Melo, 14, Chapinería"}, {"geometry": {"location": {"lat": 40.4176079, "lng": -4.1987434}, "viewport": {"northeast": {"lat": 40.42626307663302, "lng": -4.190691957953372}, "southwest": {"lat": 40.41145113340971, "lng": -4.203427133936692}}}, "icon": "https://maps.gstatic.com/mapfiles/place_api/icons/v1/png_71/geocode-71.png", "icon_background_color": "#7B9EB0", "icon_mask_base_uri": "https://maps.gstatic.com/mapfiles/place_api/icons/v2/generic_pinlet", "name": "Colmenar del Arroyo", "photos": [{"height": 1468, "html_attributions": ["<a href=\"https://maps.google.com/maps/contrib/101321764474141234821\">ricardo fernández del Blanco</a>"], "photo_reference": "AWn5SU5p5_6qYJeu6C_RIB49uHkR0KIIPsgAmcj9rvOeQAkyRIIDu9UAXlGDQHcCcxIqX1_QUtEe9ux7d0ACjC3V2Sly-CzSv8PExcW5klrKrILf46lZBr4gCTRFuIlxzYlFKRdOPN0e3VL7Lz3EYgaWmD7q8lNOLGnJfBR-8c-iMbMj3bRPoYoBXwRI6eyjRuGu0kHFBMiuSOMJWy2eQk57y8BPKc1FeWwV9h3r3bIM9B5WBMIsCtVdQy9Wrn1qSgCaV85cm-T6U0pG0uPQL2DCn3NaXiB3qyHMVl-R14XArjV6zsS06e7zlVqu-6zPvSBGEOOfNJQBqAJDJ9Pi1TogjXOsVOp11ep2DcKwzdK1WMp-k76_Yo8rDbKhZGKNbrC6iiuZoX3xDJGsiFU64vDCp26YuOCJT2GjjfZSH7o81TJ5JUU_tt4t4bwHa8C_3FdEhdpJItTjAPynugtV0dsEpp1ujG3WtVlAwpQO95cv3fCmGmOtU1d6x8sG8AdIVshZQWsPlYRpq8Q79BeP7gAQkNwA5efKpEwxiNsg8AdNE1oybRAIibxBp2h72rtO-_xSsOxPN7bzxVm-BvE5aSR84ls5Fj9I0yyumDUOnJ5_iNdSFnlv44U8-485HOjE9JowYOJ6fg", "width": 3264}], "place_id": "ChIJTcyaBiKlQQ0RLGDHkdveVYA", "reference": "ChIJTcyaBiKlQQ0RLGDHkdveVYA", "scope": "GOOGLE", "types": ["locality", "political"], "vicinity": "Colmenar del Arroyo"}]