[{"business_status": "OPERATIONAL", "geometry": {"location": {"lat": 40.8082755, "lng": -3.6910153}, "viewport": {"northeast": {"lat": 40.8096261802915, "lng": -3.689611669708497}, "southwest": {"lat": 40.8069282197085, "lng": -3.692309630291502}}}, "icon": "https://maps.gstatic.com/mapfiles/place_api/icons/v1/png_71/camping-71.png", "icon_background_color": "#4DB546", "icon_mask_base_uri": "https://maps.gstatic.com/mapfiles/place_api/icons/v2/camping_pinlet", "international_phone_number": "+34 918 43 22 68", "name": "Camping Piscis", "opening_hours": {"open_now": false}, "photos": [{"height": 979, "html_attributions": ["<a href=\"https://maps.google.com/maps/contrib/112692513844961861789\">Camping Piscis</a>"], "photo_reference": "AWn5SU5PuSkAcmfU3zmx8FtDiN88Usfn4RQqSS1-yComULPEpY1ZYiwgyeR-I68J7mh0bnN71f9pqUJuCuQs5HgFEJfP_khp1uf3lx78Px4BzmQwdHGvFlLFBBVdj8q3fpbChtVLAdZZAjsxN8KXBf76AL6YElAGE3zE5vNc_aK5CybnIrTJ-DPTDS6hz8e78DbT53Iux0vaMd53iClTWuj0myx76x_9SdXz-D7Av6TGJEQMYOfBgHg1Wq3gswNV4TxsspxLv6uFYyX8nHqQrBSOPplrpeLhgmnvBJe6XsYkbFYWh5Eq5Q-f95TwjeaxK8Zg4h3SIyjpl0E", "width": 1283}], "place_id": "ChIJ1_YqaKDbQw0Rt70KJtK9XPs", "plus_code": {"compound_code": "R855+8H Navalafuente, Spain", "global_code": "8CGRR855+8H"}, "rating": 3.9, "reference": "ChIJ1_YqaKDbQw0Rt70KJtK9XPs", "scope": "GOOGLE", "types": ["campground", "park", "lodging", "point_of_interest", "establishment"], "user_ratings_total": 720, "vicinity": "M-625, km.18, Navalafuente"}, {"business_status": "OPERATIONAL", "geometry": {"location": {"lat": 40.8236334, "lng": -3.6754488}, "viewport": {"northeast": {"lat": 40.82498818029149, "lng": -3.674105469708498}, "southwest": {"lat": 40.82229021970849, "lng": -3.676803430291502}}}, "icon": "https://maps.gstatic.com/mapfiles/place_api/icons/v1/png_71/park-71.png", "icon_background_color": "#4DB546", "icon_mask_base_uri": "https://maps.gstatic.com/mapfiles/place_api/icons/v2/tree_pinlet", "name": "Fuente Agua potable", "place_id": "ChIJqc_QXgDfQw0RRTDUnllWXL0", "plus_code": {"compound_code": "R8FF+FR Navalafuente, Spain", "global_code": "8CGRR8FF+FR"}, "reference": "ChIJqc_QXgDfQw0RRTDUnllWXL0", "scope": "GOOGLE", "types": ["park", "point_of_interest", "establishment"], "vicinity": "Calle Iglesia, 6, Navalafuente"}, {"business_status": "OPERATIONAL", "geometry": {"location": {"lat": 40.82421289999999, "lng": -3.6699077}, "viewport": {"northeast": {"lat": 40.82560788029149, "lng": -3.668501869708498}, "southwest": {"lat": 40.8229099197085, "lng": -3.671199830291502}}}, "icon": "https://maps.gstatic.com/mapfiles/place_api/icons/v1/png_71/park-71.png", "icon_background_color": "#4DB546", "icon_mask_base_uri": "https://maps.gstatic.com/mapfiles/place_api/icons/v2/tree_pinlet", "name": "Arroyo Garguera", "opening_hours": {"open_now": true}, "photos": [{"height": 4000, "html_attributions": ["<a href=\"https://maps.google.com/maps/contrib/115805043698098802102\">lasoleaf Fotografía</a>"], "photo_reference": "AWn5SU6_m-a3cwZoH0Rt4Y10YUZWOYQTCUllxMW89rUjckH8jVYlTQmBErojggTrrW3uzRFHW6iW1mknAi08Mc1bOzJP48vklwouwTWlIqwC_mjEdC_LxGcJKbvWXIvIiAxVhEMfTNRk_XPMJbhGCpmQfouqP9ebBVERe1N6QZSxeBT9azy7x0W1iP-3CZrW06y7InZtREGftfathLOzGevGLLEaAQ_mrC7JwyJ-GwzJoOxgpi9YmVg-vspLsyDDgaB_ZRWHD2JBG36BTTAcK-2jyOSonYIVs3SyUDq6QfHI_VYQqIqYIWXyVtrxoRSUEqTmYEYor7cYK28f6uP3FvaPiRu8JxnYF0AiPmE3uWFw2ooyPBfC8akKuuiVUsZpMhMy-vvmMSd4oTmdrC6uBijww6Z3DcuMIdpu4YH9cmhs77Oa5FNMKx5a-lyemgamCVVY1MABqk5OWCYreTgL-nDLgWUZ1f701O5qGLJNPxbVo5fA0hslKNYJT1i2a2hlmilAQBQMcf7CzC0sCNnvQnIPqyrpSq1gF2uTT9_ZJW8L6phC2bCueXQFUFJvnU2KHIeW4LK0oQWCJdmnOmBdha6RvtrNeU0QgAswhg6r7sjffFJV93y41A3waTU-H78V8t4vyFtF8w", "width": 2992}], "place_id": "ChIJzw0uLazeQw0Rb4P7jOYpRB4", "plus_code": {"compound_code": "R8FJ+M2 Navalafuente, Spain", "global_code": "8CGRR8FJ+M2"}, "rating": 4.5, "reference": "ChIJzw0uLazeQw0Rb4P7jOYpRB4", "scope": "GOOGLE", "types": ["park", "point_of_interest", "establishment"], "user_ratings_total": 123, "vicinity": "Calle Cancho, Navalafuente"}, {"business_status": "OPERATIONAL", "geometry": {"location": {"lat": 40.8211808, "lng": -3.6724648}, "viewport": {"northeast": {"lat": 40.82250063029149, "lng": -3.671558849999999}, "southwest": {"lat": 40.81980266970849, "lng": -3.67512345}}}, "icon": "https://maps.gstatic.com/mapfiles/place_api/icons/v1/png_71/park-71.png", "icon_background_color": "#4DB546", "icon_mask_base_uri": "https://maps.gstatic.com/mapfiles/place_api/icons/v2/tree_pinlet", "name": "Camino Navalafuente-Las Viñas", "opening_hours": {"open_now": true}, "photos": [{"height": 4624, "html_attributions": ["<a href=\"https://maps.google.com/maps/contrib/116014577086053006904\">danil</a>"], "photo_reference": "AWn5SU7m9kiIxaYHu0ub60eCCeYYzDxouPyVBDNHeyp9b6XSFIv0945kJlkpJ4rooIqXFdsAB21box4QpVkDKfv4huGbxiu3E_s5TVMIbZx2CG8APuMWXX6Jas2pd4w0Z1U8E3NiTVZ8ZPUG8hvEkup0l8u9fNyb1xPNAbzPWKXMqZtkZOELqfjBltYZADrg-Nn7LMDGkMBVRSMfwlAOaOQQf2_pYEX_bBH0_o44CriTq0YmY_Lxz3cWoc93pLaHRmCR9uxkIkZTh9PZnOfao3G-xa6Kkdgb5ssap6EgYN7j2vUbNz19euQ4RKN8Gm0U3sFxGjDSp7DGygWYnZsx3Efp3S0uifMi5CKkQlQducU9hrzFrqSaXInkcYXLGbq9LI4oWGehpvuEs55xncmDDXEVgGy1YqYW_8_ojzVj_gx4QVpEC_9s8QG2IvVarlrHqZBkzHMcuL2KhOEnk7nNTszhbcxDAlfbeeeym1twPhqn212RRXImLvskwVebAoitX-DSwQu4CHAU7e8ClRP2zxOsJyTI2DWU3F-d3V_-sgoqs3IMEtm1hXcEn6kxCD0hAr3aeY6QqiAEfWzXpBjcbg0kgyzKVgEcBi9cHjsQzjQ_3YW633PbuN5jL2j8TF5z5a3g7HuDRvB1", "width": 3468}], "place_id": "ChIJl12On_3fQw0RSTgfjjzD3M8", "rating": 4.7, "reference": "ChIJl12On_3fQw0RSTgfjjzD3M8", "scope": "GOOGLE", "types": ["park", "point_of_interest", "establishment"], "user_ratings_total": 3, "vicinity": "R8CH+F2, Navalafuente"}, {"business_status": "OPERATIONAL", "geometry": {"location": {"lat": 40.8222221, "lng": -3.6773737}, "viewport": {"northeast": {"lat": 40.8235957802915, "lng": -3.676035319708498}, "southwest": {"lat": 40.82089781970851, "lng": -3.678733280291503}}}, "icon": "https://maps.gstatic.com/mapfiles/place_api/icons/v1/png_71/park-71.png", "icon_background_color": "#4DB546", "icon_mask_base_uri": "https://maps.gstatic.com/mapfiles/place_api/icons/v2/tree_pinlet", "name": "Eras Park", "opening_hours": {"open_now": true}, "photos": [{"height": 4624, "html_attributions": ["<a href=\"https://maps.google.com/maps/contrib/116014577086053006904\">danil</a>"], "photo_reference": "AWn5SU54OEz1UWenPsq0i_CeBMPAPHv2ksOv203jZad5sAHujmY8E9znrVcOyo6-yOCs4R5ApU7jBZ1ksMSNGirz1o02XaWrDI6IIyis15SYQx9F4DtKiNzRKxaC4rUTBc-NbuU_2l8PzsBJz8QYHrr_CuzFcpAIZMDCVQp7b-XCsQQeRGZsJU7HRNjkCQfyvJL2VCKpyWh3LkBHQ6zJ7X-HZHOQtHfKJOcWRVKdAd8Gdvyt-7B9KE2RDndgWHJe_tfjT-lfHsJ87rWNjUdXKdLpVnTKazncfw1GpAjM5pYh2w2jNTcgiR3v0lr-RAlP-DPpshKdzxtsu7lgItyvXIpvXDj9z69X88NvmSueybSGApUquesbFTD0904X97QZ6j4huyA5KGP42euouhesu0I0lDWoJdIN6vQ8-9rpBoZg6pAcK7HFVRt70uPeVR3UxUTI8v7EuwreRXsc-J5MZXNDonHq2BPS3hyD0lqYXVjO9ewrSKPcDWnH2dqMPRKLB_eiEOH3Zz8YQQUXfxlOsLZ_mB04NpN0itRMNFOI2fg4KMfaJQEZKbICh7IJnyQ5_ESNLmyeTkEQNNRT9BhjswHPkDVv8hXPlh9pt1gq5JmLbhO73nuiFbvAd4SI7jNeFRz2zkp8rQ", "width": 3468}], "place_id": "ChIJ-1ypHd3fQw0RXUI9awC1Pl8", "plus_code": {"compound_code": "R8CF+V3 Navalafuente, Spain", "global_code": "8CGRR8CF+V3"}, "rating": 5, "reference": "ChIJ-1ypHd3fQw0RXUI9awC1Pl8", "scope": "GOOGLE", "types": ["park", "point_of_interest", "establishment"], "user_ratings_total": 1, "vicinity": "Calle Eras de Arriba, 1, Navalafuente"}, {"business_status": "OPERATIONAL", "geometry": {"location": {"lat": 40.8283942, "lng": -3.6742068}, "viewport": {"northeast": {"lat": 40.82924483029149, "lng": -3.672448419708498}, "southwest": {"lat": 40.82654686970849, "lng": -3.675146380291503}}}, "icon": "https://maps.gstatic.com/mapfiles/place_api/icons/v1/png_71/park-71.png", "icon_background_color": "#4DB546", "icon_mask_base_uri": "https://maps.gstatic.com/mapfiles/place_api/icons/v2/tree_pinlet", "name": "Cascada del Cancho", "opening_hours": {"open_now": true}, "photos": [{"height": 4032, "html_attributions": ["<a href=\"https://maps.google.com/maps/contrib/108698769130697051512\">Pedro García</a>"], "photo_reference": "AWn5SU7yMSDe9SG2kp8ZyZq63qHuVYjf-l6VddgFY-npRWJmVIntx0vUGHMllnYWkCSxFU9_Kqn-fANuX383d_3Nw-KR_rUdOuvCdQ9b6oSopv3lPnDyLaee-s9651TqL7bSGSVMFXZFTDSGBCxqxn9zlC68UNA5j5bOYUGP4ZpkTwyUN2kIyDHio2qXNCtztFhd0Xv6lKU7eH5bxd09FzAGDMJB94llEHKKI5s7am9h8g640heVb5GRcW4gVL8byqvguzEPosarjDL7bkxRcHUOs6j5a1-hiIH8G6BwsTM3mh5M1qYKrgDOBMRfWPtA_taedyUsbgzaL93KXbigJjKQRpRll51n1hpbp7_XzlZWfgQgPQHIKk5MSs0a1t7q1y8MgBYuO59VZZlsSL6vDzJXJdJ9i69-SdFQ_70ILTo6IKniIeCutVL9TwBCKMqBmkJRKn5ejKmL2MGw-lHc5vOe5nwn2sIjcg1FP5GnbqOxgAHgMiX5jHTGsI7uqVSRTla2vt7EjlRn0AjMJJPfa4P9lX5xpLdqk-9nvKYxYN_K_Kx66RbJpnzs1mk4JIqhZaxLTljK052azjxWqHozASMOQaCJmNbdABrTfjXWFK1ge5MRURnqhPYUUPbD5QPTpwbQsVnXyhh7", "width": 3024}], "place_id": "ChIJq67UabDeQw0R2YpUFf5d9c0", "plus_code": {"compound_code": "R8HG+98 Navalafuente, Spain", "global_code": "8CGRR8HG+98"}, "rating": 4.4, "reference": "ChIJq67UabDeQw0R2YpUFf5d9c0", "scope": "GOOGLE", "types": ["tourist_attraction", "park", "point_of_interest", "establishment"], "user_ratings_total": 444, "vicinity": "Navalafuente"}, {"business_status": "OPERATIONAL", "geometry": {"location": {"lat": 40.82175489999999, "lng": -3.6794463}, "viewport": {"northeast": {"lat": 40.8231043302915, "lng": -3.678098569708498}, "southwest": {"lat": 40.8204063697085, "lng": -3.680796530291503}}}, "icon": "https://maps.gstatic.com/mapfiles/place_api/icons/v1/png_71/park-71.png", "icon_background_color": "#4DB546", "icon_mask_base_uri": "https://maps.gstatic.com/mapfiles/place_api/icons/v2/tree_pinlet", "name": "Senda de los árboles", "place_id": "ChIJw2CIbgDfQw0RwJ-lJqxa-t4", "plus_code": {"compound_code": "R8CC+P6 Navalafuente, Spain", "global_code": "8CGRR8CC+P6"}, "reference": "ChIJw2CIbgDfQw0RwJ-lJqxa-t4", "scope": "GOOGLE", "types": ["park", "point_of_interest", "establishment"], "vicinity": "Calle Eras de Arriba, 9-7, Navalafuente"}, {"business_status": "OPERATIONAL", "geometry": {"location": {"lat": 40.81971749999999, "lng": -3.6697997}, "viewport": {"northeast": {"lat": 40.82091833029151, "lng": -3.668445669708498}, "southwest": {"lat": 40.81822036970851, "lng": -3.671143630291502}}}, "icon": "https://maps.gstatic.com/mapfiles/place_api/icons/v1/png_71/park-71.png", "icon_background_color": "#4DB546", "icon_mask_base_uri": "https://maps.gstatic.com/mapfiles/place_api/icons/v2/tree_pinlet", "name": "Camino de senderismo Navalafuente", "opening_hours": {"open_now": true}, "place_id": "ChIJZ4lxKgDfQw0RVl78fSngC7o", "plus_code": {"compound_code": "R89J+V3 Navalafuente, Spain", "global_code": "8CGRR89J+V3"}, "reference": "ChIJZ4lxKgDfQw0RVl78fSngC7o", "scope": "GOOGLE", "types": ["park", "point_of_interest", "establishment"], "vicinity": "Calle Tomillar, 24, Navalafuente"}, {"business_status": "OPERATIONAL", "geometry": {"location": {"lat": 40.82874059999999, "lng": -3.667676299999999}, "viewport": {"northeast": {"lat": 40.8300460802915, "lng": -3.666313219708498}, "southwest": {"lat": 40.8273481197085, "lng": -3.669011180291502}}}, "icon": "https://maps.gstatic.com/mapfiles/place_api/icons/v1/png_71/park-71.png", "icon_background_color": "#4DB546", "icon_mask_base_uri": "https://maps.gstatic.com/mapfiles/place_api/icons/v2/tree_pinlet", "name": "Enebros centenarios", "opening_hours": {"open_now": true}, "photos": [{"height": 4624, "html_attributions": ["<a href=\"https://maps.google.com/maps/contrib/116014577086053006904\">danil</a>"], "photo_reference": "AWn5SU4fNoYVwgPuFwVqeiWfpul-ksTktjctIO2HCyVbDqxBsCYwlVMrJmxgKf7pObBdKspvst5_whcL-ZqLg0ShwocV9Hwsa__mnmWslXv_mbEc9eB7wp8d7EAva9flHwUD0mIEBBawX0WnGFdNlgJZYtPn10nZZrvtAKVYqEiMignZrHPu5eI97gD6Wo9ERWxct_jC7TZIpuDniT0gG8jsmfoEdnE8ltZVWFkeY1Rt2DgEHkwH0WPWyHDRBpIxeRf_029ndpWTsaHHNgRfEYpryEhPlZLDKhSBJujLSRDWtCfnRsX83QDM4UHspiTxWmKx-x7I8K2G0Xp09xoQhDjGK0On7PUneyL1WrgMZgnLhjQeM2-tym4KZJv1SnlHlnAfyW0YrHF9QY82_hmd8raX1OUOfqrwD5JhFbHvkvSs6OWZu4SFRBibCwDrgQYxSX8dOdlbZ_AENiLuG5w83R_CFJyWfgkajDP2itEyzcWcZSidxtEgRc3hdubtYljuBqu6Exter8vybMosi8nx2x8fggdu6Aat_ITuQnaZjoGjYNd9WHlRTZBQQfiBkYuuoqRIpD-BfVwNVArDQNXGubFFdnQggkZNqDKHEvPVc9rxU-Zh_yLdzgsFHquAj2DaTuKMLsvcb5X5", "width": 3468}], "place_id": "ChIJo0otSq_eQw0RRVxzj_NUPyU", "plus_code": {"compound_code": "R8HJ+FW Navalafuente, Spain", "global_code": "8CGRR8HJ+FW"}, "rating": 4.6, "reference": "ChIJo0otSq_eQw0RRVxzj_NUPyU", "scope": "GOOGLE", "types": ["park", "point_of_interest", "establishment"], "user_ratings_total": 5, "vicinity": "Navalafuente"}, {"business_status": "OPERATIONAL", "geometry": {"location": {"lat": 40.8150296, "lng": -3.67573}, "viewport": {"northeast": {"lat": 40.8164722802915, "lng": -3.674150219708497}, "southwest": {"lat": 40.8137743197085, "lng": -3.676848180291502}}}, "icon": "https://maps.gstatic.com/mapfiles/place_api/icons/v1/png_71/park-71.png", "icon_background_color": "#4DB546", "icon_mask_base_uri": "https://maps.gstatic.com/mapfiles/place_api/icons/v2/tree_pinlet", "name": "Las Lagunillas", "opening_hours": {"open_now": true}, "photos": [{"height": 3000, "html_attributions": ["<a href=\"https://maps.google.com/maps/contrib/109495900383193429600\">Elena Baonza Díaz</a>"], "photo_reference": "AWn5SU4arzxc0TfQeVuZaLn6IYXnHFy9zR-zAtLp3tZ8e-r-WP3w9CqpGGy6h9XsyNqrcmApP3OGsbl-5sMKzgTB2O8OlqXPkvtn6k5HdxjC2BaAn-En1zWobOWwQcbeCr4znvJ9a-r3QH0a1RYtKKsakqKIvqTCskiqBG4tufLGuwNZMmE8ToC4A9zv96x0nlbVb4OPjiXov6mpwrJUTKSoaHm9bMgqlARq2nwbJuyVKCIDsBZsAYzRsr0OrkL6qc2DR4lx4MBWp5-aDuoVcanHoSM4f2GpKtz9dQKPBATJ9gCwhhyy6FAMS3DU64G1WxnukoK5BGkVXzpi0PYppTLFiT2PaiFNYdma1tEOSikld58ZeLZNVQyLCYpE7ELoQglBnAdof9dUdkcaAX4sZYt0LNs-a3wcwi9DqwUxyRiXqT_ObBwt_VNnm0LmmTWzQv8eSp-vf4W88kVk3uqxyj6JTy9mfxRNh2CkRdaAcH_3YYeQcMHHcsreOeF4GDiF6m64SMImYIVxCSmvqk2E2rK_Uof94s6M_dUrH8EF5ASeJDnsZroFCTWKuWZHydjU9BjeU-yrhCxVTMvmkQkUonDOd-rTsdEsvee0Y_6Tj3Jb6SRWNttTJzgL9jHHBEYSBujRSawMTg", "width": 4000}], "place_id": "ChIJmxS2NmnZQw0RhWhJE-MpjKM", "plus_code": {"compound_code": "R88F+2P Navalafuente, Spain", "global_code": "8CGRR88F+2P"}, "rating": 4.5, "reference": "ChIJmxS2NmnZQw0RhWhJE-MpjKM", "scope": "GOOGLE", "types": ["park", "point_of_interest", "establishment"], "user_ratings_total": 2, "vicinity": "Calle Lago Grande, 1, Navalafuente"}, {"business_status": "OPERATIONAL", "geometry": {"location": {"lat": 40.8152599, "lng": -3.6631106}, "viewport": {"northeast": {"lat": 40.8166826802915, "lng": -3.661689019708497}, "southwest": {"lat": 40.81398471970851, "lng": -3.664386980291502}}}, "icon": "https://maps.gstatic.com/mapfiles/place_api/icons/v1/png_71/park-71.png", "icon_background_color": "#4DB546", "icon_mask_base_uri": "https://maps.gstatic.com/mapfiles/place_api/icons/v2/tree_pinlet", "name": "Zorrera", "place_id": "ChIJawH8aADZQw0RxhkdoGc3dak", "reference": "ChIJawH8aADZQw0RxhkdoGc3dak", "scope": "GOOGLE", "types": ["park", "point_of_interest", "establishment"], "vicinity": "R85P+W6, Navalafuente"}, {"business_status": "OPERATIONAL", "geometry": {"location": {"lat": 40.8361304, "lng": -3.6865649}, "viewport": {"northeast": {"lat": 40.83739938029151, "lng": -3.685208219708497}, "southwest": {"lat": 40.83470141970851, "lng": -3.687906180291502}}}, "icon": "https://maps.gstatic.com/mapfiles/place_api/icons/v1/png_71/park-71.png", "icon_background_color": "#4DB546", "icon_mask_base_uri": "https://maps.gstatic.com/mapfiles/place_api/icons/v2/tree_pinlet", "name": "Tunel El perdon", "opening_hours": {"open_now": true}, "photos": [{"height": 1800, "html_attributions": ["<a href=\"https://maps.google.com/maps/contrib/104089933018920657333\">Kevin Aquino</a>"], "photo_reference": "AWn5SU5LXsOJZ-nvRXPd-IXMp58-tzWW86CqOtSaOYkWsknR3aaeTyVgaKSWQAZVlTrkZeyYed7WSuZhExdsJioC79tzb_Ass4aWGwXNfMgLPaimGbmS98ANXsLWCvKmzaOFMXCcuOryS6cuzuiKrdjw0kcK6AkDaUg40z7dZiwc6UM2XUAcBzAjCGKL22jylCIy4r_b45lpgjbXWpkjyY3aL7j2NuLdug6kM0VKCqZ6POEq_xVG6ka9Lf2AltqxRd1zSMY6k2fGe8B5tLGO8i4KGA8zWnMzfzquIvJD9tx9wZU7kHFvU6ZtI69Q5dUV18R-HmmMlMl2O0Pa8MckAvldPmiun_QfuVPHzWJ97Gj92SIUg75pWvWhZynmclrox_W1UGLhyRtVQv-CIsiS17PReDFkNPb48biFAdz-36TMwFWO8xa8j29JADdds5RaSyNfihEDcY-GJ-4YFHiNQ1B_Q_WAbhAPCVh97cv7ElTmNqCGF14cJ3CC25Oy6ZUNu2LUAQTRizIiL7Ef32KSuOCfBfOjWpSGZh3bh29jWl3x3Ir7s7pjXB6YXpaD8BXgj-wJaSAhImdLAwv9r7gA4lCl7YuTdl4_KkoH0uLwre3nl5NS4fesdooOrV-G9kGJElkyMBwuXndx", "width": 4000}], "place_id": "ChIJG1NaHADfQw0R4RT5dkiSorg", "rating": 3.7, "reference": "ChIJG1NaHADfQw0R4RT5dkiSorg", "scope": "GOOGLE", "types": ["park", "point_of_interest", "establishment"], "user_ratings_total": 3, "vicinity": "R8P7+F9, Navalafuente"}, {"business_status": "OPERATIONAL", "geometry": {"location": {"lat": 40.8091923, "lng": -3.6699873}, "viewport": {"northeast": {"lat": 40.8105412802915, "lng": -3.668638319708498}, "southwest": {"lat": 40.8078433197085, "lng": -3.671336280291502}}}, "icon": "https://maps.gstatic.com/mapfiles/place_api/icons/v1/png_71/park-71.png", "icon_background_color": "#4DB546", "icon_mask_base_uri": "https://maps.gstatic.com/mapfiles/place_api/icons/v2/tree_pinlet", "name": "Cordel del Jaral", "opening_hours": {"open_now": true}, "photos": [{"height": 4624, "html_attributions": ["<a href=\"https://maps.google.com/maps/contrib/116014577086053006904\">danil</a>"], "photo_reference": "AWn5SU7MfjOIY_pBKVQ-XoZQZ461-u8cAsetAZRfc0-7fqtS-epFvMEGLWEl5N60-TafUgpCD3QC0MO2IzhkDjjl2rFt5Lwv1HzWPr6viOXVtZB21NYrT8poSIkWR2UIkdLl4J6iD1Da4vnqgcP_TZYdbx_hS_2-bJrjQKCYiMkgd--wYL5RRlcQ0qHfkbug1BR4LEitwvRkBmPRntWPH30KdVyPfReJf8fu-QL5INhOpgnbrqeQVRZptPVk9v-TBc936KULs-a_6didsXPWfQjveHc_VLn2aoZG3cvxTRo5xObFGWLL84dJDlvkpo4V2fPdTxdrJBefwB77nJhuwCa4EhCyrc3JKfA1yrWoG0_oGm3RuR2j3OnRAEAviu4l3EAwMWkRNTK7EiZFAczW8FOmflL9uXmfynIjN7o8ZtJmWEWUl4lFpIiBBK1dyGC8ixpTxFL5sUu1vYy4I36nMVvFvP-MFR13yosmFntk_L3aAuiDslyQKTgVRAc5p3Bp71L5Ng1lkgJ7IR_GSdbn6FtDmW1_6Dbh6LKsFwtGTbRjycWvuK5ZXDnwmuR2jXyw47KIJaplcRb2_LadmLZED1MY3eYN64z0kSqOgl1YWYkj44Fuj6IMrvXcH94BAL0i1xMqAPPi8A", "width": 3468}], "place_id": "ChIJz_PclLvZQw0RARD_J-tFlBM", "plus_code": {"compound_code": "R85J+M2 Navalafuente, Spain", "global_code": "8CGRR85J+M2"}, "rating": 5, "reference": "ChIJz_PclLvZQw0RARD_J-tFlBM", "scope": "GOOGLE", "types": ["park", "point_of_interest", "establishment"], "user_ratings_total": 2, "vicinity": "Calle Peña Alta, 8, Navalafuente"}, {"business_status": "OPERATIONAL", "geometry": {"location": {"lat": 40.8200823, "lng": -3.6986195}, "viewport": {"northeast": {"lat": 40.82144053029149, "lng": -3.697274069708497}, "southwest": {"lat": 40.81874256970849, "lng": -3.699972030291501}}}, "icon": "https://maps.gstatic.com/mapfiles/place_api/icons/v1/png_71/park-71.png", "icon_background_color": "#4DB546", "icon_mask_base_uri": "https://maps.gstatic.com/mapfiles/place_api/icons/v2/tree_pinlet", "name": "Mirador de Las Arreturas", "opening_hours": {"open_now": true}, "photos": [{"height": 3024, "html_attributions": ["<a href=\"https://maps.google.com/maps/contrib/112785528980594567543\">Álvaro Casado Manso</a>"], "photo_reference": "AWn5SU7sspE68GL_mTvk4uWspEz6lhZJT5RyBdUDs_uf1oHTxsoyQxrkYI0UE5h7ukDh58waM5UB-2P1mZPgwfaUFsy1azARAJzGUnl3N7DY3DQblxyr8hpRUhJhB5r6sNsvhkLGCN0NmqJKns-5bdFBIAGpooLhK3xaGtJSR9RofPVGzViR8EgPuI1CvSoXJkIM6hMtsRt_u5cN0jk_o0LdGVPW9s3CwSZ5k4FdxpUAUu89txUS0WFNrRimJiRcghZ770zgMPrv525FHUKR_3R0BxAalAs_u3SAxHrDmn65rifs6BqAVoLfbJ9RZRlqOQQXngolGQX9I4iBa0dAKd0W896d77Ts9AyVQK4-Ikp-8rebgJ1e1nFhSjKYtQdiqK7mJ_8LsSdwsRmgw9W098bfmpMY0iQn4V-XcXosvHBO76Ge2-mkBdXzPMDFT0Tjc6SxaeyExrM5QIEDi36Yq-MZK4wBMEewGJCDaOKMta58J3y4BZSuum9tAu7W0IrmTx9OulCOiYmSuFMElIJJV7Dlco5HQpBAJdbyT2d_gleIkzuAzPGS-oF_7bc_1XvaSdQeGoR62Ee0x94ItbBWNykH4Sl-DTJSibTjY7cnkQDnC3t6HmwDwRRyqvXo4juTJla7lSL4xg", "width": 4032}], "place_id": "ChIJl2nVbKnfQw0RkN_eAXJWmqc", "plus_code": {"compound_code": "R8C2+2H Navalafuente, Spain", "global_code": "8CGRR8C2+2H"}, "rating": 4.3, "reference": "ChIJl2nVbKnfQw0RkN_eAXJWmqc", "scope": "GOOGLE", "types": ["park", "point_of_interest", "establishment"], "user_ratings_total": 6, "vicinity": "Calle Cantueso, 1, Navalafuente"}, {"business_status": "OPERATIONAL", "geometry": {"location": {"lat": 40.8446408, "lng": -3.6721674}, "viewport": {"northeast": {"lat": 40.8454848802915, "lng": -3.671476569708498}, "southwest": {"lat": 40.8427869197085, "lng": -3.674174530291503}}}, "icon": "https://maps.gstatic.com/mapfiles/place_api/icons/v1/png_71/park-71.png", "icon_background_color": "#4DB546", "icon_mask_base_uri": "https://maps.gstatic.com/mapfiles/place_api/icons/v2/tree_pinlet", "name": "Cantera de los Navazales", "opening_hours": {"open_now": true}, "photos": [{"height": 3648, "html_attributions": ["<a href=\"https://maps.google.com/maps/contrib/100858707346476633909\">Fernando Sánchez</a>"], "photo_reference": "AWn5SU6tjxl0toxmZQVZpOx5la1Q_RMRmM-RRUYJOnjkzI8PfPwoGqAeWxfOis-FzYAojsomtRAm2GuxfoYBA7xCmVgGnrARC_M0nihqedLLyKpjSK_-1_xg_PxQDef4cjczn19-wOF1kU2UM2rI7_X-2ZSv4DVSa-dB7vqPDU5wKEWJ1eSzX6TQ0a4cW3FtHuvSCJoITHxUk2OL0pXHwWlZ2Dw0uecGPxw4k_y4krvX4-ne0MMPvCejCtS-PpFoiw5dn-iMOjfwnjGd_nNccnlQJBQMOtT4moXjTbRBpksnN-OcXqLPCD0WZ47yzCaK7ddHXcVww0l29OCBpQPFXJCeywcHeCO-OSkByYK5fxs4KUgfzYGbhHo7Bs47GJb_ecwPAk9Evtdaz9huBb0s2RGoKyQO1ehHyJQkgzMWHW2KPZbZy52OQoLEtR9mwiiVs-BzoVMk6IkDxPOCYSFSxaQ8g5NCv7iv9bitILRMhPRcLQfhFW2H5qYD-YKZGZ6sjFIHcFkN8mU3ray0VGWOoX2fsJzwzUQQfOo8MLzlmakooXaC9lC_vedZPyO1L4v1yiuGEDZqHin9WqOv5TxQEzhZ9Y6BdtLaOQaM2enXDUCd-NGJCXyhu2gr9m-2StmQS4yClND2MNJd", "width": 5472}], "place_id": "ChIJ8eLL_pneQw0RnUVPH5TQ_tE", "plus_code": {"compound_code": "R8VH+V4 Valdemanco, Spain", "global_code": "8CGRR8VH+V4"}, "rating": 4.1, "reference": "ChIJ8eLL_pneQw0RnUVPH5TQ_tE", "scope": "GOOGLE", "types": ["park", "point_of_interest", "establishment"], "user_ratings_total": 9, "vicinity": "Valdemanco"}, {"business_status": "OPERATIONAL", "geometry": {"location": {"lat": 40.80204659999999, "lng": -3.670984900000001}, "viewport": {"northeast": {"lat": 40.80303768029149, "lng": -3.669492269708498}, "southwest": {"lat": 40.8003397197085, "lng": -3.672190230291502}}}, "icon": "https://maps.gstatic.com/mapfiles/place_api/icons/v1/png_71/park-71.png", "icon_background_color": "#4DB546", "icon_mask_base_uri": "https://maps.gstatic.com/mapfiles/place_api/icons/v2/tree_pinlet", "name": "Camino de las Chozas", "opening_hours": {"open_now": true}, "place_id": "ChIJlSjS3vjZQw0RtBsdHvP5Az8", "plus_code": {"compound_code": "R82H+RJ Guadalix de la Sierra, Spain", "global_code": "8CGRR82H+RJ"}, "reference": "ChIJlSjS3vjZQw0RtBsdHvP5Az8", "scope": "GOOGLE", "types": ["park", "point_of_interest", "establishment"], "vicinity": "Guadalix de la Sierra"}, {"business_status": "OPERATIONAL", "geometry": {"location": {"lat": 40.8349064, "lng": -3.642591599999998}, "viewport": {"northeast": {"lat": 40.83591278029149, "lng": -3.641863669708496}, "southwest": {"lat": 40.83321481970849, "lng": -3.644561630291501}}}, "icon": "https://maps.gstatic.com/mapfiles/place_api/icons/v1/png_71/park-71.png", "icon_background_color": "#4DB546", "icon_mask_base_uri": "https://maps.gstatic.com/mapfiles/place_api/icons/v2/tree_pinlet", "name": "Cerro Monte", "opening_hours": {"open_now": true}, "photos": [{"height": 1846, "html_attributions": ["<a href=\"https://maps.google.com/maps/contrib/103964466937761291920\">Raul Rabadan</a>"], "photo_reference": "AWn5SU4lATb3G3NJzaBohWII7AcOQjWrcBodKTVm0SARi0HavTZqqbg8lh25ewNd1eY7_0DS6266cMy5ZfN1Yl9Wulj2UP1BXq5cFxpAvI0YLZLuyVZNWKXyLnBbBzKAUP61wRYyMmBm2hKX8cdlWezc92c5sGjKUizynVKjaNASWx7SOPsX3SvNZ9r56W-1YBIcsJXuE14LHSCit93g6exMguXezYO6Pp6WjXggF91Rmmlsk-m8pMJRVf86tuIgKIq70jNns9rwlKAg_HOpuP0gBJNml7Ri_9I1rZOsQuErhS2hshvwmW0vXpq1R-zPUWDL8JHXK8bDKKhKMUKPv8OphFLWNALr2LpdECbUGr8M768wEZ9k2-dj18rc7Z248hfSvWYDJZ0O72spgmBn89h2E7ug7BpI7wwAGtPkYzBp873zF1t9Q6m3vNdlH-uRdsyWadNJH4YWkt19SlWDUjbit-OdHjusPnNG4D_dG3NisHpEfajcNyfHdvyzihSsSdjum50UrEJfVsDrnjcjLWgcAQX4HKoSJMFiP0x5kf1gVuG1xkctCJTw94uzJ1zwA4RPWrUsh2RjKQOWYgIK5APn7lkokWdChH5ulRzU_SPYLui5kKfRBIPh4gtp-16nbtnqgSZgWg", "width": 4000}], "place_id": "ChIJuYugTxPcQw0R6c--9_sysSU", "plus_code": {"compound_code": "R9M4+XX Cabanillas de la Sierra, Spain", "global_code": "8CGRR9M4+XX"}, "rating": 5, "reference": "ChIJuYugTxPcQw0R6c--9_sysSU", "scope": "GOOGLE", "types": ["park", "point_of_interest", "establishment"], "user_ratings_total": 1, "vicinity": "Cabanillas de la Sierra"}, {"business_status": "OPERATIONAL", "geometry": {"location": {"lat": 40.8486049, "lng": -3.694187}, "viewport": {"northeast": {"lat": 40.84930225, "lng": -3.6932653}, "southwest": {"lat": 40.84651285000001, "lng": -3.6969521}}}, "icon": "https://maps.gstatic.com/mapfiles/place_api/icons/v1/png_71/park-71.png", "icon_background_color": "#4DB546", "icon_mask_base_uri": "https://maps.gstatic.com/mapfiles/place_api/icons/v2/tree_pinlet", "name": "Cascada", "photos": [{"height": 4608, "html_attributions": ["<a href=\"https://maps.google.com/maps/contrib/104647285756124699614\">Daniel S.P</a>"], "photo_reference": "AWn5SU63VD8isWpfnQ4KQhHFhAXqD-aAT3RUVhlhIyzX_z9IqWNPLX7F5pYVwYDvgm9MUD1Ls8tifVtMWz_SWqBnf8kafa38p-TwqFPq-ISa3arPaBS02QEdAJhNQvRcAxxJJRziJp59ZmXmT_JaTUhxV_WRAFKG7ELBkkZ4v7EwKPZQ6kiiEseu_HgQiBOAfNkHH84mnTTzj5H-o4Ia70vBi5Yqzaja7p9bbYM0fM1fksolNvO3SrcIqjbzJvgTlbO-G5HEHuZ8Rf0Fkx09dM1ADZrzkBILrJgZlVTrEmyRgl0uMrm01H1n-dvCd0yXuD7LkmBtBgVieAEurM-sImZYCnAOVJSnmypnptd5D5duyy7D5WLEZNRiqOK2fFUQsVHHOfXtgH1ktrGWgWNdtGGJUnS_Vkl3S2Jj-2Jrdcd73p-lPF2w2CFxRvox0Cd5jgf3wWSWjycJgYFJNoAPBdH8YvnA731lP5FOZKNIa7xYSvZKN7Fx7TNJb4_gbcQ5O8_WRZy0eD1VeOgwP069f1Wvt1icNohAjYZOax0egsh0ixE6lWxK7OyG2_G4KGmQ-fJD6IDtM2uCZs34kwJWwRqO9KgWSKADFdYUDyeYQxpypXZnySW9q2wSPgwAFzDQvbduZFUq9z9932m0wXb6Z5zMqYkrmLA", "width": 2080}], "place_id": "ChIJPV2LKADfQw0RzH9-9rvkumM", "reference": "ChIJPV2LKADfQw0RzH9-9rvkumM", "scope": "GOOGLE", "types": ["park", "point_of_interest", "establishment"], "vicinity": "R8X4+C8, El Pornoso"}, {"business_status": "OPERATIONAL", "geometry": {"location": {"lat": 40.8381086, "lng": -3.6370853}, "viewport": {"northeast": {"lat": 40.83946118029151, "lng": -3.635748469708498}, "southwest": {"lat": 40.83676321970851, "lng": -3.638446430291502}}}, "icon": "https://maps.gstatic.com/mapfiles/place_api/icons/v1/png_71/park-71.png", "icon_background_color": "#4DB546", "icon_mask_base_uri": "https://maps.gstatic.com/mapfiles/place_api/icons/v2/tree_pinlet", "name": "Los Cerrillos", "opening_hours": {"open_now": true}, "photos": [{"height": 2988, "html_attributions": ["<a href=\"https://maps.google.com/maps/contrib/110574635522586179244\">manuel diaz de leon</a>"], "photo_reference": "AWn5SU4vmWWqyTEf2Fj-cZA6K-eEN_2W6pv59WlhVoi8c0lM91eoaVsp-ieeydIK0ZyNdiNxdKyijgU9xsGhbAOjE9yZK3aOOPifjsoBg3EmEErnoslBwwrxWkfUl6pF4AYc9W030VwjDiW8LLI5LPnFW-OBUrxqf_R1XfKh84rTmujNy0zUPeeluCx-qca29bcbqahJdp3bLrvpEPMRQdY3C6iZEnW1KgIJNSaoq5TaeBLNYe5d_ldupnys-GY6XIUPPohuJSkweQKa3gTTwMRIBfr55x2aJT2JE3T_RtJ2M1TINOznuP7foBhTf6CeRzBOE-11XhCTakhjQTnTQlWxR-eloPVAY3Z6vPCuhzl9Tj0Dh51aePsX29mfEfBVVRIRtiT0v-aKJEVdisQYW5quJPV3tJ4fjmBHFdgQ7fXzek--_hOsbC9_eteHg5yI1z9VV6cFHYu-nIMc08x6I8MWbj9DN9JO_95fbcYDCALWP2o1PE4l3EkOke5FLFSq-kcjXI3Gh4Y46ledrnUGsCqnnH0QOKC5_vojbYsyThiVmuDcRy4yVOZmtDqMF1WMjLPgWjMNJUBWLeOVTbLAt7WYSKnFIviRsdMsl6K5ZxEl_GmyDzAVLdk8xq1eD7kiuZYSDwhS8uLO", "width": 5312}], "place_id": "ChIJ5xPb1WvcQw0R1dPZa_SG2g4", "plus_code": {"compound_code": "R9Q7+65 La Cabrera, Spain", "global_code": "8CGRR9Q7+65"}, "rating": 4.5, "reference": "ChIJ5xPb1WvcQw0R1dPZa_SG2g4", "scope": "GOOGLE", "types": ["park", "point_of_interest", "establishment"], "user_ratings_total": 4, "vicinity": "Camino de Cabanillas, La Cabrera"}, {"business_status": "OPERATIONAL", "geometry": {"location": {"lat": 40.83830169999999, "lng": -3.7117914}, "viewport": {"northeast": {"lat": 40.83965068029148, "lng": -3.710442419708498}, "southwest": {"lat": 40.83695271970849, "lng": -3.713140380291502}}}, "icon": "https://maps.gstatic.com/mapfiles/place_api/icons/v1/png_71/park-71.png", "icon_background_color": "#4DB546", "icon_mask_base_uri": "https://maps.gstatic.com/mapfiles/place_api/icons/v2/tree_pinlet", "name": "Cerro El Pendón", "opening_hours": {"open_now": true}, "photos": [{"height": 6000, "html_attributions": ["<a href=\"https://maps.google.com/maps/contrib/117330098785647711263\">David Lira Guerra</a>"], "photo_reference": "AWn5SU6vyLQowotymS7-eXJeV7Z__zZVOZefDixUy79vK0HG5wNDzxQUG2jWCbokkn-zRg9vOAnjL4gD2u3TSqTfA95SDlturWmuZPtktcmQ2NtUNU6XY7jomJPBdoS-HCy8lLSCUmBKnMP6AFWTAQxlnp90uCRaq30Flk3wpLWdTqwH-0AL_8dQicSGgMu_aO3C3XjxerUIGeedJNOr5OLNl6D3B7VMIs7iECrIfEZSxPF2ijPEqG3FnOZqurL2snBV1ato4hOtBX1-xCPgtcJ1uhJtj5K7PqruCSpLHHSXPsvKm6VUpflxgNRBoSBlQZH9cUpZe3FxB3qWrXB_EmkGMbcXE14kyKIwDR5ks6Z7Q99A20sZcmWFKyMZJ23lXdcy8ertLjLpWY9uR_oAYNboYNdjOOtg_NKX3_e06zFtb77cbFDwL-PwY9-hn5TPPTAJsdLa5zE2v8_SQgJoo5i50AfejRaaCjEU683wk8xdKfiNdkWkqjfMi6xlIeMHZoyHiO8agI-Dvltp_J29YgaOwsxvX8cwTxMbO3byowlfQnnGaxMAmIhxWmQTHZZtwH-wpliNtEBXYBloY5MBaS6XUgtxb8DSNgXnyrH6K1WNeCoAh1lBx9qGG4ONrpnNOHBtix5EtsWT", "width": 8000}], "place_id": "ChIJT8iLmA_fQw0RWNJHATMefNo", "plus_code": {"compound_code": "R7QQ+87 Bustarviejo, Spain", "global_code": "8CGRR7QQ+87"}, "rating": 5, "reference": "ChIJT8iLmA_fQw0RWNJHATMefNo", "scope": "GOOGLE", "types": ["park", "point_of_interest", "establishment"], "user_ratings_total": 7, "vicinity": "Camino de Las Viñas"}]