[{"business_status": "OPERATIONAL", "geometry": {"location": {"lat": 40.7333193, "lng": -3.5821084}, "viewport": {"northeast": {"lat": 40.7346805802915, "lng": -3.580825419708498}, "southwest": {"lat": 40.7319826197085, "lng": -3.583523380291502}}}, "icon": "https://maps.gstatic.com/mapfiles/place_api/icons/v1/png_71/bank-71.png", "icon_background_color": "#909CE1", "icon_mask_base_uri": "https://maps.gstatic.com/mapfiles/place_api/icons/v2/bank-intl_pinlet", "international_phone_number": "+34 689 19 48 96", "name": "BBVA - Agente Autorizado", "opening_hours": {"open_now": false}, "photos": [{"height": 720, "html_attributions": ["<a href=\"https://maps.google.com/maps/contrib/101198618227429209066\">BBVA - Agente Autorizado</a>"], "photo_reference": "AWn5SU7IaIppa-ywKum2sQmNIx_kXQJRb4BkkoipwxvLKkuHTcyAytvf8fTUK9-i5le7mc-OavqwX885OkgOuBs942sjPZcGPMWeVyhp5ale6_-qLTUrdCYbwIHqvdUEPlnoVZeOLO5WcEQemfoKfRgp11_51UimYjp697n7rq255dHkA9XpE1jyiOKx_hx4pKBvHNMDICVdTToMifXUDOriajYec6ITM068yTVDqggmLqYoCxNWllXw5Mt6pIklR2AncsyujVkHbBfpqHDU51q0Qvftmg_S_x1m8fyLwnOB2LvbY3fcRsHxmoeXlUoMU_xS839Hc90ffoM", "width": 1280}], "place_id": "ChIJ4_fzjQLQQw0R1nuybem8bOw", "plus_code": {"compound_code": "PCM9+85 El Molar, Spain", "global_code": "8CGRPCM9+85"}, "rating": 3.5, "reference": "ChIJ4_fzjQLQQw0R1nuybem8bOw", "scope": "GOOGLE", "types": ["bank", "atm", "finance", "point_of_interest", "establishment"], "user_ratings_total": 55, "vicinity": "Avenida de España, 12, El Molar"}, {"business_status": "OPERATIONAL", "geometry": {"location": {"lat": 40.7343323, "lng": -3.5828623}, "viewport": {"northeast": {"lat": 40.7357105802915, "lng": -3.581447819708498}, "southwest": {"lat": 40.7330126197085, "lng": -3.584145780291502}}}, "icon": "https://maps.gstatic.com/mapfiles/place_api/icons/v1/png_71/bank-71.png", "icon_background_color": "#909CE1", "icon_mask_base_uri": "https://maps.gstatic.com/mapfiles/place_api/icons/v2/bank-intl_pinlet", "international_phone_number": "+34 914 96 56 03", "name": "Banco Santander Agentes", "opening_hours": {"open_now": false}, "photos": [{"height": 720, "html_attributions": ["<a href=\"https://maps.google.com/maps/contrib/113757570753536647625\">Banco Santander Agentes</a>"], "photo_reference": "AWn5SU7PoVWJKvFwYHdIW89bCwnLndsc6QrxfYYronbCARcR_T9oIddMUo_pvtj6xyyMO95-c4dTzTuiqsU2RWBQtVfjxK2N5iA5wCAUY-2JLpgUcztrLNfqU_E2jj1Ua2a5Qq5KA7C5kBMl8GOZFGHnV6bphUCPsZThY7EvoE6HoBWfMP8SWtp9YVQ9ZDO-RK0_yalXwZnP4UMZ1X_ALNnA2HNQWpbxn0yEUT-6a7ii1i1rG88Pabn8yxpZDFgn0Nb_lU6UqFc3Fz97vfXPlrb91Y6O0nPpkPoQxx1a8dTz3Xu_vZRXAJGflEhJM_m1j5EFWNozIF5O6Q4", "width": 1280}], "place_id": "ChIJF7pgXALQQw0RsxdYfvGZ1W0", "plus_code": {"compound_code": "PCM8+PV El Molar, Spain", "global_code": "8CGRPCM8+PV"}, "rating": 3, "reference": "ChIJF7pgXALQQw0RsxdYfvGZ1W0", "scope": "GOOGLE", "types": ["bank", "atm", "finance", "point_of_interest", "establishment"], "user_ratings_total": 19, "vicinity": "Avenida de España, 29, El Molar"}, {"business_status": "OPERATIONAL", "geometry": {"location": {"lat": 40.7437871, "lng": -3.600355}, "viewport": {"northeast": {"lat": 40.7451865302915, "lng": -3.599047069708497}, "southwest": {"lat": 40.7424885697085, "lng": -3.601745030291502}}}, "icon": "https://maps.gstatic.com/mapfiles/place_api/icons/v1/png_71/atm-71.png", "icon_background_color": "#909CE1", "icon_mask_base_uri": "https://maps.gstatic.com/mapfiles/place_api/icons/v2/atm_pinlet", "international_phone_number": "+34 900 404 090", "name": "ATM CaixaBank - Cajero", "opening_hours": {"open_now": true}, "photos": [{"height": 681, "html_attributions": ["<a href=\"https://maps.google.com/maps/contrib/110807556236722483581\">ATM CaixaBank - Cajero</a>"], "photo_reference": "AWn5SU7U_DyxuAfNrzcrvFf9SRIDnsKKZ4erOHqqokaTW2w-NwmeCC-c28tQ5tFpjQeo-KT42i-4zCI7zclkJR1IP0g7Emrpo5jZuvp94Y877Ezhjf3XTwrPqHUL3OmW0xicN1UTrYo4pjdrVgcQOa-wPQQsElO2AFw_76lMPl4vX1-Z5KAxoCEau6ylAl1mKk8otWkDBKRvqNpuOurUa3FXYopeZhltHsLLIKlhtddDcjZOKp1rLfD1jMtF9RbmZKlCnfO3mgBD-EJUBWkn_FECP3CNgdbsHavmn7KpIs0Fds9uP10vauYL41QGaakyL7atDSU9-s274H0", "width": 1024}], "place_id": "ChIJEQTKLC_bQw0R_1zcXzq3G7Y", "plus_code": {"compound_code": "P9VX+GV Pedrezuela, Spain", "global_code": "8CGRP9VX+GV"}, "reference": "ChIJEQTKLC_bQw0R_1zcXzq3G7Y", "scope": "GOOGLE", "types": ["atm", "finance", "point_of_interest", "establishment"], "vicinity": "Paseo de la Ermita, 18, Pedrezuela"}, {"business_status": "OPERATIONAL", "geometry": {"location": {"lat": 40.74504629999999, "lng": -3.5955294}, "viewport": {"northeast": {"lat": 40.7461290302915, "lng": -3.593911269708498}, "southwest": {"lat": 40.7434310697085, "lng": -3.596609230291502}}}, "icon": "https://maps.gstatic.com/mapfiles/place_api/icons/v1/png_71/atm-71.png", "icon_background_color": "#909CE1", "icon_mask_base_uri": "https://maps.gstatic.com/mapfiles/place_api/icons/v2/atm_pinlet", "international_phone_number": "+34 912 86 84 48", "name": "Euronet ATM", "opening_hours": {"open_now": true}, "place_id": "ChIJH1qGCjjbQw0RO_6nJxq-YjY", "plus_code": {"compound_code": "PCW3+2Q Pedrezuela, Spain", "global_code": "8CGRPCW3+2Q"}, "rating": 1, "reference": "ChIJH1qGCjjbQw0RO_6nJxq-YjY", "scope": "GOOGLE", "types": ["atm", "finance", "point_of_interest", "establishment"], "user_ratings_total": 2, "vicinity": "Paseo de la Ermita, 51, Unide, Pedrezuela"}, {"business_status": "OPERATIONAL", "geometry": {"location": {"lat": 40.7357323, "lng": -3.583918100000001}, "viewport": {"northeast": {"lat": 40.7371150302915, "lng": -3.582506969708499}, "southwest": {"lat": 40.7344170697085, "lng": -3.585204930291503}}}, "icon": "https://maps.gstatic.com/mapfiles/place_api/icons/v1/png_71/atm-71.png", "icon_background_color": "#909CE1", "icon_mask_base_uri": "https://maps.gstatic.com/mapfiles/place_api/icons/v2/atm_pinlet", "international_phone_number": "+34 900 404 090", "name": "ATM CaixaBank - Cajero", "opening_hours": {"open_now": true}, "photos": [{"height": 681, "html_attributions": ["<a href=\"https://maps.google.com/maps/contrib/111775103356691716371\">ATM CaixaBank - Cajero</a>"], "photo_reference": "AWn5SU6vPeRoAqwmNxtMCvO1r2ww8XeG-g5ZVjUNabMPt0nxuS-W4b6T8TKKDNa5WE_Dx9FUmEHx4vGCa03z8WdmNN_QxFvnAABL_Eflrwl6FMSHiq1L3AZ0Xfd6wyllPNkKG3PeRbFy-3vo3ixPL9_VsBr3wLM-BeY-cGRTw13Dl9WOqbjVGIg_u0ZHcwe0AXia0RKfqxMS5wn1oFjZ7wUuiR1zqQcAqcQnccqqgphB35uoqyBNq9qs8O3F9tY7nYX6rZdz8nP5nAQ8QvW3VAR4oaPRjS0D0NzUGrRSPeK_2cXpuf0RUj6DogGvXoy9tsbkRgeJ9n1mvIA", "width": 1024}], "place_id": "ChIJkbLPKfPRQw0RZef8kAuHwGc", "plus_code": {"compound_code": "PCP8+7C El Molar, Spain", "global_code": "8CGRPCP8+7C"}, "reference": "ChIJkbLPKfPRQw0RZef8kAuHwGc", "scope": "GOOGLE", "types": ["atm", "finance", "point_of_interest", "establishment"], "vicinity": "Avenida de España, 51, El Molar"}, {"business_status": "OPERATIONAL", "geometry": {"location": {"lat": 40.7662143, "lng": -3.5818576}, "viewport": {"northeast": {"lat": 40.7675653302915, "lng": -3.580452069708498}, "southwest": {"lat": 40.7648673697085, "lng": -3.583150030291502}}}, "icon": "https://maps.gstatic.com/mapfiles/place_api/icons/v1/png_71/atm-71.png", "icon_background_color": "#909CE1", "icon_mask_base_uri": "https://maps.gstatic.com/mapfiles/place_api/icons/v2/atm_pinlet", "international_phone_number": "+34 902 32 30 00", "name": "Cajero Banco Sabadell", "opening_hours": {"open_now": true}, "photos": [{"height": 900, "html_attributions": ["<a href=\"https://maps.google.com/maps/contrib/102958532601620773197\">Cajero Banco Sabadell</a>"], "photo_reference": "AWn5SU6JnliJ6Wa0SfOZCZ9NqSuk3j7OPcg4fAeUotIcwiSybe1OStTCxkAv14_P4X2rRxZKdlCCs9JSID1yQ30z3P18K5lkNwvEcxZS2IrjlPfZ6or567kIeiJ6Yd-9k9FIiNm5i3WzFErtOtkgBjJp5xTLV1IMC90uQHg3DQho0tDw-xoLDSGM80fr4cEmEekQl_bZDde2ORrVvjTD0VH7KYYxGsJLzdKML_PRVrtTqnzth8Envw-FLW7e9CILYUDJxzXo-X2MDKOZcn8ppxeBw42XiBk43FXTTEasNtJC9kse1vjbsDORMOL9h3sgIQ0iT4EfRrOrtEQ", "width": 1600}], "place_id": "ChIJV7cpFuTbQw0RWeDAJxgmHBM", "plus_code": {"compound_code": "QC89+F7 El Vellón, Spain", "global_code": "8CGRQC89+F7"}, "rating": 2.5, "reference": "ChIJV7cpFuTbQw0RWeDAJxgmHBM", "scope": "GOOGLE", "types": ["atm", "finance", "point_of_interest", "establishment"], "user_ratings_total": 4, "vicinity": "Travesía de San Blas, 1, El Vellón"}, {"business_status": "OPERATIONAL", "geometry": {"location": {"lat": 40.6920928, "lng": -3.6099964}, "viewport": {"northeast": {"lat": 40.69347368029149, "lng": -3.608599719708498}, "southwest": {"lat": 40.6907757197085, "lng": -3.611297680291502}}}, "icon": "https://maps.gstatic.com/mapfiles/place_api/icons/v1/png_71/atm-71.png", "icon_background_color": "#909CE1", "icon_mask_base_uri": "https://maps.gstatic.com/mapfiles/place_api/icons/v2/atm_pinlet", "international_phone_number": "+34 963 08 50 00", "name": "Cajero Banco Sabadell", "place_id": "ChIJOR_dTrDRQw0RyuGQUTb5Oro", "plus_code": {"compound_code": "M9RR+R2 San Agustín del Guadalix, Spain", "global_code": "8CGRM9RR+R2"}, "reference": "ChIJOR_dTrDRQw0RyuGQUTb5Oro", "scope": "GOOGLE", "types": ["atm", "finance", "point_of_interest", "establishment"], "vicinity": "Avenida de Madrid, 33, San Agustín del Guadalix"}]