[{"geometry": {"location": {"lat": 40.5683393, "lng": -3.5040753}, "viewport": {"northeast": {"lat": 40.57498795473555, "lng": -3.495853235554149}, "southwest": {"lat": 40.55716694672527, "lng": -3.516927244965397}}}, "icon": "https://maps.gstatic.com/mapfiles/place_api/icons/v1/png_71/geocode-71.png", "icon_background_color": "#7B9EB0", "icon_mask_base_uri": "https://maps.gstatic.com/mapfiles/place_api/icons/v2/generic_pinlet", "name": "Cobeña", "photos": [{"height": 4000, "html_attributions": ["<a href=\"https://maps.google.com/maps/contrib/115490759776607748392\">Manuel Palomeque Marin</a>"], "photo_reference": "AWn5SU6qUvvzg5v17MF17QFONwkZZFOd2A03M_TXHospRuiXdzY0O1eOPPWVB1syJfX2QHTevBEFpEihqST_41G-tAOIbvH8rnfQVCpW0JmMMrpl4dmArU_TsB9wo8RJGEudVvLobGpIA1LtIt4Pgo7tnkUzHdm2im8y-wFhWNi8-UcE-gV3g7gK9Ga2IjYfx2-BnqhEEnZQ4Bf-YlhWbKXWntNgKHBUjWk1PHmHZcBu4yeazzxamDQ__NF1r1TplDGN_l6MZB1ZTPT7CPQ0Ip5eiiCej7sSCRD7HAvY181rjb3tpFUo2j_MReb6y5mvJmsoPPSX8yT-6nOxrCHUsU58CmIwacPe1bBxDhGf6hLJNPWg-853AX0yc72ShAp2Qb0BkiH4B6Ji7OwnjDXFFHut9M1umbAQFn6N7yoohtyPyH1S703k0aKuW_uWDYrH4gpmXZz_J9o7aEYTAa99zJPjJYtbYJ3K-2BVRj2DKScpxPF8ycq7JcTq6bTb-Bc0W5de89QAyOKCrC_BqWQH2k32tOlljrzpb0LdVK-42jsPz_tfDpwXPHeXZBA7US3vSgQDVMOPpqaV0dEhMEhgY9Z27MFR2rCLSY3aYctmEZA9i-yxG1tFXikBZQPUPE2V9gy3cmQXWA", "width": 2250}], "place_id": "ChIJJX2gdVkzQg0RC-pAovhVLE4", "reference": "ChIJJX2gdVkzQg0RC-pAovhVLE4", "scope": "GOOGLE", "types": ["locality", "political"], "vicinity": "Cobeña"}, {"business_status": "OPERATIONAL", "geometry": {"location": {"lat": 40.56710410000001, "lng": -3.506215399999999}, "viewport": {"northeast": {"lat": 40.56841393029151, "lng": -3.504923919708498}, "southwest": {"lat": 40.56571596970851, "lng": -3.507621880291502}}}, "icon": "https://maps.gstatic.com/mapfiles/place_api/icons/v1/png_71/bank-71.png", "icon_background_color": "#909CE1", "icon_mask_base_uri": "https://maps.gstatic.com/mapfiles/place_api/icons/v2/bank-intl_pinlet", "international_phone_number": "+34 916 20 70 77", "name": "BBVA", "opening_hours": {"open_now": false}, "photos": [{"height": 720, "html_attributions": ["<a href=\"https://maps.google.com/maps/contrib/103234548839776676588\">BBVA</a>"], "photo_reference": "AWn5SU5tHISlc5dEp_L413ZMEdjbLxmv9ezi-wItSUaFiIcGLHE_SK0rInD1AK8KtMT1N4nqd1nFzvkg47VFCjgVa4CWm3TGrQUl40ZosRnSfKJMwR6sYov_RHkHqbVaOqA-RCcytFIuimBfQ8daaJ5C_rmGXqjCsNbos_hVAo1w-RtBn63L-8aFPQlInHtA0sOTxCZN0Z-7j-z2Xv8cRlvpx4Z97JEsCfGKpedilLDVx6JRnq1Lj4Z5hlNIjkmRzIWWgK7NrtSi9WfyYjDV1_MEEpIUBGqm4YvROMqpr1WM0A2dfNQYIr06X8HlxEluvoZjbKvwhkCqJ5o", "width": 1280}], "place_id": "ChIJKUNAW1kzQg0Rq3-HZ2NdVgI", "plus_code": {"compound_code": "HF8V+RG Cobeña, Spain", "global_code": "8CGRHF8V+RG"}, "rating": 2.9, "reference": "ChIJKUNAW1kzQg0Rq3-HZ2NdVgI", "scope": "GOOGLE", "types": ["bank", "atm", "accounting", "finance", "point_of_interest", "establishment"], "user_ratings_total": 27, "vicinity": "Calle Madrid, 10, Cobeña"}, {"business_status": "OPERATIONAL", "geometry": {"location": {"lat": 40.56214, "lng": -3.49817}, "viewport": {"northeast": {"lat": 40.56357903029149, "lng": -3.497013669708498}, "southwest": {"lat": 40.56088106970849, "lng": -3.499711630291502}}}, "icon": "https://maps.gstatic.com/mapfiles/place_api/icons/v1/png_71/generic_business-71.png", "icon_background_color": "#7B9EB0", "icon_mask_base_uri": "https://maps.gstatic.com/mapfiles/place_api/icons/v2/generic_pinlet", "international_phone_number": "+34 918 25 90 55", "name": "Vagspeed", "opening_hours": {"open_now": false}, "photos": [{"height": 1080, "html_attributions": ["<a href=\"https://maps.google.com/maps/contrib/109470573917118261973\">Vagspeed</a>"], "photo_reference": "AWn5SU7RRvkR0PnCSfWDdpbL9mbs18X_FNKyu-O-dY6kt2oAKRvc2ONaI7372LMM-em7TWkhz2sm7eTzJ3NzXSfMmiOeKFUMrGEYFZDfamBGNl3Ne6rAw0H-LPkOhXRPzchgcCvSnNW3zVU_F5iDHNPRzADx1BoHJS4SabpdcSIA0DIdVyp1K9DqNl065_BrsGt0itRUe-naYQZKTxz6CT1Oii7L-k1bNPd-KbZoP699VhhqCreFFvIexSNcggkHunpH2RMt9G0R7NKu1JhvUft9NJxEsriXBQQ21-kBdIM_zN_I8JXDW885rJ1ntgjaCC3rUWpSeCUHQBg", "width": 1920}], "place_id": "ChIJpbTILqA0Qg0RJBU_fTH99dA", "plus_code": {"compound_code": "HG62+VP Cobeña, Spain", "global_code": "8CGRHG62+VP"}, "rating": 4.5, "reference": "ChIJpbTILqA0Qg0RJBU_fTH99dA", "scope": "GOOGLE", "types": ["car_repair", "point_of_interest", "establishment"], "user_ratings_total": 371, "vicinity": "Campo Nuevo, Calle Bronce, 5, Nave - Pol. Ind, Campo Nuevo"}, {"business_status": "OPERATIONAL", "geometry": {"location": {"lat": 40.5678558, "lng": -3.504943399999999}, "viewport": {"northeast": {"lat": 40.5691721802915, "lng": -3.503666969708497}, "southwest": {"lat": 40.5664742197085, "lng": -3.506364930291501}}}, "icon": "https://maps.gstatic.com/mapfiles/place_api/icons/v1/png_71/civic_building-71.png", "icon_background_color": "#7B9EB0", "icon_mask_base_uri": "https://maps.gstatic.com/mapfiles/place_api/icons/v2/civic-bldg_pinlet", "international_phone_number": "+34 916 20 81 32", "name": "Cobeña Town Hall", "opening_hours": {"open_now": false}, "photos": [{"height": 3456, "html_attributions": ["<a href=\"https://maps.google.com/maps/contrib/103122536312653213998\">Yuan Zhehai</a>"], "photo_reference": "AWn5SU5tpiJOg9rNlk1loQwyNTok2qGm6SZbHmF_iUqKPoT1Cai_LfdpUI_GXdm49La6yzO6VxnUXYibhUlRtoTdxhwJg7Qe14JjF7JkUtFBIBX3lJp7CsKv-dMKccggMq7iQtu6O_rsYzC3ehRCRjMfIdyM0PTzuVOnNjNwh41-6EZeJ39RDFx4glToZv7nQRGmx_NtiFtX5ehaZYFmh2QtB8i33aNNxLi1pLH1RUmyvCHqZQIVMCQBhWKWRYzVCsRHAUMAwuXNRuTuJHVDZlncjpcna9D-haBvwGn-l0KDfHsqeRl6NIjJnNpzOJxMidhILDyLuJ2Yfp7cLhFrEY5z_PIWIlty1MGjlKv_zZV_8N9cYskQcItpduVHRunJKTORjJp4N8AiklRi2nsM1UTNO4dlOWCefmkfxRsSAUYSIJXjfu7_h0e6ZH0x5vb_FUoZGr_s7K1u_ptMVOYJl_OO9TrkFUqtEnENgvpqRLkf8Km6Os_6X-5ZKAdZFjXwBRwcydJ6bclu6ZgWEOE9bz190gsXxoyp4RIUgZlnSBvkk2wnqhKxl-W4vrbwx7yDbEUB89Ffq7Jn0MDVdfVGKWsij8Q8WMELxBfC96hwZ-1U_KP0A-EebZ5CQAAjfwR71rHf", "width": 4608}], "place_id": "ChIJHz9wZ1kzQg0R5zMXVfSbr-M", "plus_code": {"compound_code": "HF9W+42 Cobeña, Spain", "global_code": "8CGRHF9W+42"}, "rating": 4.1, "reference": "ChIJHz9wZ1kzQg0R5zMXVfSbr-M", "scope": "GOOGLE", "types": ["city_hall", "local_government_office", "point_of_interest", "establishment"], "user_ratings_total": 236, "vicinity": "Plaza de la Villa, 1, Cobeña"}, {"business_status": "OPERATIONAL", "geometry": {"location": {"lat": 40.5670656, "lng": -3.502549399999999}, "viewport": {"northeast": {"lat": 40.5684295302915, "lng": -3.501269869708498}, "southwest": {"lat": 40.5657315697085, "lng": -3.503967830291502}}}, "icon": "https://maps.gstatic.com/mapfiles/place_api/icons/v1/png_71/civic_building-71.png", "icon_background_color": "#7B9EB0", "icon_mask_base_uri": "https://maps.gstatic.com/mapfiles/place_api/icons/v2/civic-bldg_pinlet", "international_phone_number": "+34 916 20 72 59", "name": "Oficina de Correos", "opening_hours": {"open_now": false}, "photos": [{"height": 900, "html_attributions": ["<a href=\"https://maps.google.com/maps/contrib/103814941439737710677\">Oficina de Correos</a>"], "photo_reference": "AWn5SU7GXjXT_2ZUkwyVzbStl4KMRGmmntURsMOZYCyFb8y3f2folX6PiTTY0icU4REeUZBOPnHTnw9hdT-ImBQpYYBqeEX2uQxQfKHPYCe6BlmalZtymqjYHqYQF3DSRiRwo4Y4fvbn9IQiG5i_OkgIFcj-fmZwgfdyRSLH8-MMVUGLjqItTp09tkdNsdR0od9OgX6h_WBXzA8kcaxQ7wbNSDr5ZxnmBe0kbrYlyocoOSRqyUtG3LzGvjFOgOkH-FfS6lHDXEv9DD9M7Ef83DTFp860-azlKDjXiXsCMg4V2sMEHMCnAixxcC4ZVd9LyMBa5NXSDgh8zDU", "width": 1600}], "place_id": "ChIJqePu2VgzQg0RGno-o-w0cqM", "plus_code": {"compound_code": "HF8W+RX Cobeña, Spain", "global_code": "8CGRHF8W+RX"}, "rating": 3.2, "reference": "ChIJqePu2VgzQg0RGno-o-w0cqM", "scope": "GOOGLE", "types": ["post_office", "finance", "point_of_interest", "establishment"], "user_ratings_total": 58, "vicinity": "Avenida de Guadalajara, 20, Cobeña"}, {"business_status": "OPERATIONAL", "geometry": {"location": {"lat": 40.56078739999999, "lng": -3.4969693}, "viewport": {"northeast": {"lat": 40.56213538029149, "lng": -3.495623169708499}, "southwest": {"lat": 40.5594374197085, "lng": -3.498321130291502}}}, "icon": "https://maps.gstatic.com/mapfiles/place_api/icons/v1/png_71/shopping-71.png", "icon_background_color": "#4B96F3", "icon_mask_base_uri": "https://maps.gstatic.com/mapfiles/place_api/icons/v2/shopping_pinlet", "international_phone_number": "+34 916 20 78 77", "name": "Enduro Madrid (Concesinario Husaberg)", "opening_hours": {"open_now": false}, "place_id": "ChIJWxxYaJ80Qg0RAvFLnCZPJHY", "plus_code": {"compound_code": "HG63+86 Cobeña, Spain", "global_code": "8CGRHG63+86"}, "rating": 3.5, "reference": "ChIJWxxYaJ80Qg0RAvFLnCZPJHY", "scope": "GOOGLE", "types": ["store", "point_of_interest", "establishment"], "user_ratings_total": 2, "vicinity": "Spain"}, {"business_status": "OPERATIONAL", "geometry": {"location": {"lat": 40.556507, "lng": -3.49974}, "viewport": {"northeast": {"lat": 40.55810338029149, "lng": -3.498040019708498}, "southwest": {"lat": 40.5554054197085, "lng": -3.500737980291501}}}, "icon": "https://maps.gstatic.com/mapfiles/place_api/icons/v1/png_71/generic_business-71.png", "icon_background_color": "#7B9EB0", "icon_mask_base_uri": "https://maps.gstatic.com/mapfiles/place_api/icons/v2/generic_pinlet", "international_phone_number": "+34 916 20 72 60", "name": "Avance Cartón Ondulado", "opening_hours": {"open_now": false}, "photos": [{"height": 1884, "html_attributions": ["<a href=\"https://maps.google.com/maps/contrib/118203392220193806992\">Viktor Pfeifle</a>"], "photo_reference": "AWn5SU7HtNg15XfOhkYtFPVj1ln4o_zQ5HUwoQXDr7iq-EA1rhDt9fRtyGcy_qTFsMxtXM-C3GyfYW7A9-tZsY5oryVZtfIYAD65lHJmdBcNl-KnAktDPFqWf3GDqM6Fsao_B9rrV8kjKuJURBuplsYW3S3l3RTJcUkFsoszaUf_n46x-TXjRmQVF6JsRiiJ__566Gy_sS8pjJkDqp3pmvlwIiF0x28nGqW7-5nbELDNerr5Vh07nUBu4BtjxkrZY-vUjoq6StID7y6diqka_r3dCH8Fb_1ijbGLkgTOEgDzkeTpTPuEI-b4TyQaoKrSLOOK6DEc7TJY_1ZDOPvsOWrXPFUzjYf7v6hnvN4ajUbZHtXNfLovdYYHyxhDya-haRbSZjyBR7wHcL25w5VmC670w8zLE77_hMrE3nPOHA0Gau24-9E-pxyrqjvgUSJhSDq-hW-VYAo0axUYSAdYTYuI2Tx1BbvZ2nCOTcaM9_YKnoTteBo0ieZDeiCYX33RiOyePo3sfttmo4z9wS0tk6KYp0rvCZqpYqOrNHfPuE9Il-UDbMpznkcT2i-be9vFQPzxcKv9nbGMjpQhmylL52H7JE3DPKM3JUfX2ZIRjIAPomZPXM-p2yzPMYBjRJIwVb3GZkDDhTReT8hCS00Ian1PBLj5q2U", "width": 4080}], "place_id": "ChIJpd-UeZ40Qg0RK7YICXyAjxY", "plus_code": {"compound_code": "HG42+J4 Cobeña, Spain", "global_code": "8CGRHG42+J4"}, "rating": 3.3, "reference": "ChIJpd-UeZ40Qg0RK7YICXyAjxY", "scope": "GOOGLE", "types": ["point_of_interest", "establishment"], "user_ratings_total": 68, "vicinity": "Spain"}, {"business_status": "OPERATIONAL", "geometry": {"location": {"lat": 40.5667733, "lng": -3.5068527}, "viewport": {"northeast": {"lat": 40.5682024302915, "lng": -3.505505619708499}, "southwest": {"lat": 40.56550446970851, "lng": -3.508203580291502}}}, "icon": "https://maps.gstatic.com/mapfiles/place_api/icons/v1/png_71/civic_building-71.png", "icon_background_color": "#7B9EB0", "icon_mask_base_uri": "https://maps.gstatic.com/mapfiles/place_api/icons/v2/civic-bldg_pinlet", "international_phone_number": "+34 916 20 82 62", "name": "Consultorio Local Cobeña", "opening_hours": {"open_now": false}, "photos": [{"height": 2992, "html_attributions": ["<a href=\"https://maps.google.com/maps/contrib/108527574086523521111\">Valentina Goncalves</a>"], "photo_reference": "AWn5SU638Qhft02aVxCrCe_KhWIMXOJjlByMDXNRF43-SBoHlH_3Vjzx6OTr7-fgU43Kk8qMO1BbfxZSFwPZQgcENMeda8CXx9wTnhs7vnJnBbI-_RF0i_2fM_hbgzjvKZBLV2qxzh5L6Q0SW9otZ5h8ZVi1WWH67G0HyV6NELfUj8Z82ycIsKWjWgQxGSbvrCnG0fygpSwuSCg_H2MgJ2X-sUrYkxegPEQnk6rZFGuXp3vxfZ-OotGtSJe7jmkEUf3eOBbGc6gLnB7MYHcjy_mMuI9ep-zvfTDxRarmfjwaqyTtLrKFWtwR9BnOQAm21btoEFULD0SQyubITnU06XMFcQ4yZe_KHiJLKBNEGQ5NXyVaoeowdxyaUlULy9UpKlOy1A7gKCRLlT2Oj5iUVqgiB4Ea8sBZAGCuVJ7q-4Bitoxiavx4vS1oI0CHRYqqu4aEhWmVeGcNBcpSNrpF7kmCUVGnGk97HR_aTDDXHtYYsQKUTruh-m9b2Oh9QQJTT5RDskPRBHGjMGsFG70wjD3_vt5YXzta5OG9Gh-P8beA46y43vM6G7RsUh4j0izrMiRBnkLzet-c6W3wFNBuL0QrfAarnMvR8jur50_5h3grHTNyPLBRsUxPPDI4787uWhkU", "width": 2992}], "place_id": "ChIJVbZ_-lszQg0RyagJBmRLn6A", "plus_code": {"compound_code": "HF8V+P7 Cobeña, Spain", "global_code": "8CGRHF8V+P7"}, "rating": 2.8, "reference": "ChIJVbZ_-lszQg0RyagJBmRLn6A", "scope": "GOOGLE", "types": ["doctor", "health", "point_of_interest", "establishment"], "user_ratings_total": 53, "vicinity": "Calle Mercado, 17, Cobeña"}, {"business_status": "OPERATIONAL", "geometry": {"location": {"lat": 40.5618896, "lng": -3.4998532}, "viewport": {"northeast": {"lat": 40.5632703302915, "lng": -3.498428419708498}, "southwest": {"lat": 40.5605723697085, "lng": -3.501126380291502}}}, "icon": "https://maps.gstatic.com/mapfiles/place_api/icons/v1/png_71/generic_business-71.png", "icon_background_color": "#7B9EB0", "icon_mask_base_uri": "https://maps.gstatic.com/mapfiles/place_api/icons/v2/generic_pinlet", "international_phone_number": "+34 916 28 26 60", "name": "Grupo Abse S.L.", "opening_hours": {"open_now": false}, "photos": [{"height": 3096, "html_attributions": ["<a href=\"https://maps.google.com/maps/contrib/105902885197274207074\">eder mb</a>"], "photo_reference": "AWn5SU7SFsHHchAjMEEKcok3rQbb5QZW8FUgDOrFPokIcHJ1EH8ZeaFi-LJylvgXMB4oVjyZ8RahuqLl3hhyvkDcRkbVPs7BpmYvyk7Z0kBINf7yDO7IIrdORoAEm-ATDu0nInzDLka9o_KU2eqi-dr6W_wSTLX0-zRC0K9VlNOEN5AA0923lal-z6cIoH0Mc-zNIkiNIVs2_idnfaks_qgvjnJG-6TLqvwavg_eoyZOI0MEucS_aKIuNrYYSTcWMhsFil-7n1Gkcc81Wp1fEPsQfys83EYRC6NZOEmcYOESuq6_uznFaaDPCKOmrK2QaGtF9Yh54bxY2_bBcJG7LXWC6rj4HS3MD6f3aKXfALJxPW-Jjp5GtxZTZiGgPi2j_OflxA-hNnftzWkfiRLA3hAJdu7akqO7pFN2nSVfRcB_HrzWXEOTT4S_V2uSQ7c6gZw7yL29TdCtHmX4CHpXIh-TRiq5Cf1Foii2tlPUpWohkpOZMmsLo9kxrxXyLLdtqXYXYOZB-YTMqbnlYgj2gyDK0freUgAJtoVy7Kr2lYgH9I1Vzelucqp25a8ku-EEzumg3QluV7hSNdpN9OlecBthL7lywYO-EwEYdCWBsmCxcgke5-q7_6xcBpYGrRF2bR9yHX2gXWAP", "width": 4128}], "place_id": "ChIJ-xTyL6A0Qg0RxnNJBifE770", "plus_code": {"compound_code": "HG62+Q3 Cobeña, Spain", "global_code": "8CGRHG62+Q3"}, "rating": 4.7, "reference": "ChIJ-xTyL6A0Qg0RxnNJBifE770", "scope": "GOOGLE", "types": ["point_of_interest", "establishment"], "user_ratings_total": 7, "vicinity": "Calle Cobre, 6, Cobeña"}, {"business_status": "OPERATIONAL", "geometry": {"location": {"lat": 40.5616099, "lng": -3.498024099999999}, "viewport": {"northeast": {"lat": 40.5629647802915, "lng": -3.496655569708498}, "southwest": {"lat": 40.5602668197085, "lng": -3.499353530291502}}}, "icon": "https://maps.gstatic.com/mapfiles/place_api/icons/v1/png_71/generic_business-71.png", "icon_background_color": "#7B9EB0", "icon_mask_base_uri": "https://maps.gstatic.com/mapfiles/place_api/icons/v2/generic_pinlet", "international_phone_number": "+34 916 20 92 86", "name": "PAMO GLASS", "opening_hours": {"open_now": false}, "photos": [{"height": 1439, "html_attributions": ["<a href=\"https://maps.google.com/maps/contrib/113127047225134929065\">PAMO GLASS</a>"], "photo_reference": "AWn5SU5OH5eN-vTULtlMKI9Q-zDL85Tqp949qT4Yc8alccI2jOqhcRIUmGCGMzYMHHmfJ3ySzSN8sd3_0sMxDueQaOy5X9ATRtcekMcBRNYqMD5vkvgE7Vf20bhzqIgMrUZnXNxslh8ZEZdtHkawQ10oGRFobMekkCL1ELYFlggcH4UUi3CaDdnYCMYGgNT7YWOQhHYMSySdHbH2JGN1drXepuioFn_QwHtEzPUJLLieNvX4gloAjtSD90N0wnPIj9PBSf8tVOqYNdynmRr45JTG_3B1SDFkCKe84PA1ZFGN3HVT1XfLAYUqJWW4yEFlJ1_8Tklh_8OaLfc", "width": 1440}], "place_id": "ChIJl3FmKqA0Qg0R1tKggbIlATk", "plus_code": {"compound_code": "HG62+JQ Cobeña, Spain", "global_code": "8CGRHG62+JQ"}, "rating": 4.6, "reference": "ChIJl3FmKqA0Qg0R1tKggbIlATk", "scope": "GOOGLE", "types": ["general_contractor", "store", "point_of_interest", "establishment"], "user_ratings_total": 21, "vicinity": "Calle Hierro, 8, Cobeña"}, {"business_status": "OPERATIONAL", "geometry": {"location": {"lat": 40.5651273, "lng": -3.5006665}, "viewport": {"northeast": {"lat": 40.5665748302915, "lng": -3.499734219708498}, "southwest": {"lat": 40.5638768697085, "lng": -3.502432180291501}}}, "icon": "https://maps.gstatic.com/mapfiles/place_api/icons/v1/png_71/shopping-71.png", "icon_background_color": "#4B96F3", "icon_mask_base_uri": "https://maps.gstatic.com/mapfiles/place_api/icons/v2/shopping_pinlet", "international_phone_number": "+34 916 20 93 06", "name": "Barroso e Hijos S.L.", "opening_hours": {"open_now": false}, "photos": [{"height": 2592, "html_attributions": ["<a href=\"https://maps.google.com/maps/contrib/108841291105261458396\">Álvaro Barroso</a>"], "photo_reference": "AWn5SU57ydKLMO362rWjrkQtZIgkBk8JH_wcv4W5EYiweXCdUSYWDLzLCLqQBA1xukYarRI2AzsJ2bt6a1dWYwi1RCMroO5QsqNeuncwM6WeT9Lz7dy2ASerNFMOezu7uBZILVO4SixAbN9cB5O8CcojzO3bxBkLCS8KEMnvLUhunvrEvYi8boBKkbJuFcZC2fY5OS4F2pZIn9O2FYg-pi6kLFXUF3iOI4ZCup25D0f8-UDkSEmBQgRUiE5W5iA37t1h3_AGEi4NWTzMoQusIaB2cwhDhqvMLxzlY301upCqE5QQxc6Bu8yY9gSgRovE_kpmmILU6dd4dbSTJaj7Dn7nmF7LFpNgwQ21s1SGWcxXqYZRYfdiScQuJJXDUY33falQcJgNnFbfgjmPzlRpbf1KEhKDB9mKMvpRoWy9rucKRF-wzvilSbnQx_vIxmnj1iVi_g7W7x77s4h-9ckTq-blwEoG6ETxTixaccktMUpiljBOpuVKiRaxejwA8rTmUBwCW23G0r-zPwDNAZ-ggLGlzwMEOJbkXC4drvc9SQXfJCEDeyrx5gLFLukSPXd3eGAW5JtTFIAaHSHff7gG8uJSxt2R2m8o-aiRsBTXUWy1kJyF8UKs_kOkPGfSaJknF42boD4IdA", "width": 3872}], "place_id": "ChIJkZb_xVgzQg0RE2w3q4GBKH4", "plus_code": {"compound_code": "HF8X+3P Cobeña, Spain", "global_code": "8CGRHF8X+3P"}, "rating": 4.3, "reference": "ChIJkZb_xVgzQg0RE2w3q4GBKH4", "scope": "GOOGLE", "types": ["store", "point_of_interest", "establishment"], "user_ratings_total": 39, "vicinity": "Carretera de Daganzo, 2, Cobeña"}, {"business_status": "OPERATIONAL", "geometry": {"location": {"lat": 40.56719289999999, "lng": -3.5025518}, "viewport": {"northeast": {"lat": 40.5685810302915, "lng": -3.501223619708498}, "southwest": {"lat": 40.5658830697085, "lng": -3.503921580291502}}}, "icon": "https://maps.gstatic.com/mapfiles/place_api/icons/v1/png_71/generic_business-71.png", "icon_background_color": "#7B9EB0", "icon_mask_base_uri": "https://maps.gstatic.com/mapfiles/place_api/icons/v2/generic_pinlet", "international_phone_number": "+34 646 20 41 06", "name": "El Taller de Lola", "opening_hours": {"open_now": false}, "photos": [{"height": 4160, "html_attributions": ["<a href=\"https://maps.google.com/maps/contrib/109122710458036422301\">El Taller de Lola</a>"], "photo_reference": "AWn5SU7GjNAcDcVMyl4Z_I69WaAM1s-1tCUaUoKf1EOSCBuUyQQetdnz0tzTr2H6OPyRhSaV3ZSnVUSzv2PeuyalXV_cIBU8Eo0iL3-ZVp29E3F_6SQsWZ3QAY2LpfmXBGkc_zSyb7RqYgAl5BnZFXSQrdYRZOQt96mxHm3343l8inGMjj5knwjNLoW-FlXo4qMTsDgBjyAchstGoXUZ4SaLnx7qdXM09l2zDoEyiCr32SFsVzXOB5IqRowc12ULgfct-cltLe0toTDYYquMWapAyaUWsmcg_X59-l-I8J0dJIEqNHK_u-asZqphORXzRiqW7orV9HyeuoM", "width": 3120}], "place_id": "ChIJn1I92lgzQg0R46Jo07PsFvQ", "plus_code": {"compound_code": "HF8W+VX Cobeña, Spain", "global_code": "8CGRHF8W+VX"}, "rating": 4, "reference": "ChIJn1I92lgzQg0R46Jo07PsFvQ", "scope": "GOOGLE", "types": ["home_goods_store", "store", "point_of_interest", "establishment"], "user_ratings_total": 21, "vicinity": "Avenida de Guadalajara, 20, Cobeña"}, {"business_status": "OPERATIONAL", "geometry": {"location": {"lat": 40.56851280000001, "lng": -3.5085697}, "viewport": {"northeast": {"lat": 40.5697954802915, "lng": -3.507249969708498}, "southwest": {"lat": 40.5670975197085, "lng": -3.509947930291502}}}, "icon": "https://maps.gstatic.com/mapfiles/place_api/icons/v1/png_71/generic_business-71.png", "icon_background_color": "#7B9EB0", "icon_mask_base_uri": "https://maps.gstatic.com/mapfiles/place_api/icons/v2/generic_pinlet", "international_phone_number": "+34 659 72 43 37", "name": "Consulta de Podología", "place_id": "ChIJuW8YG1szQg0ROm2uS9QhUAA", "plus_code": {"compound_code": "HF9R+CH Cobeña, Spain", "global_code": "8CGRHF9R+CH"}, "rating": 2.5, "reference": "ChIJuW8YG1szQg0ROm2uS9QhUAA", "scope": "GOOGLE", "types": ["doctor", "health", "point_of_interest", "establishment"], "user_ratings_total": 2, "vicinity": "Calle Tejera, 32, Cobeña"}, {"business_status": "CLOSED_TEMPORARILY", "geometry": {"location": {"lat": 40.5626081, "lng": -3.5119292}, "viewport": {"northeast": {"lat": 40.5639405302915, "lng": -3.510620969708498}, "southwest": {"lat": 40.5612425697085, "lng": -3.513318930291502}}}, "icon": "https://maps.gstatic.com/mapfiles/place_api/icons/v1/png_71/school-71.png", "icon_background_color": "#7B9EB0", "icon_mask_base_uri": "https://maps.gstatic.com/mapfiles/place_api/icons/v2/school_pinlet", "international_phone_number": "+34 645 86 24 31", "name": "NLC Learning Specialist & NLP Trainer", "permanently_closed": true, "place_id": "ChIJDQ2V7EIzQg0R8obWcv82Jhk", "plus_code": {"compound_code": "HF7Q+26 Cobeña, Spain", "global_code": "8CGRHF7Q+26"}, "reference": "ChIJDQ2V7EIzQg0R8obWcv82Jhk", "scope": "GOOGLE", "types": ["secondary_school", "health", "school", "point_of_interest", "establishment"], "vicinity": "Calle Rio Tajo, 4, Cobeña"}, {"business_status": "OPERATIONAL", "geometry": {"location": {"lat": 40.57101109999999, "lng": -3.5049649}, "viewport": {"northeast": {"lat": 40.57243408029149, "lng": -3.503617969708498}, "southwest": {"lat": 40.56973611970849, "lng": -3.506315930291502}}}, "icon": "https://maps.gstatic.com/mapfiles/place_api/icons/v1/png_71/generic_business-71.png", "icon_background_color": "#7B9EB0", "icon_mask_base_uri": "https://maps.gstatic.com/mapfiles/place_api/icons/v2/generic_pinlet", "international_phone_number": "+34 647 87 67 45", "name": "Certificados de Eficiencia Energética Madrid", "opening_hours": {"open_now": false}, "place_id": "ChIJ3UTv-1kzQg0RvPTiZ6N9EJ8", "plus_code": {"compound_code": "HFCW+C2 Madrid, Spain", "global_code": "8CGRHFCW+C2"}, "reference": "ChIJ3UTv-1kzQg0RvPTiZ6N9EJ8", "scope": "GOOGLE", "types": ["point_of_interest", "establishment"], "vicinity": "Plaza de las Eras de Arriba, 11, Madrid"}, {"business_status": "OPERATIONAL", "geometry": {"location": {"lat": 40.561731, "lng": -3.4997626}, "viewport": {"northeast": {"lat": 40.5631319302915, "lng": -3.498353369708498}, "southwest": {"lat": 40.56043396970851, "lng": -3.501051330291502}}}, "icon": "https://maps.gstatic.com/mapfiles/place_api/icons/v1/png_71/generic_business-71.png", "icon_background_color": "#7B9EB0", "icon_mask_base_uri": "https://maps.gstatic.com/mapfiles/place_api/icons/v2/generic_pinlet", "international_phone_number": "+34 916 20 91 06", "name": "Talleres Fermakauto, S. L.", "opening_hours": {"open_now": false}, "photos": [{"height": 3024, "html_attributions": ["<a href=\"https://maps.google.com/maps/contrib/102749974179955321146\">Florin Alin Bonte</a>"], "photo_reference": "AWn5SU7rIJ1krs28rsu6vUAKxkPeVRrsKINCX-QEhj7WXyz4EeXnywj1Wf8PPGVpAZAnRkhNErRQGKAcuPHIhx7hKAB22czoQ86mZT2TfGasFG9tAQsUruo-mZ0UwB7LK23Wlu8OPaXyqzWTagpLof1Qw1i3e5m24VlCX6tWEXcY2CcO-TCOQM9cBntwjXjDvAwapxqaeLEHFCJPbfDmBREw4jkSzwZaT1QPhpH2kR6vL7QnuPuBKpbysZhQzFHQucRq79PA3zHOtJJCckKkxEqWdgVMDdwZ2ioIfEHPF62MfW1FGa_G3hKv0zDH8yvnStJgBJEX8RxFznWK3NnjqDtSLDvt-Jpr2r3ZjPlQIvaJQdWilP4zVP5Ru9FtmPrn_BX8fVmYJ7fhDKlv4lJkKBG_cTer3XACZmXllFfhU0izjWKUoGaLjeJoy6hHnwsPyx1JGGdGeaCuNxS9bcu-v4iMy67ZmCaVpB_Jqn4QX8oeeIuttRXIykB3De7VSS_lu63CTqZYY1pNUAuBZZCu66v1U5SLFNSqf75Tx_30JwSGjWVYF4pkbkKztn9cgrMDRMaDS_zT-8C2h3viXAgcwHlhhn3tdjxZWFx3yuqRSB3Tjl1rHQTRla-s_lxNe98eqA96r2Vpk6t9", "width": 4032}], "place_id": "ChIJoc27jp80Qg0RYjnAu3-goJc", "plus_code": {"compound_code": "HG62+M3 Cobeña, Spain", "global_code": "8CGRHG62+M3"}, "rating": 4.4, "reference": "ChIJoc27jp80Qg0RYjnAu3-goJc", "scope": "GOOGLE", "types": ["car_repair", "point_of_interest", "establishment"], "user_ratings_total": 131, "vicinity": "Calle Cobre, 8, Cobeña"}, {"business_status": "OPERATIONAL", "geometry": {"location": {"lat": 40.5599556, "lng": -3.4967292}, "viewport": {"northeast": {"lat": 40.5613341802915, "lng": -3.495294269708498}, "southwest": {"lat": 40.5586362197085, "lng": -3.497992230291501}}}, "icon": "https://maps.gstatic.com/mapfiles/place_api/icons/v1/png_71/generic_business-71.png", "icon_background_color": "#7B9EB0", "icon_mask_base_uri": "https://maps.gstatic.com/mapfiles/place_api/icons/v2/generic_pinlet", "international_phone_number": "+34 916 20 77 77", "name": "Acoter System", "photos": [{"height": 1080, "html_attributions": ["<a href=\"https://maps.google.com/maps/contrib/114311515144889840330\">Acoter System</a>"], "photo_reference": "AWn5SU4P_lgjNdMzZBOw3R13VWhAHBKbPahJmZ57iCcok2G29YOFPsTHJOPqHe6wBHKONPuiScP7Af0QsiFzEAPJfpgii1xBT0bEf160rnMNHcgNP0VqOIX7g11rd2tqU3V64jExHpzynsogw-76Rin__gdqscnq5Wt2z18my_PVtalYitfsJVj1WuATy47yU3gixs0E-p3cx7royVqfisarZW9rpEIWMuU1WI7FV_2LfbWPLehPw4T68JjKi22LUIkZy6PmWsoz2Mm7lgrzC4kJIzqVVkMA2uiYeAD2S2h3wL7-5sY8gnZa9KsiStjucvCsvjo3TJhmO6g", "width": 1080}], "place_id": "ChIJSQCWF580Qg0RbEqgtd7fUco", "plus_code": {"compound_code": "HG53+X8 Cobeña, Spain", "global_code": "8CGRHG53+X8"}, "rating": 2.4, "reference": "ChIJSQCWF580Qg0RbEqgtd7fUco", "scope": "GOOGLE", "types": ["general_contractor", "point_of_interest", "establishment"], "user_ratings_total": 5, "vicinity": "Calle Níquel, 4, Nave 25, Cobeña"}, {"business_status": "OPERATIONAL", "geometry": {"location": {"lat": 40.56675019999999, "lng": -3.505215}, "viewport": {"northeast": {"lat": 40.56808503029149, "lng": -3.503835419708498}, "southwest": {"lat": 40.56538706970849, "lng": -3.506533380291502}}}, "icon": "https://maps.gstatic.com/mapfiles/place_api/icons/v1/png_71/pharmacy-71.png", "icon_background_color": "#F88181", "icon_mask_base_uri": "https://maps.gstatic.com/mapfiles/place_api/icons/v2/pharmacy_pinlet", "international_phone_number": "+34 916 20 92 75", "name": "Cobeña Farmacia (horario ininterrumpido)", "opening_hours": {"open_now": false}, "photos": [{"height": 1114, "html_attributions": ["<a href=\"https://maps.google.com/maps/contrib/105874873518388920760\">Cobeña Farmacia (horario ininterrumpido)</a>"], "photo_reference": "AWn5SU4NJas9ZgzK602xfu3Uk7ajDaT7_P8WJBz4G57iHV8bd_49WdBQycTWwHiPsem7EfSaltw11qopXYRDS3iglLvOod3afk1fIuNPKVKKFMqnbfflFy2xdEj0DQT8VeRs7Y--Fh44a5wK7CmwORx7Cvlp0SMsJUBg5P3ceU4Yp9PB7kQVDygZW6arQordgGBHWW4R5PzzcgvVGYyP7dJv2nk8Gzbz_Uyda1F22NDuZ9V5fR1JhnCVeZ-Gm0uqR3TmY7fhONlumcQwrn21Riqoif5QQaTpJZLYwZEltOh6pBUMJnAb89EpRkjIeQPhCVIzZC3R475R5BY", "width": 2048}], "place_id": "ChIJXzlTUVkzQg0RsY74Kdz9nA8", "plus_code": {"compound_code": "HF8V+PW Cobeña, Spain", "global_code": "8CGRHF8V+PW"}, "rating": 4.5, "reference": "ChIJXzlTUVkzQg0RsY74Kdz9nA8", "scope": "GOOGLE", "types": ["pharmacy", "health", "store", "point_of_interest", "establishment"], "user_ratings_total": 90, "vicinity": "Calle Mercado, 4, Cobeña"}, {"business_status": "OPERATIONAL", "geometry": {"location": {"lat": 40.5674456, "lng": -3.5002467}, "viewport": {"northeast": {"lat": 40.56887638029151, "lng": -3.498912569708499}, "southwest": {"lat": 40.56617841970851, "lng": -3.501610530291503}}}, "icon": "https://maps.gstatic.com/mapfiles/place_api/icons/v1/png_71/generic_business-71.png", "icon_background_color": "#7B9EB0", "icon_mask_base_uri": "https://maps.gstatic.com/mapfiles/place_api/icons/v2/generic_pinlet", "international_phone_number": "+34 609 23 56 04", "name": "Qhana Servicios Empresariales, S.L.", "opening_hours": {"open_now": false}, "place_id": "ChIJVX1JX6c0Qg0RR5eoXQCnrMk", "plus_code": {"compound_code": "HF8X+XW Cobeña, Spain", "global_code": "8CGRHF8X+XW"}, "rating": 5, "reference": "ChIJVX1JX6c0Qg0RR5eoXQCnrMk", "scope": "GOOGLE", "types": ["finance", "point_of_interest", "establishment"], "user_ratings_total": 2, "vicinity": "Avenida de Guadalajara, 62, Cobeña"}, {"business_status": "CLOSED_TEMPORARILY", "geometry": {"location": {"lat": 40.5606651, "lng": -3.4993496}, "viewport": {"northeast": {"lat": 40.5620351302915, "lng": -3.497790269708498}, "southwest": {"lat": 40.55933716970851, "lng": -3.500488230291502}}}, "icon": "https://maps.gstatic.com/mapfiles/place_api/icons/v1/png_71/school-71.png", "icon_background_color": "#7B9EB0", "icon_mask_base_uri": "https://maps.gstatic.com/mapfiles/place_api/icons/v2/school_pinlet", "international_phone_number": "+34 916 20 79 90", "name": "A.HAK Servicios Quimicos y Petroquimicos, S.L.", "permanently_closed": true, "place_id": "ChIJS8CsqZ80Qg0R9Z-MY2TrhCY", "plus_code": {"compound_code": "HG62+77 Cobeña, Spain", "global_code": "8CGRHG62+77"}, "reference": "ChIJS8CsqZ80Qg0R9Z-MY2TrhCY", "scope": "GOOGLE", "types": ["point_of_interest", "establishment"], "vicinity": "Poligono Industrial Camponuevo, Calle Cobre, 14, Cobeña"}]