[{"geometry": {"location": {"lat": 40.989823, "lng": -3.6383114}, "viewport": {"northeast": {"lat": 40.99770633988297, "lng": -3.63283493983927}, "southwest": {"lat": 40.97687056985072, "lng": -3.6419665675271}}}, "icon": "https://maps.gstatic.com/mapfiles/place_api/icons/v1/png_71/geocode-71.png", "icon_background_color": "#7B9EB0", "icon_mask_base_uri": "https://maps.gstatic.com/mapfiles/place_api/icons/v2/generic_pinlet", "name": "Buitrago del Lozoya", "photos": [{"height": 2228, "html_attributions": ["<a href=\"https://maps.google.com/maps/contrib/104330350775907272564\">Jesús Fernández Mercado</a>"], "photo_reference": "AWn5SU4yDcfw2oam56126z8_Jed-41Djl0JAofG0jhsDqtyxV135hZJxbyu43-ijq_CZvuU6TlRw1PVPrOn0AL1f4SeHO6lsum2s2bhCCoWpczo9rl9Eo2EHsvFwA8Sxb9r41NEbEoE2w38RSvKTZNIjYLy0ch363tE5XDJDVBsQWlbTZGDlGEd1SaWHHWdohLEwkkvwfsd1zVSlnkCGISPLUZqLnASxOMG6-Lctq9RL8QQjFiSTKhuQkylR3q17k73FXTvzL34rz5fOxi51M3qC0L3uRayjRFWlUDmH9pu_epirvxHzYrkgd1MmjYp5icDe5QWL4aAWfZAKGbB8aF_UBXyLXd5ks3vrJ_MlCvRbnOYGff5b5Y5zXKmdPBmMIiokMW4nt-1-ClplGvzQTMeRc1ZbWMInOuosWr0SWZHieMOFWT7XeLaLOvrV3aqfoW4Cl93VEb_Lin3YUda7xnPIi1Y75Lz908Kwx2ISn3CKeLc7btZQz7u7wYSqpN5HVfb7woS4gZrQe45K08eq3xNXyWm_4wqWDTceJidKmMHzBQGrYlcMWqaU8wtrNpRXkRPUrdG_y4iA2SjSbRNWFVicWg2ghmtOvzuGT6zWU10wCA234fc-AvcNGoE4XPNtkLSLKI87gQ", "width": 3960}], "place_id": "ChIJO5tefiPkQw0RlexuRtmPmTM", "reference": "ChIJO5tefiPkQw0RlexuRtmPmTM", "scope": "GOOGLE", "types": ["locality", "political"], "vicinity": "Buitrago del Lozoya"}, {"business_status": "OPERATIONAL", "geometry": {"location": {"lat": 40.99459219999999, "lng": -3.634145799999999}, "viewport": {"northeast": {"lat": 40.99611038029149, "lng": -3.632747319708497}, "southwest": {"lat": 40.9934124197085, "lng": -3.635445280291502}}}, "icon": "https://maps.gstatic.com/mapfiles/place_api/icons/v1/png_71/generic_business-71.png", "icon_background_color": "#13B5C7", "icon_mask_base_uri": "https://maps.gstatic.com/mapfiles/place_api/icons/v2/generic_pinlet", "international_phone_number": "+34 674 38 12 44", "name": "Castle of Buitrago", "opening_hours": {"open_now": false}, "photos": [{"height": 4024, "html_attributions": ["<a href=\"https://maps.google.com/maps/contrib/115819089349087120354\">manuel creus</a>"], "photo_reference": "AWn5SU5HO2Y2sk3sAN3KfX-zotoIueWDcykXYRC8ES_8OF960D4Mqt8KU_jSgJeFi2U2D9vy4KS-RrRuVVKvTUEWMxf7Wv4mRqourxZSruZrPvY_d73V95i-fTnFOSXfuB6iDxv6BzJzaUkb4ALHgf1FP9fEyxVET-nF2MXuolq545ASc3olrD6G7y4xpBYBnqT0DNLsYtXMnYgj--ckqzf0H_L2toDgHhtX5Qf9cwwQW94akt54GkUZX3Vc0_WpbuSrFQHrnp2A6zS7O3yp-LuSUkYQr9QwGlK-EdMdJ6QDN4jqOffdF8hALdrlrcTQusbyuzW8W-z_itwVMD3Igc_Xmq99nMUZmSn_cEZoK5AFsUS8-WOED16h3sTUzAE307iBiiEa1z5uL5VWyiBtDud13gGty4sCYmB0RuAN5muqlR9mpwl9jG4Eldke_v7PPU7l-0c_MJti5-zQWoXy1ZLFQVdv0nGx1_r8zObCtV8lqQym_WOlBeGOe_pB3ep8aFx-dufCJ-QVnIeHLOcFVr7O0Y-9JRasK8yal1vtuzXl0fhaQC3LhEaR44wqKodKYFahTPPhkUTFvMOxCP7fZi41XqHca5dGsE256J9EC0HdlLpAI8zUlh9Sgo5FBxGt7RMg", "width": 6048}], "place_id": "ChIJbSPgVzrkQw0ReDwpTpcfq-w", "plus_code": {"compound_code": "X9V8+R8 Buitrago del Lozoya, Spain", "global_code": "8CGRX9V8+R8"}, "rating": 4.3, "reference": "ChIJbSPgVzrkQw0ReDwpTpcfq-w", "scope": "GOOGLE", "types": ["tourist_attraction", "point_of_interest", "establishment"], "user_ratings_total": 5497, "vicinity": "Plaza del Castillo, s/n, Buitrago del Lozoya"}, {"business_status": "CLOSED_TEMPORARILY", "geometry": {"location": {"lat": 41.0066667, "lng": -3.6708333}, "viewport": {"northeast": {"lat": 41.0080330302915, "lng": -3.669570619708498}, "southwest": {"lat": 41.0053350697085, "lng": -3.672268580291502}}}, "icon": "https://maps.gstatic.com/mapfiles/place_api/icons/v1/png_71/lodging-71.png", "icon_background_color": "#909CE1", "icon_mask_base_uri": "https://maps.gstatic.com/mapfiles/place_api/icons/v2/hotel_pinlet", "international_phone_number": "+34 616 95 18 17", "name": "Hospedería El Arco", "permanently_closed": true, "photos": [{"height": 1800, "html_attributions": ["<a href=\"https://maps.google.com/maps/contrib/114943337192452412659\">Ivan Madrid</a>"], "photo_reference": "AWn5SU4Qu75KzNpl15zq4xpfrxcPTO3pgtSy8ooYJ7pn5yddFiMvRWV8wVLEWk_q93cVlUQmLrCmo4EpU9QhelHNzJ83tpH8_IzYk6zLkoYeEi_mnNQLIT-GFbbWm2ZRvM2zDOtcp1WFw9wHepAbVv8-NRa10jDOSdOLRLvI4NyEoXLrdbVZUwxlfPqHkxn3umIbLewJtp344nraTyckgRDxZmGLaT25GP2dkQOHhUdxWI4gxlMqkY46g5sHz1PymJRl_DBlM10tpv20SYxZvoQ52Nu5kaZChtaem7yRZu_dVgJgaVQe4PS3OTubbsKAqnw9XxSdzh89CrgMKIyJQ6DNdqmh9fB1m8TgGUUjSgyYDqak3rwybcoVmaumoFaC0OFJkVyY_wLqcW5ym54zZn4fLD8UwEsvP58IFsOQru3jvYLbNKCi5igMkLQs72XftrUqnwKPkumkVcb3zMp8kB14GOO23AIDbaTLenwQ11fpehUscYTyr9abWrGArDbs6GxgWw38ph8apQ6mWQGbkDwxnErN0D1MbZfC2n25H6CURU5Y2DLeADNXmfVLWMJhNqwaspO_Gh0aohyDxbqY3lvihtKIUIMHp8uFdqZWQKIYQVxSvd9iPkvr4kKJVeNcV4S8", "width": 4000}], "place_id": "ChIJsWVXco7jQw0RnOJa397eizA", "plus_code": {"compound_code": "284H+MM Villavieja del Lozoya, Spain", "global_code": "8CHR284H+MM"}, "rating": 4.5, "reference": "ChIJsWVXco7jQw0RnOJa397eizA", "scope": "GOOGLE", "types": ["restaurant", "lodging", "point_of_interest", "food", "establishment"], "user_ratings_total": 317, "vicinity": "Calle del Arco, 6, Villavieja del Lozoya"}, {"business_status": "OPERATIONAL", "geometry": {"location": {"lat": 40.9947818, "lng": -3.6356614}, "viewport": {"northeast": {"lat": 40.9960996302915, "lng": -3.634383519708499}, "southwest": {"lat": 40.9934016697085, "lng": -3.637081480291503}}}, "icon": "https://maps.gstatic.com/mapfiles/place_api/icons/v1/png_71/lodging-71.png", "icon_background_color": "#909CE1", "icon_mask_base_uri": "https://maps.gstatic.com/mapfiles/place_api/icons/v2/hotel_pinlet", "international_phone_number": "+34 918 68 03 31", "name": "La Beltraneja", "photos": [{"height": 1365, "html_attributions": ["<a href=\"https://maps.google.com/maps/contrib/116415705250702191323\">Hotel La Beltraneja</a>"], "photo_reference": "AWn5SU4f_g6I-PO-lqb5NiLvE3f_F-yr9bWmzKo6XkJQhBpwIomzvpZ6FMYPDZej_pXGUjNpy6cZQ3GDagdzsm3gO4P1GQPD2kPyioW1PZJTHoH6w1nPQtKi2__L5a2aiHiwTm4DT4EJXzQlNMHj7wlHpGxZn66H991mB9dgiz3TjjPaugHGoLEQ-LwAASz1lljxiU3h2-cK8QfgVkQ-ekXGa__igyHmF34z21XRJOMv6dtvVCjN_1BrkQtYcYXojF-4PmFd9ypZtMB_zsp1YGSaxSNfRUVK7H2AV-_puyjuIw24uX7Ayziw9m6DEUeenHHYGbo6J7WTP8w", "width": 1024}], "place_id": "ChIJn19woDvkQw0RqMvcDmFZhNY", "plus_code": {"compound_code": "X9V7+WP Buitrago del Lozoya, Spain", "global_code": "8CGRX9V7+WP"}, "rating": 4.7, "reference": "ChIJn19woDvkQw0RqMvcDmFZhNY", "scope": "GOOGLE", "types": ["lodging", "point_of_interest", "establishment"], "user_ratings_total": 393, "vicinity": "Calle del Arco, 10, Buitrago del Lozoya"}, {"business_status": "OPERATIONAL", "geometry": {"location": {"lat": 41.04749789999999, "lng": -3.581845199999999}, "viewport": {"northeast": {"lat": 41.0488321802915, "lng": -3.580493219708498}, "southwest": {"lat": 41.0461342197085, "lng": -3.583191180291502}}}, "icon": "https://maps.gstatic.com/mapfiles/place_api/icons/v1/png_71/generic_business-71.png", "icon_background_color": "#7B9EB0", "icon_mask_base_uri": "https://maps.gstatic.com/mapfiles/place_api/icons/v2/generic_pinlet", "international_phone_number": "+34 918 69 88 88", "name": "Casa del Baile", "opening_hours": {"open_now": true}, "photos": [{"height": 3024, "html_attributions": ["<a href=\"https://maps.google.com/maps/contrib/100559112162953704678\">El Bulín de Madarcos - Casa del Baile</a>"], "photo_reference": "AWn5SU6t587OFHTiCVk6BFtQdRRari1vEBpwrAUO_OENNvnl1mvHwWX6iwo5EV8wY5S5PwwHD_EDt3WWVs9Vys1uQXEz4Qc7_fzL55DMpSLlUl3JtoITI6qPP9q3rxgU54lO7HVjNfTKsySuXv2N8MwaYkJp0A9DFSWHZHSfgmVa7TaySXafUYAtD3U9uuoftkVgqiQFJ6ajzJoRXUoabcQ6TIG_xlW86XNsFSt4tHMIE2E6_Mn-3XZdQbKEHQ0HrOsCkp6cBHka2lOZVhGA-3N8WgtVNL-_JfXyrZmC9ZtqaaOmpKqp6MTeoCK0JG1ojpeL4rZaGBDzmGA", "width": 4032}], "place_id": "ChIJh1qxel_lQw0RIhBy9ov4mbw", "plus_code": {"compound_code": "2CW9+X7 Madarcos, Spain", "global_code": "8CHR2CW9+X7"}, "rating": 4.5, "reference": "ChIJh1qxel_lQw0RIhBy9ov4mbw", "scope": "GOOGLE", "types": ["lodging", "point_of_interest", "establishment"], "user_ratings_total": 14, "vicinity": "Calle Panza, 1, Madarcos"}, {"business_status": "OPERATIONAL", "geometry": {"location": {"lat": 41.02983999999999, "lng": -3.6260892}, "viewport": {"northeast": {"lat": 41.0311507802915, "lng": -3.624604319708498}, "southwest": {"lat": 41.0284528197085, "lng": -3.627302280291503}}}, "icon": "https://maps.gstatic.com/mapfiles/place_api/icons/v1/png_71/lodging-71.png", "icon_background_color": "#909CE1", "icon_mask_base_uri": "https://maps.gstatic.com/mapfiles/place_api/icons/v2/hotel_pinlet", "international_phone_number": "+34 658 15 90 56", "name": "Casa rural La Cárcava", "photos": [{"height": 1365, "html_attributions": ["<a href=\"https://maps.google.com/maps/contrib/103610072834939969121\">Casa rural La Cárcava</a>"], "photo_reference": "AWn5SU7P0Vxkt1vvFkzogend-RC-Ie8KxJdaJp5n9qsZI2tD4SWwsUMb8iYex79fA15yrlIsMmJ3qF5K1l5HWn_aTZDgjieEfG3P7Gw5a6YYfby3H0g4BncK6OJs9Nb9i5Se0O2Og2aqMuz8_swiEkLo6JfDXLJwG1S3mU9JXWgQUPkOFJMY2BvIGX9VIPcdJdZbX_jRPdKd1qKdU3ilXFSful2ltsHEqQ4ghT-4VudxeuPuyjtMNFg6i981tvupiUElGBdZ2PWZ1kyo9UxLtk8Jsz55ff1nGgXme6R57UEScbY3rMRpx5mlGxANvpr8MUedMP8XUT86aZU", "width": 2048}], "place_id": "ChIJJTxqb_zkQw0RK2rSAVibv2k", "plus_code": {"compound_code": "29HF+WH La Serna del Monte, Spain", "global_code": "8CHR29HF+WH"}, "rating": 4.6, "reference": "ChIJJTxqb_zkQw0RK2rSAVibv2k", "scope": "GOOGLE", "types": ["lodging", "point_of_interest", "establishment"], "user_ratings_total": 80, "vicinity": "Calle del Arroyo, 12, La Serna del Monte"}, {"business_status": "OPERATIONAL", "geometry": {"location": {"lat": 40.9939041, "lng": -3.636131}, "viewport": {"northeast": {"lat": 40.9952270802915, "lng": -3.634739669708497}, "southwest": {"lat": 40.9925291197085, "lng": -3.637437630291502}}}, "icon": "https://maps.gstatic.com/mapfiles/place_api/icons/v1/png_71/shopping-71.png", "icon_background_color": "#4B96F3", "icon_mask_base_uri": "https://maps.gstatic.com/mapfiles/place_api/icons/v2/shopping_pinlet", "international_phone_number": "+34 918 68 08 20", "name": "Churrería Ricks", "opening_hours": {"open_now": false}, "photos": [{"height": 1200, "html_attributions": ["<a href=\"https://maps.google.com/maps/contrib/108825515896368036351\">Mari Carmen Gallardo</a>"], "photo_reference": "AWn5SU6OWDawd2C7RRNti6muL-TWhuNDhUY7A7LcmFh6tOhZwC1V3QOcQNEyanStmgMlkMWRPczs71q5-KAzlgqvJiZPrrVfa585IgSY2EfgV1A0vO_tOwhqBYYVfEqUQOBsV1_DzjDYd0yeami4SvHpar-YthLe5gwok235hRwV-M0v6RM37ry3nRS6Zl8LdkJju4ucfgmhHOn__Pb0kuV0JCRshiLLCNcMgIPhrXeJej3HN8nXWyfmai5vEVnsQ9HetLQQ44Mx-F-_gkGuUKHOLMi8zehSSPD-48L3x73Rj6dX90wvHYpl6go8iEaOgtar5-oI8cgPkJtCMCWd2v1P2n0uGZNhAYI7ZiEaWOUD1vCdRWHj5kylFPl46Jesl09VQvuZBEjw-ewWTBQ5pbIeeE2jTvW0JQcinyqM0tq0X8aXGwwyIxodXtH-r9eXkaLeXyz7JquFNKvNn-yCyR0GtSZ2VKriHpMjwRLGER0YmDwvrClTQc4ckLLFV5EHcYhkcgc9QKA9UrujtuRmUgfDHrMsWSGdoMOOrQP7eNw8nE5iA_ciE2Ouv5UYfryH8a9TU3kWmznmkJU2cRMSNrDnhwARMZvXl4v-a59SWQjGugtmclT6_Dw1kzB5Sg11syH48sOghsKg", "width": 1600}], "place_id": "ChIJzxqwbjvkQw0ROdUggQbJ5Eg", "plus_code": {"compound_code": "X9V7+HG Buitrago del Lozoya, Spain", "global_code": "8CGRX9V7+HG"}, "price_level": 1, "rating": 4.3, "reference": "ChIJzxqwbjvkQw0ROdUggQbJ5Eg", "scope": "GOOGLE", "types": ["cafe", "restaurant", "point_of_interest", "store", "food", "establishment"], "user_ratings_total": 686, "vicinity": "Calle de la Tahona, 14, Buitrago del Lozoya"}, {"business_status": "OPERATIONAL", "geometry": {"location": {"lat": 41.0393402, "lng": -3.6422779}, "viewport": {"northeast": {"lat": 41.0406861802915, "lng": -3.640979119708498}, "southwest": {"lat": 41.0379882197085, "lng": -3.643677080291502}}}, "icon": "https://maps.gstatic.com/mapfiles/place_api/icons/v1/png_71/civic_building-71.png", "icon_background_color": "#7B9EB0", "icon_mask_base_uri": "https://maps.gstatic.com/mapfiles/place_api/icons/v2/civic-bldg_pinlet", "international_phone_number": "+34 918 68 04 27", "name": "Braojos Town Hall", "opening_hours": {"open_now": false}, "photos": [{"height": 1080, "html_attributions": ["<a href=\"https://maps.google.com/maps/contrib/108991065925202119120\">Jesus</a>"], "photo_reference": "AWn5SU575tHvdR3Fowj0ErbkX5emSLMrxXsjEe_Qg6HA-9FrhZC-tauRiM0ud-qRCNN1i24SE_T1aCXwSBxFbh7RsfyUBij4iqBBvwCwcCNx2b7cc2CJ1kGuG1pKUPflg_E5EE_b3bJMSdB9loO_q-sHL59aj6ilVGeXfeo2SY_k4GeUKCYMp241S7x2MDZi0yA1Uv7h1T5VGQIKoAbieMVYQS-haE6kYLU1S2QDOUTEWZsrBFKK_ejnOeBDRLcCfQY3V8ZbagfjoLOyuS-Ou8XqB9awXdonTzFRsq8A4qficJqSS-1d61VgqTlzruYUr8362ykw6PXFQxk54lZzs23amhU7_OY2M6dU_gqUYcPWES8r6J0qpW--B8npj_lRFvMkURjsjT01mI2eyJzPWpT9AzfGAy2d9wfW6bjTEYrBxyLE8QozdNNtuuwh-YC_1WcnCDVck0SxockVCxbVo74hA13QW23Q5yFQWCpxyaECMKECg68l-1NLZjC_fIr1FAIR2ucFQVftCl_7gp01P-MTNc4tQ9ortRr2do0KN4PYj0Jbpp_Uzsms6_IuDMaHMeDfssMd27hxXvD-63gVNIbMH4XzI5XJyhcN-Yfrv6ONqSZHcc_1UYr_IjOMnReOQUwV-ooKrmtc", "width": 1920}], "place_id": "ChIJYfj_0ZTkQw0RsyrPrEHn85E", "plus_code": {"compound_code": "29Q5+P3 Braojos, Spain", "global_code": "8CHR29Q5+P3"}, "rating": 4.4, "reference": "ChIJYfj_0ZTkQw0RsyrPrEHn85E", "scope": "GOOGLE", "types": ["city_hall", "local_government_office", "point_of_interest", "establishment"], "user_ratings_total": 25, "vicinity": "Plaza del Sol, 1, Braojos de la Sierra"}, {"business_status": "OPERATIONAL", "geometry": {"location": {"lat": 41.0059815, "lng": -3.670773700000001}, "viewport": {"northeast": {"lat": 41.0073828302915, "lng": -3.669473019708498}, "southwest": {"lat": 41.0046848697085, "lng": -3.672170980291503}}}, "icon": "https://maps.gstatic.com/mapfiles/place_api/icons/v1/png_71/worship_general-71.png", "icon_background_color": "#7B9EB0", "icon_mask_base_uri": "https://maps.gstatic.com/mapfiles/place_api/icons/v2/worship_christian_pinlet", "international_phone_number": "+34 918 68 00 85", "name": "Parroquia de la Inmaculada Concepción", "photos": [{"height": 4008, "html_attributions": ["<a href=\"https://maps.google.com/maps/contrib/116522339215122585058\">Juan Rubio</a>"], "photo_reference": "AWn5SU4Ss5qjanymY7dDLuR4hZ5t28dLdV-n-Sr5ZP-QkJZSCxJRt6_OLZ5ECjfreR-OawwCfAdZGMpb2XP5bMS6SKEWpCIlkyWV6BhxYw2HVwmDvxZN9vfSvEEu0ny_tnXl14AfIJeoZccAAthW0X6FiFYi6RIxGOzKGyjChYbNv5xpXBB2OOShxTiI2IuGtSmfPwegM4TuDqv2WX3FjPtwMLjVIu_RaexNCHZzBMk9HxKU87tMGAywTey_F8Fq8Jb-w3wIIieXdQ2373g4LHkaE9gFl-dFVZTsXFhqkr_YDjKdWNK_yzbmi9jpag6VljZ5javIlMnaxggtf-Amc4QteH0WTsjOPWau2-fwtVUFNwpcQ_1V5SMyl_Di4PXGdQEO4H-ACks73Nvtq_jmnF6ZPTiKxFmdPpL7Hfyet5cZ8oWEjVOPSi9cDwTA7QCs4jGBhFdKP69TcozNZ49Q1VtylaZrPNQ1qtoTm8yrG4elN772GqiFnxPTcZ9Nbrj6MGgqfuvll-8yMhmPU7aMs6Eg_MupZwsk7l6dukOW0-SV7eWSR7v3b899doXZTsQrcbxdWfd_uDiFnd0lPPUmmLqycTgqjw_ZRgugnJXxkr23ufvDt8rB-hn4xAgDpAgCwwH0FVqMIw", "width": 6008}], "place_id": "ChIJF71iWEjiQw0RLfq4lxayy1o", "plus_code": {"compound_code": "284H+9M Villavieja del Lozoya, Spain", "global_code": "8CHR284H+9M"}, "rating": 4, "reference": "ChIJF71iWEjiQw0RLfq4lxayy1o", "scope": "GOOGLE", "types": ["church", "place_of_worship", "point_of_interest", "establishment"], "user_ratings_total": 3, "vicinity": "Calle de la Iglesia, 8, Villavieja del Lozoya"}, {"business_status": "OPERATIONAL", "geometry": {"location": {"lat": 41.00650279999999, "lng": -3.6716086}, "viewport": {"northeast": {"lat": 41.0077639302915, "lng": -3.670260819708498}, "southwest": {"lat": 41.0050659697085, "lng": -3.672958780291502}}}, "icon": "https://maps.gstatic.com/mapfiles/place_api/icons/v1/png_71/civic_building-71.png", "icon_background_color": "#7B9EB0", "icon_mask_base_uri": "https://maps.gstatic.com/mapfiles/place_api/icons/v2/civic-bldg_pinlet", "international_phone_number": "+34 918 68 03 41", "name": "Villavieja del Lozoya Town Hall", "opening_hours": {"open_now": false}, "photos": [{"height": 2282, "html_attributions": ["<a href=\"https://maps.google.com/maps/contrib/103644858766260406648\">Un opinante delirante</a>"], "photo_reference": "AWn5SU4UGRvh087xy-5v3VRaFQbIb14wHtry5kn8nxVn9CfL1fu7vhmbEDTQxEe5jpKjfaFu-FXjAzKRbIhFDlo1ogBMD2qfqjyDhW3fd_rAUe8ikZQ3K15Sqb4xDBA6nbmDvH2vyvGkrV1ybEYL2uNmGJ-YLnpKdFePneN1Y7v0KVjLIJi4cBgxGLyJaptwd0FFVTeVO5z0HefV4uX7hv528sRkb-2K6XSyqN8IZn9CabKJjP2gcedwmrdXL-zb7p3NV_PYG8Pt1FwSzZmBBPRhcBbn0iC2Ln7QpReX-_5SDoEK06OysG7_vJh_l6pr0s2ZLldT0jsz6w02rIKum7hnGqKbrdyoQvvMzujEVPlCQw0GeBTZ0b_faGhIH8c34auHnCA7UMYmbH4Us7CfTmvFGnwEFaDoBglQu2kwQnCLmBuLv8up2qK7QX6d-TmnNkCQxANPBH_265Fg5BOWBXq6JpMcSl-ojeP7T8TU6TtGsDtQ1GifTAkSpZOnkxj5KkimL6T1A0yzT4T6MK8Z7sd-2AQQmtAtPZpFlbU_FGXbEe1NUznw0cPvshViYDr8kBmr3fIryWOB5QRhO5r1n26S0eCHarllVNDPFfo23Yjc4IUo6RW5YUfEvO7bHC5MUL8L", "width": 3384}], "place_id": "ChIJH2S8CY7jQw0RNfKIl9x_cMQ", "plus_code": {"compound_code": "284H+J9 Villavieja del Lozoya, Spain", "global_code": "8CHR284H+J9"}, "rating": 3.5, "reference": "ChIJH2S8CY7jQw0RNfKIl9x_cMQ", "scope": "GOOGLE", "types": ["city_hall", "local_government_office", "point_of_interest", "establishment"], "user_ratings_total": 46, "vicinity": "Plaza Mayor, 3, Villavieja del Lozoya"}, {"business_status": "OPERATIONAL", "geometry": {"location": {"lat": 40.9920868, "lng": -3.6403377}, "viewport": {"northeast": {"lat": 40.9933164802915, "lng": -3.639144969708498}, "southwest": {"lat": 40.99061851970851, "lng": -3.641842930291503}}}, "icon": "https://maps.gstatic.com/mapfiles/place_api/icons/v1/png_71/school-71.png", "icon_background_color": "#7B9EB0", "icon_mask_base_uri": "https://maps.gstatic.com/mapfiles/place_api/icons/v2/school_pinlet", "international_phone_number": "+34 918 68 01 07", "name": "Public school Peñalta", "place_id": "ChIJzxsc1SLkQw0RMZPVsfcN50Q", "plus_code": {"compound_code": "X9R5+RV Buitrago del Lozoya, Spain", "global_code": "8CGRX9R5+RV"}, "reference": "ChIJzxsc1SLkQw0RMZPVsfcN50Q", "scope": "GOOGLE", "types": ["school", "point_of_interest", "establishment"], "vicinity": "Calle Peñalta, Buitrago del Lozoya"}, {"business_status": "CLOSED_TEMPORARILY", "geometry": {"location": {"lat": 40.9788539, "lng": -3.647927400000001}, "viewport": {"northeast": {"lat": 40.9810048, "lng": -3.645970469708498}, "southwest": {"lat": 40.97802239999999, "lng": -3.648668430291503}}}, "icon": "https://maps.gstatic.com/mapfiles/place_api/icons/v1/png_71/generic_business-71.png", "icon_background_color": "#7B9EB0", "icon_mask_base_uri": "https://maps.gstatic.com/mapfiles/place_api/icons/v2/generic_pinlet", "name": "Riosequillo Recreation Area", "permanently_closed": true, "photos": [{"height": 281, "html_attributions": ["<a href=\"https://maps.google.com/maps/contrib/106206245291683011027\">Piscinas Buitrago del Lozoya / Área Recreativa Riosequillo</a>"], "photo_reference": "AWn5SU50mZ6nAObvjZSNRq6nCBv5KKUsbWG7ft27z2-m60rqRecs4sLAiCl3ET3SABKf_577gQLbCin48nek9pEOumd0SxFgq8F7RCwIlY3YT8E3o-cTQ7g70U9eHPw9FCusDhwI4oWc_khCinhC_ex5viCfarD6xjTvu3xK2e4IaKXEg0OcNDhuysBHxMycNzj7j91dBeztAR1SkkOB53qh8FqKCYM8m-Gz_I8-EFeXyToucur0YHICdApQlHnezegBNPNVa2MVTyh9hQVlaUy1kVGVulKI99vEyhc5M0qYZNVO-6a3zuqERrG54o5kV0e8yGV6I3OCN1E", "width": 499}], "place_id": "ChIJx2fQ5abmQw0R1vf_dvue5ko", "plus_code": {"compound_code": "X9H2+GR Buitrago del Lozoya, Spain", "global_code": "8CGRX9H2+GR"}, "rating": 4.2, "reference": "ChIJx2fQ5abmQw0R1vf_dvue5ko", "scope": "GOOGLE", "types": ["point_of_interest", "establishment"], "user_ratings_total": 3046, "vicinity": "A-1, 74, Buitrago del Lozoya"}, {"business_status": "OPERATIONAL", "geometry": {"location": {"lat": 40.9958011, "lng": -3.634703999999999}, "viewport": {"northeast": {"lat": 40.9971849302915, "lng": -3.633347519708497}, "southwest": {"lat": 40.9944869697085, "lng": -3.636045480291502}}}, "icon": "https://maps.gstatic.com/mapfiles/place_api/icons/v1/png_71/generic_business-71.png", "icon_background_color": "#7B9EB0", "icon_mask_base_uri": "https://maps.gstatic.com/mapfiles/place_api/icons/v2/generic_pinlet", "name": "Sima Promociones S.L.", "place_id": "ChIJBzKGtDvkQw0Rg1DXRgpNo_k", "plus_code": {"compound_code": "X9W8+84 Buitrago del Lozoya, Spain", "global_code": "8CGRX9W8+84"}, "reference": "ChIJBzKGtDvkQw0Rg1DXRgpNo_k", "scope": "GOOGLE", "types": ["point_of_interest", "establishment"], "vicinity": "Travesía de la Villa, 4, Buitrago del Lozoya"}, {"business_status": "OPERATIONAL", "geometry": {"location": {"lat": 40.9929898, "lng": -3.6384081}, "viewport": {"northeast": {"lat": 40.99439153029149, "lng": -3.637054469708498}, "southwest": {"lat": 40.9916935697085, "lng": -3.639752430291503}}}, "icon": "https://maps.gstatic.com/mapfiles/place_api/icons/v1/png_71/shopping-71.png", "icon_background_color": "#4B96F3", "icon_mask_base_uri": "https://maps.gstatic.com/mapfiles/place_api/icons/v2/shopping_pinlet", "international_phone_number": "+34 918 68 08 51", "name": "Capi de Buitrago", "place_id": "ChIJD7AUxzzkQw0RY7E1WQElSLk", "plus_code": {"compound_code": "X9V6+5J Buitrago del Lozoya, Spain", "global_code": "8CGRX9V6+5J"}, "rating": 1, "reference": "ChIJD7AUxzzkQw0RY7E1WQElSLk", "scope": "GOOGLE", "types": ["electronics_store", "point_of_interest", "store", "establishment"], "user_ratings_total": 1, "vicinity": "Calle de la Fuente de Arriba, 1, Buitrago del Lozoya"}, {"business_status": "OPERATIONAL", "geometry": {"location": {"lat": 41.0445004, "lng": -3.6416901}, "viewport": {"northeast": {"lat": 41.04584423029149, "lng": -3.640299919708498}, "southwest": {"lat": 41.04314626970849, "lng": -3.642997880291502}}}, "icon": "https://maps.gstatic.com/mapfiles/place_api/icons/v1/png_71/generic_business-71.png", "icon_background_color": "#7B9EB0", "icon_mask_base_uri": "https://maps.gstatic.com/mapfiles/place_api/icons/v2/generic_pinlet", "international_phone_number": "+34 676 41 36 72", "name": "Braojosrural", "photos": [{"height": 1536, "html_attributions": ["<a href=\"https://maps.google.com/maps/contrib/105607467997089630290\">Juan Andres Martin Marin (Estrellarural)</a>"], "photo_reference": "AWn5SU6Ltwg2KjYcdkwAu2AWYj-H--GCAwvJFsrirtMRXZw-cCaCF5fHW3lz6ZE08O_wVlLVFU1mTTjVvSvfnO_GfDlNg760rAgnzZijS9wjT2LGxe6FosM_HFbqdn4zelm1LUqmhwA8xlypmjvic438u3YcNNqEDiIDMG1fkkW1TbNg0YtKT7xN8_1zSTn3ky5gENO2PDEdTWOw14RSd6_pxNUCoiwnTrVNbOCuBv5JRBslgGSU_aPe5UgZkrhW_W6nP5UyB3KI6_BvWtWFs55EvH4pIvt5ud-2nkN-O0TB7CywakRC71lrVCqSJnfKc8FcqIOCX3rnAZyzHqYo7akZimQde5GmjLiPntGCnGgXIvHyDhFChpyA75WSFDUPzzXmNm7e_3P4yGxkWNmpuoYPfdEYPZGxYYZvLHRpy4az57H-1zHJfExEaiLe3rjGm9qMqqWJsK4dxV8ecwdUiccMjpANkCYbSvCkO2HD4GU0EpbbXsgqxlKu7y9DWN_1ZGeF3BXJcKVFLJIKAL3bJuVqPOYuEdBp8Qpj-7cCHQQMEYEk9jFVSsV5UfBUfVRhYkua-_PtkiIMLGXbke-c651f736eW8At48IW6wuD2kYuIsEI6cAeIeEO1Ux-pJ0Tj659", "width": 2048}], "place_id": "ChIJDciES5XkQw0Rv4YLmpnWRog", "plus_code": {"compound_code": "29V5+R8 Braojos, Spain", "global_code": "8CHR29V5+R8"}, "rating": 4, "reference": "ChIJDciES5XkQw0Rv4YLmpnWRog", "scope": "GOOGLE", "types": ["travel_agency", "point_of_interest", "establishment"], "user_ratings_total": 3, "vicinity": "Calle del Carmen, Madrid"}, {"business_status": "OPERATIONAL", "geometry": {"location": {"lat": 41.0178975, "lng": -3.641632299999999}, "viewport": {"northeast": {"lat": 41.0192598802915, "lng": -3.640357719708498}, "southwest": {"lat": 41.0165619197085, "lng": -3.643055680291502}}}, "icon": "https://maps.gstatic.com/mapfiles/place_api/icons/v1/png_71/civic_building-71.png", "icon_background_color": "#7B9EB0", "icon_mask_base_uri": "https://maps.gstatic.com/mapfiles/place_api/icons/v2/civic-bldg_pinlet", "international_phone_number": "+34 918 68 05 72", "name": "Gascones Town Hall", "opening_hours": {"open_now": false}, "photos": [{"height": 4008, "html_attributions": ["<a href=\"https://maps.google.com/maps/contrib/116522339215122585058\">Juan Rubio</a>"], "photo_reference": "AWn5SU4Qc5jtfxiD6CRPURt5iGvc6upTvO3OFrf5v3lt21g9PKoPvMMe3BdmCHLabId7ovXk4v_Vm4QqX2nuK6UfKpi8PZ_gEZf7nA_Lvg5fVPVdd8vvsbknDGQc2cKXnqnOQj7V0FLLJHA39rWAwDwdHrILWMQY7A9uOZXpc5Zjh1lLx0E_mXqPfQHRnlKGTiERgARinbwvQDC6P2U_VSPrWIr-7hfPb3Z1RUcxOTCFHYfbaSGZhMPIXhAwE8U6ExsFezNGm62oLCzc8_QQg4HBWVKNJ9KbUX6RhK8010zfU6Z6LG7A7zl6gwCgxO_r17ZbFmDFgOzsqu_ha0on5AMe9CX7-gTO8u0XH5djuXzWa1KZxp6JmvkHOerJKTaDtJSOGDuiH9KucLT7OMEx0RXlgiLdCZb34zDXiMkxk8mY4MlsFHT4MKDc7pn3ApZD9K0gxdO3R6TnP3-fsoQ1ilvxD3U8LxQiBs3xY-jbz7l64hPguevFo_bPIhoJ-Pvtf3_wvfhPdu2kCn9GDLejxLUHMrl4oyNUSjkjPdKric06Nut5a756OzFXvaXQJVm0blZPe0rDaQOrrL74PtB6NxjYRfaHDQ9wVb2UKy-o3a1KQmJVIcAMvxY6bP6O-h0LmzTEpIdlMUKLwN6cljphCQ59JQ", "width": 6008}], "place_id": "ChIJ3bGfmWDkQw0R1H6nH-9CWvE", "plus_code": {"compound_code": "2995+58 Gascones, Spain", "global_code": "8CHR2995+58"}, "rating": 4.4, "reference": "ChIJ3bGfmWDkQw0R1H6nH-9CWvE", "scope": "GOOGLE", "types": ["city_hall", "local_government_office", "point_of_interest", "establishment"], "user_ratings_total": 9, "vicinity": "Plaza de la Constitución, 1, Gascones"}, {"business_status": "OPERATIONAL", "geometry": {"location": {"lat": 41.03903750000001, "lng": -3.642283}, "viewport": {"northeast": {"lat": 41.0404501802915, "lng": -3.640957019708497}, "southwest": {"lat": 41.0377522197085, "lng": -3.643654980291502}}}, "icon": "https://maps.gstatic.com/mapfiles/place_api/icons/v1/png_71/generic_business-71.png", "icon_background_color": "#7B9EB0", "icon_mask_base_uri": "https://maps.gstatic.com/mapfiles/place_api/icons/v2/generic_pinlet", "international_phone_number": "+34 620 25 74 30", "name": "IDECONS, C.B.", "place_id": "ChIJhRtrzJTkQw0RpqIllD2qpAs", "plus_code": {"compound_code": "29Q5+J3 Braojos, Spain", "global_code": "8CHR29Q5+J3"}, "reference": "ChIJhRtrzJTkQw0RpqIllD2qpAs", "scope": "GOOGLE", "types": ["general_contractor", "point_of_interest", "establishment"], "vicinity": "Plaza del Sol, 9, Braojos de la Sierra"}, {"business_status": "OPERATIONAL", "geometry": {"location": {"lat": 40.9822297, "lng": -3.6354484}, "viewport": {"northeast": {"lat": 40.9836248302915, "lng": -3.634176269708498}, "southwest": {"lat": 40.9809268697085, "lng": -3.636874230291502}}}, "icon": "https://maps.gstatic.com/mapfiles/place_api/icons/v1/png_71/civic_building-71.png", "icon_background_color": "#7B9EB0", "icon_mask_base_uri": "https://maps.gstatic.com/mapfiles/place_api/icons/v2/civic-bldg_pinlet", "international_phone_number": "+34 913 60 95 92", "name": "Asamblea Comarcal Sierra Norte - Cruz Roja Española", "opening_hours": {"open_now": false}, "place_id": "ChIJ4x-vJiHkQw0Rtiovgh0pwbo", "plus_code": {"compound_code": "X9J7+VR Buitrago del Lozoya, Spain", "global_code": "8CGRX9J7+VR"}, "rating": 4.9, "reference": "ChIJ4x-vJiHkQw0Rtiovgh0pwbo", "scope": "GOOGLE", "types": ["local_government_office", "point_of_interest", "establishment"], "user_ratings_total": 17, "vicinity": "Carretera de Manjirón, 5, Buitrago del Lozoya"}, {"business_status": "OPERATIONAL", "geometry": {"location": {"lat": 40.99380370000001, "lng": -3.6356786}, "viewport": {"northeast": {"lat": 40.99512878029149, "lng": -3.634336719708498}, "southwest": {"lat": 40.9924308197085, "lng": -3.637034680291502}}}, "icon": "https://maps.gstatic.com/mapfiles/place_api/icons/v1/png_71/generic_business-71.png", "icon_background_color": "#7B9EB0", "icon_mask_base_uri": "https://maps.gstatic.com/mapfiles/place_api/icons/v2/generic_pinlet", "international_phone_number": "+34 659 87 85 41", "name": "TAXIBUITRAGO", "place_id": "ChIJ4b0sazvkQw0RNC_YtUXZkuc", "plus_code": {"compound_code": "X9V7+GP Buitrago del Lozoya, Spain", "global_code": "8CGRX9V7+GP"}, "rating": 4.3, "reference": "ChIJ4b0sazvkQw0RNC_YtUXZkuc", "scope": "GOOGLE", "types": ["point_of_interest", "establishment"], "user_ratings_total": 23, "vicinity": "Calle del Matadero, 5, Buitrago del Lozoya"}, {"geometry": {"location": {"lat": 41.0551319, "lng": -3.5967937}, "viewport": {"northeast": {"lat": 41.05748716402504, "lng": -3.594213970469584}, "southwest": {"lat": 41.05278137435509, "lng": -3.599921915482455}}}, "icon": "https://maps.gstatic.com/mapfiles/place_api/icons/v1/png_71/geocode-71.png", "icon_background_color": "#7B9EB0", "icon_mask_base_uri": "https://maps.gstatic.com/mapfiles/place_api/icons/v2/generic_pinlet", "name": "Aoslos", "place_id": "ChIJaYoFv0jlQw0R_fLx2aMoYeA", "reference": "ChIJaYoFv0jlQw0R_fLx2aMoYeA", "scope": "GOOGLE", "types": ["locality", "political"], "vicinity": "Aoslos"}]