[{"business_status": "OPERATIONAL", "geometry": {"location": {"lat": 40.29727, "lng": -3.30155}, "viewport": {"northeast": {"lat": 40.2986243302915, "lng": -3.300169619708498}, "southwest": {"lat": 40.2959263697085, "lng": -3.302867580291502}}}, "icon": "https://maps.gstatic.com/mapfiles/place_api/icons/v1/png_71/generic_business-71.png", "icon_background_color": "#7B9EB0", "icon_mask_base_uri": "https://maps.gstatic.com/mapfiles/place_api/icons/v2/generic_pinlet", "name": "Alcalá-Espino", "photos": [{"height": 3456, "html_attributions": ["<a href=\"https://maps.google.com/maps/contrib/109800498443783042507\">Jose Luis Domingo Mendez</a>"], "photo_reference": "AWn5SU4g-N_yRcB7pdgwH0_ulJCZEqAaOpElkgJfFn0g7AaGTjEqzuyNWYeDUiz61VDBb_Jko4Cngg4xnexnxIY3-QZmHUipIroawrIwF9kWb0RlZ3xaJfsjUw3eYce6lP2sNuoyTomVcFHIAkmkDr_ty_-WDfhxmYvjypfNQrfAW4Fo30wcRfVztyD6PjlLNpfxPVSHXRoXO7itKNVCufuqR6D5WLGNoyDiD6uHBTiG7DeAf6g-LxK8HebE1-0LSrzH439wg8FsmwAZdfAXFb5C6_zwkQ1kM_h-oE8T5c95wmxPg7Sa_YRtlzKWQJ3hImdmJyJWYY6HPkFRPNTpaJbpiTuuX2Hj35j-lqSFikZPA10Hooy3Fw6DH-xt2YQs8jvteEmI7p3A3Ey6vDcV3yVkGAzG7Fl2YzoUFlnBNDeXhSLZ8JepYrxDnItB1uX37_Gz6v2SwUFekFL57v8k1ve_VuxBXWPf2EJJpBzXrKyUeaiIxFi4pThCSgz5cIGIDEVE0GhqrkgAJgpmNrUHRB83f8dZ9ConclKbOcCXoeoMnQiMaKtyNL4knjoqauHnnCi4kM2VZ1PuImWZUHWkTDE9_TbuY01pe3rzZQOFTFHSBlXvq0xI9-VLDfUC3hZU-FyypbWseg", "width": 4608}], "place_id": "ChIJfbBAKFRCQg0R29i8Oor24RA", "plus_code": {"compound_code": "7MWX+W9 Valdilecha, Spain", "global_code": "8CGR7MWX+W9"}, "rating": 1, "reference": "ChIJfbBAKFRCQg0R29i8Oor24RA", "scope": "GOOGLE", "types": ["transit_station", "point_of_interest", "establishment"], "user_ratings_total": 1, "vicinity": "Spain"}, {"business_status": "OPERATIONAL", "geometry": {"location": {"lat": 40.2974434, "lng": -3.301453399999999}, "viewport": {"northeast": {"lat": 40.2987910302915, "lng": -3.300117569708498}, "southwest": {"lat": 40.2960930697085, "lng": -3.302815530291502}}}, "icon": "https://maps.gstatic.com/mapfiles/place_api/icons/v1/png_71/generic_business-71.png", "icon_background_color": "#7B9EB0", "icon_mask_base_uri": "https://maps.gstatic.com/mapfiles/place_api/icons/v2/generic_pinlet", "name": "Alcalá-Cañada", "place_id": "ChIJSzTfg1ZCQg0R4dfs_zyH3OY", "plus_code": {"compound_code": "7MWX+XC Valdilecha, Spain", "global_code": "8CGR7MWX+XC"}, "rating": 4, "reference": "ChIJSzTfg1ZCQg0R4dfs_zyH3OY", "scope": "GOOGLE", "types": ["transit_station", "point_of_interest", "establishment"], "user_ratings_total": 1, "vicinity": "Spain"}, {"business_status": "OPERATIONAL", "geometry": {"location": {"lat": 40.29381559999999, "lng": -3.3005197}, "viewport": {"northeast": {"lat": 40.2951379302915, "lng": -3.299174919708498}, "southwest": {"lat": 40.2924399697085, "lng": -3.301872880291502}}}, "icon": "https://maps.gstatic.com/mapfiles/place_api/icons/v1/png_71/generic_business-71.png", "icon_background_color": "#7B9EB0", "icon_mask_base_uri": "https://maps.gstatic.com/mapfiles/place_api/icons/v2/generic_pinlet", "name": "Alcalá-Mayor", "place_id": "ChIJUYocmFdCQg0RHhaC2bFLuwQ", "plus_code": {"compound_code": "7MVX+GQ Valdilecha, Spain", "global_code": "8CGR7MVX+GQ"}, "rating": 2.7, "reference": "ChIJUYocmFdCQg0RHhaC2bFLuwQ", "scope": "GOOGLE", "types": ["transit_station", "point_of_interest", "establishment"], "user_ratings_total": 3, "vicinity": "Spain"}, {"business_status": "OPERATIONAL", "geometry": {"location": {"lat": 40.293808, "lng": -3.3002725}, "viewport": {"northeast": {"lat": 40.29515423029149, "lng": -3.298923069708499}, "southwest": {"lat": 40.2924562697085, "lng": -3.301621030291502}}}, "icon": "https://maps.gstatic.com/mapfiles/place_api/icons/v1/png_71/generic_business-71.png", "icon_background_color": "#7B9EB0", "icon_mask_base_uri": "https://maps.gstatic.com/mapfiles/place_api/icons/v2/generic_pinlet", "name": "Alcalá-Miguel de Cervantes", "place_id": "ChIJfxU-lldCQg0R4C--FA73bME", "plus_code": {"compound_code": "7MVX+GV Valdilecha, Spain", "global_code": "8CGR7MVX+GV"}, "reference": "ChIJfxU-lldCQg0R4C--FA73bME", "scope": "GOOGLE", "types": ["transit_station", "point_of_interest", "establishment"], "vicinity": "Spain"}, {"business_status": "OPERATIONAL", "geometry": {"location": {"lat": 40.24786, "lng": -3.30117}, "viewport": {"northeast": {"lat": 40.2491637802915, "lng": -3.299814919708498}, "southwest": {"lat": 40.2464658197085, "lng": -3.302512880291502}}}, "icon": "https://maps.gstatic.com/mapfiles/place_api/icons/v1/png_71/generic_business-71.png", "icon_background_color": "#7B9EB0", "icon_mask_base_uri": "https://maps.gstatic.com/mapfiles/place_api/icons/v2/generic_pinlet", "name": "Ctram.204-Huerta del Pavo", "place_id": "ChIJ-4LoacxpQg0RWyx_c-NQ67U", "plus_code": {"compound_code": "6MXX+4G Tielmes, Spain", "global_code": "8CGR6MXX+4G"}, "reference": "ChIJ-4LoacxpQg0RWyx_c-NQ67U", "scope": "GOOGLE", "types": ["transit_station", "point_of_interest", "establishment"], "vicinity": "Spain"}, {"business_status": "OPERATIONAL", "geometry": {"location": {"lat": 40.24773, "lng": -3.30087}, "viewport": {"northeast": {"lat": 40.2491092302915, "lng": -3.299525069708498}, "southwest": {"lat": 40.2464112697085, "lng": -3.302223030291502}}}, "icon": "https://maps.gstatic.com/mapfiles/place_api/icons/v1/png_71/generic_business-71.png", "icon_background_color": "#7B9EB0", "icon_mask_base_uri": "https://maps.gstatic.com/mapfiles/place_api/icons/v2/generic_pinlet", "name": "Ctra.M204-Sifón", "place_id": "ChIJCbtZFMxpQg0RtsfxKc1bbh4", "plus_code": {"compound_code": "6MXX+3M Tielmes, Spain", "global_code": "8CGR6MXX+3M"}, "rating": 5, "reference": "ChIJCbtZFMxpQg0RtsfxKc1bbh4", "scope": "GOOGLE", "types": ["transit_station", "point_of_interest", "establishment"], "user_ratings_total": 1, "vicinity": "Spain"}, {"business_status": "OPERATIONAL", "geometry": {"location": {"lat": 40.24691, "lng": -3.311179999999999}, "viewport": {"northeast": {"lat": 40.2482502302915, "lng": -3.309798469708499}, "southwest": {"lat": 40.2455522697085, "lng": -3.312496430291502}}}, "icon": "https://maps.gstatic.com/mapfiles/place_api/icons/v1/png_71/generic_business-71.png", "icon_background_color": "#7B9EB0", "icon_mask_base_uri": "https://maps.gstatic.com/mapfiles/place_api/icons/v2/generic_pinlet", "name": "Ctra.M204-Estación", "place_id": "ChIJozQpqcZpQg0R3bbKxFZ-FcE", "plus_code": {"compound_code": "6MWQ+QG Tielmes, Spain", "global_code": "8CGR6MWQ+QG"}, "rating": 5, "reference": "ChIJozQpqcZpQg0R3bbKxFZ-FcE", "scope": "GOOGLE", "types": ["transit_station", "point_of_interest", "establishment"], "user_ratings_total": 1, "vicinity": "Spain"}, {"business_status": "OPERATIONAL", "geometry": {"location": {"lat": 40.2458611, "lng": -3.3131936}, "viewport": {"northeast": {"lat": 40.24721818029149, "lng": -3.311817519708498}, "southwest": {"lat": 40.24452021970849, "lng": -3.314515480291502}}}, "icon": "https://maps.gstatic.com/mapfiles/place_api/icons/v1/png_71/generic_business-71.png", "icon_background_color": "#7B9EB0", "icon_mask_base_uri": "https://maps.gstatic.com/mapfiles/place_api/icons/v2/generic_pinlet", "name": "PºEstación-Tren", "photos": [{"height": 4160, "html_attributions": ["<a href=\"https://maps.google.com/maps/contrib/115231507232915976132\">Encarni Castillo</a>"], "photo_reference": "AWn5SU5wjmpH4sbY74uLnDB9TLB6s6YH8MZmWwz_TTaYulVnbYps_WZxFkq8Qi5wjgc5o9vJ72B9MfP-bQlnxCNXblowpmlTc5iML1r2918RRsdG_WjwNmbaxtaYCqXdfoRZ9ivBZ6ouiPi-Zx5xBK6IMOa7XB8yfw8aMOHjlEjzFsnjM-uj3s2aE628pEg1kgJnIX9f5H7jRwgABGawqLCosFguRHP_RoXhaomwD_hAyiUa71da9Lz6wonHRjaEplMd7o8XsUooB4QI0jREhOXpolfz6NVECJ8Eg0EndT1K_vsrkOogJso1PHjHzHAvUO7pSZmXb0imN37g0ypLOGU0DcHJg2ot8fU8wwYMQB5wI99RKr1AGOdJeCvDXotQHkPqPaypoqUMNyZEuVlugzXity2I_wC2z81DTe0bByaqtDwaHJeuiGk2HTC8Qk-P5ridWsCMPCiVgQGo7cXe2uOmKu8pwhJ7qi7mSu3s9XiVNx6Nqp6QyIgBeakcs_cGCUWKkTbl9nj_el5_ke7eX50gdE51yBZe9C0k-BmDtdJF5AFyD4kW2ANZ3uU41jk-HSVC9JazZ5LGPOt7KR8dczxqrtwg-Pm6R0fVLeZqN7hR39xoM3LIqydR3rcvUaLwvT0-p-e4Jg", "width": 3120}], "place_id": "ChIJ6ScOr8ZpQg0R5EQSq6mWkhA", "plus_code": {"compound_code": "6MWP+8P Tielmes, Spain", "global_code": "8CGR6MWP+8P"}, "reference": "ChIJ6ScOr8ZpQg0R5EQSq6mWkhA", "scope": "GOOGLE", "types": ["transit_station", "point_of_interest", "establishment"], "vicinity": "Spain"}, {"business_status": "OPERATIONAL", "geometry": {"location": {"lat": 40.24581999999999, "lng": -3.31324}, "viewport": {"northeast": {"lat": 40.2471716802915, "lng": -3.311882219708498}, "southwest": {"lat": 40.2444737197085, "lng": -3.314580180291502}}}, "icon": "https://maps.gstatic.com/mapfiles/place_api/icons/v1/png_71/generic_business-71.png", "icon_background_color": "#7B9EB0", "icon_mask_base_uri": "https://maps.gstatic.com/mapfiles/place_api/icons/v2/generic_pinlet", "name": "Ctra.M204-PºEstación", "place_id": "ChIJnT_xrsZpQg0R16OE7XuUSwc", "plus_code": {"compound_code": "6MWP+8P Tielmes, Spain", "global_code": "8CGR6MWP+8P"}, "reference": "ChIJnT_xrsZpQg0R16OE7XuUSwc", "scope": "GOOGLE", "types": ["transit_station", "point_of_interest", "establishment"], "vicinity": "Spain"}, {"business_status": "OPERATIONAL", "geometry": {"location": {"lat": 40.24591059999999, "lng": -3.3153453}, "viewport": {"northeast": {"lat": 40.2472781802915, "lng": -3.313951919708498}, "southwest": {"lat": 40.2445802197085, "lng": -3.316649880291501}}}, "icon": "https://maps.gstatic.com/mapfiles/place_api/icons/v1/png_71/generic_business-71.png", "icon_background_color": "#7B9EB0", "icon_mask_base_uri": "https://maps.gstatic.com/mapfiles/place_api/icons/v2/generic_pinlet", "name": "Pza.Constitución-Ayuntamiento", "photos": [{"height": 1836, "html_attributions": ["<a href=\"https://maps.google.com/maps/contrib/106908493686755672059\">Lucía Martinez</a>"], "photo_reference": "AWn5SU7iFfeyyJQ4BriwzXP2ZNWhR3Hjja4RCxZ6E9xXS00uSoLwL-z1_96XabYRgdAlR9Cio40cx6kPpOVLIGvEB-pRHW_pQoRHJWYS6gOqOdoZN_YMwP-FRZNR2ATQIjM2pYl8XAuqkLjjuIWo9kmSAMSM6_QFKGS83U9WY59qKdo1aLbEtMbBtYdOZk5kOIpB8UcUb7mEYJXrwYbbEUa1ce2sfv7ao4EKPtS2I4WNHPXpQkL_bGftsfPS1GoW27iu34s_w1wL9vrbx4nC_qdFSJXlpilw1DOD65n4hU0UWMO5BhiksJJLCAXJO75-6RZLS7XJWuJI6I7Y516uDHzRiEl5YL-9KhK5kWSt1iO6S8TSkcj-6BmMD4RzNnktcjxYyYAw82AromuFXroulU54NDykKcpRxhHy8mK6X4NTYHUfjRv_KkxIBF0UfpuUN1Obnvd5jN4ibX97rZ3e_j2nBmT82TzI2qWDP28J9lS2bipXiagvWtvSgMMiBddCiV0QBcBaA3sYGBIdhKURL9iJxlZgvXea32O9SdFBkqw0Ng4Mni6b-cPh5eI5qboHLs6Xj_AXLRcByDDZXnNIzbYwvD0Rzt1DIXMMIdfABkqXe-ZuK0_RoQNfkdGCnk76mhRukufLyFDW", "width": 3264}], "place_id": "ChIJdXUJZMFpQg0Rjh5n6UaEvK8", "plus_code": {"compound_code": "6MWM+9V Tielmes, Spain", "global_code": "8CGR6MWM+9V"}, "rating": 5, "reference": "ChIJdXUJZMFpQg0Rjh5n6UaEvK8", "scope": "GOOGLE", "types": ["transit_station", "point_of_interest", "establishment"], "user_ratings_total": 1, "vicinity": "Spain"}, {"business_status": "OPERATIONAL", "geometry": {"location": {"lat": 40.2443771, "lng": -3.3186066}, "viewport": {"northeast": {"lat": 40.24570163029149, "lng": -3.317221269708498}, "southwest": {"lat": 40.2430036697085, "lng": -3.319919230291502}}}, "icon": "https://maps.gstatic.com/mapfiles/place_api/icons/v1/png_71/generic_business-71.png", "icon_background_color": "#7B9EB0", "icon_mask_base_uri": "https://maps.gstatic.com/mapfiles/place_api/icons/v2/generic_pinlet", "name": "Real-Centro de Salud", "place_id": "ChIJkVpU2MFpQg0R8uJiECu8bI0", "plus_code": {"compound_code": "6MVJ+QH Tielmes, Spain", "global_code": "8CGR6MVJ+QH"}, "reference": "ChIJkVpU2MFpQg0R8uJiECu8bI0", "scope": "GOOGLE", "types": ["transit_station", "point_of_interest", "establishment"], "vicinity": "Spain"}, {"business_status": "OPERATIONAL", "geometry": {"location": {"lat": 40.2465, "lng": -3.27535}, "viewport": {"northeast": {"lat": 40.2478716802915, "lng": -3.273997869708498}, "southwest": {"lat": 40.2451737197085, "lng": -3.276695830291502}}}, "icon": "https://maps.gstatic.com/mapfiles/place_api/icons/v1/png_71/generic_business-71.png", "icon_background_color": "#7B9EB0", "icon_mask_base_uri": "https://maps.gstatic.com/mapfiles/place_api/icons/v2/generic_pinlet", "name": "Ctra-M204-El Bache", "place_id": "ChIJ6_DpMBRoQg0Rj7rsMN7_acw", "plus_code": {"compound_code": "6PWF+HV Tielmes, Spain", "global_code": "8CGR6PWF+HV"}, "reference": "ChIJ6_DpMBRoQg0Rj7rsMN7_acw", "scope": "GOOGLE", "types": ["transit_station", "point_of_interest", "establishment"], "vicinity": "Spain"}, {"business_status": "OPERATIONAL", "geometry": {"location": {"lat": 40.2427597, "lng": -3.3191483}, "viewport": {"northeast": {"lat": 40.2441471302915, "lng": -3.317821169708498}, "southwest": {"lat": 40.2414491697085, "lng": -3.320519130291501}}}, "icon": "https://maps.gstatic.com/mapfiles/place_api/icons/v1/png_71/generic_business-71.png", "icon_background_color": "#7B9EB0", "icon_mask_base_uri": "https://maps.gstatic.com/mapfiles/place_api/icons/v2/generic_pinlet", "name": "Av.Ferrocarril-Estación de Servicio", "photos": [{"height": 1836, "html_attributions": ["<a href=\"https://maps.google.com/maps/contrib/106908493686755672059\">Lucía Martinez</a>"], "photo_reference": "AWn5SU7i7Rukej9S_2S8QShybdR9QDwea5p0E8-WJFv_hEWGoHKCWj5iPuBfieBZrYEgRD9fW2udbIRwPJsfye1mC5MNBHywPqXFEqdvs5RNYmMRPpostv4kPA6njxJOoIyrwQBxKr-Iz6lnL6kZwHl6iVsf0-5_RGyljwH2lsAxEpl3Uvz-dZDhSiDDnNGVQJZsABSIbd0CExCwsOKmuAER4pJRNTc-P4qxHMiRmCFTP3s5IB8b0MjUGKG-GlMPN9y9IHWl7HWZgj3Sw6KonBczqL454DGB5bha0Bu6OotgGk6xGCotP2df6_4aHGoVOC31kFkZnXsIfhugm8Xe4xY0jbogbTL1rOF_l1ODo6ZBfuASsFHOO8e9pGui_v-hsu8uudmJ4zVj7Ho2iVJWnrpzoWj04wBoO0QebesnjMBn8AKItZxc2HapxCh3g1aJ38rDSXH2alQfEQXFa1bHhgLHmUJqA24GCz6INmMIwbrKtYI208E14qdBAPqkHI3K6Mh2FKhPtYrmBr1SUkVqoxJV1w_YDC1RlAvsh6Trb92MKLiAxj9D5Le1AWIrbXVPdrXtzNK_c-X-9WuvuOIH9oQEF3VeZnqvGlzpf8JZjcYgT3VMhkiHeRursyj37TCHpQjKC4oZtQ", "width": 1836}], "place_id": "ChIJk1TO3uppQg0RiU_XmEWSDqY", "plus_code": {"compound_code": "6MVJ+48 Tielmes, Spain", "global_code": "8CGR6MVJ+48"}, "rating": 2, "reference": "ChIJk1TO3uppQg0RiU_XmEWSDqY", "scope": "GOOGLE", "types": ["transit_station", "point_of_interest", "establishment"], "user_ratings_total": 1, "vicinity": "Spain"}, {"business_status": "OPERATIONAL", "geometry": {"location": {"lat": 40.24649429999999, "lng": -3.2733033}, "viewport": {"northeast": {"lat": 40.2478005302915, "lng": -3.271959569708498}, "southwest": {"lat": 40.2451025697085, "lng": -3.274657530291502}}}, "icon": "https://maps.gstatic.com/mapfiles/place_api/icons/v1/png_71/generic_business-71.png", "icon_background_color": "#7B9EB0", "icon_mask_base_uri": "https://maps.gstatic.com/mapfiles/place_api/icons/v2/generic_pinlet", "name": "Ctra.M204-El Bache", "place_id": "ChIJmw5-9hNoQg0RVADouvorX9k", "plus_code": {"compound_code": "6PWG+HM Tielmes, Spain", "global_code": "8CGR6PWG+HM"}, "rating": 3, "reference": "ChIJmw5-9hNoQg0RVADouvorX9k", "scope": "GOOGLE", "types": ["transit_station", "point_of_interest", "establishment"], "user_ratings_total": 1, "vicinity": "Spain"}, {"business_status": "OPERATIONAL", "geometry": {"location": {"lat": 40.3500938, "lng": -3.2727673}, "viewport": {"northeast": {"lat": 40.3514504302915, "lng": -3.271403919708499}, "southwest": {"lat": 40.3487524697085, "lng": -3.274101880291502}}}, "icon": "https://maps.gstatic.com/mapfiles/place_api/icons/v1/png_71/generic_business-71.png", "icon_background_color": "#7B9EB0", "icon_mask_base_uri": "https://maps.gstatic.com/mapfiles/place_api/icons/v2/generic_pinlet", "name": "Ronda Hispanoamericana-Comunidad Europea", "photos": [{"height": 2988, "html_attributions": ["<a href=\"https://maps.google.com/maps/contrib/112525974682879798019\">Vinay Mansukh</a>"], "photo_reference": "AWn5SU49GW9UclBxegoEDVYyqB2SEG49VpjTxtTAwqpRnTKAyHLRQe9nwz1kJw2T3TQSEXyKUkyQNelwoLsCS73flV1o7yBFkFG71n8xPg3NCscRm8bu_WXYGMcrHbm2QaF3G62Dphcb4qCGExPL9frspcSjDYWfxH5cfP4mai4OSDpg_HzngW9bx-KvMKmWVyzLMrAvRus2OMCfCk3ptgaBGCtLEKmTgNtG_ejlOarVuWEeROE4jD9cQieAcKqVSEtShyHWihboJE3gHp4Xsz8IWjYZ8YmSnuv5tlTPIgUUt4tPtS3pcb1CXEFMSBiU-0_v4ACHPkL17NhD50J8yAqeLJBKlXk6evYufSOwpKTHVHLgScpDJ7RIIzrG0Wl7lzRdtVepV_9Hh5RnA5S2VXgpWExtt53bV_cjp1BhHlpbaIVGTSSkncfMuKImhEM7bD6dFtDyQwK8d854KH8AXCLJPk_ZIpkg6Tp9o6oDUr6q54Wb1EOLofXCBsRoTn0XtS480q-hH5qVbkm3v4mU9MdoOMARGv3wi3a3RFt_KWD-Hbjeuljw50p6kvfyQack4jYSLnI_k3O6AiECUvVtR6i7WMdXZY1TWZNl0CzzUwXb1yFWxzd2LSgDQf4FHMbmC1SD6f5s39ws", "width": 5312}], "place_id": "ChIJa8GgGqREQg0RX5c3smfz0fk", "plus_code": {"compound_code": "9P2G+2V Las Villas de Nuevo Baztán, Spain", "global_code": "8CGR9P2G+2V"}, "reference": "ChIJa8GgGqREQg0RX5c3smfz0fk", "scope": "GOOGLE", "types": ["transit_station", "point_of_interest", "establishment"], "vicinity": "Spain"}, {"business_status": "OPERATIONAL", "geometry": {"location": {"lat": 40.35033, "lng": -3.272759999999999}, "viewport": {"northeast": {"lat": 40.35165063029149, "lng": -3.271462369708498}, "southwest": {"lat": 40.3489526697085, "lng": -3.274160330291501}}}, "icon": "https://maps.gstatic.com/mapfiles/place_api/icons/v1/png_71/generic_business-71.png", "icon_background_color": "#7B9EB0", "icon_mask_base_uri": "https://maps.gstatic.com/mapfiles/place_api/icons/v2/generic_pinlet", "name": "Ronda Hispanoamericana-Comunidad Europea", "place_id": "ChIJ6x-aEKREQg0RLjv-Zk4XJPY", "plus_code": {"compound_code": "9P2G+4V Las Villas de Nuevo Baztán, Spain", "global_code": "8CGR9P2G+4V"}, "rating": 3, "reference": "ChIJ6x-aEKREQg0RLjv-Zk4XJPY", "scope": "GOOGLE", "types": ["transit_station", "point_of_interest", "establishment"], "user_ratings_total": 1, "vicinity": "Spain"}, {"business_status": "OPERATIONAL", "geometry": {"location": {"lat": 40.3490944, "lng": -3.2687361}, "viewport": {"northeast": {"lat": 40.35038918029149, "lng": -3.267366019708498}, "southwest": {"lat": 40.34769121970849, "lng": -3.270063980291502}}}, "icon": "https://maps.gstatic.com/mapfiles/place_api/icons/v1/png_71/generic_business-71.png", "icon_background_color": "#7B9EB0", "icon_mask_base_uri": "https://maps.gstatic.com/mapfiles/place_api/icons/v2/generic_pinlet", "name": "Ronda Hispanoamericana-PºMadrid", "place_id": "ChIJmZd_A6ZEQg0RevrFgfjzwMw", "plus_code": {"compound_code": "8PXJ+JG Las Villas de Nuevo Baztán, Spain", "global_code": "8CGR8PXJ+JG"}, "reference": "ChIJmZd_A6ZEQg0RevrFgfjzwMw", "scope": "GOOGLE", "types": ["transit_station", "point_of_interest", "establishment"], "vicinity": "Spain"}, {"business_status": "OPERATIONAL", "geometry": {"location": {"lat": 40.3490219, "lng": -3.268512}, "viewport": {"northeast": {"lat": 40.3503454802915, "lng": -3.267153169708498}, "southwest": {"lat": 40.3476475197085, "lng": -3.269851130291502}}}, "icon": "https://maps.gstatic.com/mapfiles/place_api/icons/v1/png_71/generic_business-71.png", "icon_background_color": "#7B9EB0", "icon_mask_base_uri": "https://maps.gstatic.com/mapfiles/place_api/icons/v2/generic_pinlet", "name": "Ronda Hispanoamericana-PºMadrid", "place_id": "ChIJ7RfAAqZEQg0RkIlD00Pw6Wc", "plus_code": {"compound_code": "8PXJ+JH Las Villas de Nuevo Baztán, Spain", "global_code": "8CGR8PXJ+JH"}, "reference": "ChIJ7RfAAqZEQg0RkIlD00Pw6Wc", "scope": "GOOGLE", "types": ["transit_station", "point_of_interest", "establishment"], "vicinity": "Spain"}, {"business_status": "OPERATIONAL", "geometry": {"location": {"lat": 40.24524, "lng": -3.25978}, "viewport": {"northeast": {"lat": 40.2465499802915, "lng": -3.258421269708498}, "southwest": {"lat": 40.24385201970851, "lng": -3.261119230291502}}}, "icon": "https://maps.gstatic.com/mapfiles/place_api/icons/v1/png_71/generic_business-71.png", "icon_background_color": "#7B9EB0", "icon_mask_base_uri": "https://maps.gstatic.com/mapfiles/place_api/icons/v2/generic_pinlet", "name": "Ctra.M204-Manantial de Aguas", "place_id": "ChIJW8pk9QpoQg0RatRSc8X-UOE", "plus_code": {"compound_code": "6PWR+33 Carabaña, Spain", "global_code": "8CGR6PWR+33"}, "reference": "ChIJW8pk9QpoQg0RatRSc8X-UOE", "scope": "GOOGLE", "types": ["transit_station", "point_of_interest", "establishment"], "vicinity": "Spain"}, {"business_status": "OPERATIONAL", "geometry": {"location": {"lat": 40.2450638, "lng": -3.2599061}, "viewport": {"northeast": {"lat": 40.2464500302915, "lng": -3.258565969708498}, "southwest": {"lat": 40.2437520697085, "lng": -3.261263930291502}}}, "icon": "https://maps.gstatic.com/mapfiles/place_api/icons/v1/png_71/generic_business-71.png", "icon_background_color": "#7B9EB0", "icon_mask_base_uri": "https://maps.gstatic.com/mapfiles/place_api/icons/v2/generic_pinlet", "name": "Ctra.M204-Manantial de Aguas", "photos": [{"height": 3000, "html_attributions": ["<a href=\"https://maps.google.com/maps/contrib/101615168773296296087\">Imanol Basterrechea</a>"], "photo_reference": "AWn5SU7ZEfkS0eMhqnoH5jCzqGLkzA96O9qZzk_LLG-Yg7N6ydbMNuwIx8zgyuGXEc3RqwMp6onWKrb9LXDWK_YfRBk0f7LB--WL2G4AeYcI1s5xFWV4M5BtGhv89CihnjefKJ55UBdZ3Ot2mZL4hZvQePd0gLTaND5E3aMOf91V6bhqQ5lfr5_NKMob4XtZEC2sHjLD_W2fGaoz5B1VWSLQXrZa8uADjGqsQ6q8mc2-I4VB8LuuIe9SuFzeU0MGeC0TyR0bf9VvETPH39cmAzLU_e7OVhutRPMOivkIhycokt7YyfS7O7mQfTFQCeNIa2BjjeCiigU4BfAnCVe9SuG2UK2fkdktfY9SHTumkDR6YWH2FxBCvve5SiQUid87AZdhu3SOXJ8IjQj7mpxi3JJBF0XfR6fo5OU3sx_oUG5nD8DUJ6tIld0e_izPH9xKQWmZPTRFfH2OID8EqBySEcusFpCWGltfjDK_hpwHcdKmDN9-SktQ6LoP6wAZVetIkTk_pWwlttpcK4iy4IcZeOgrl2dKlBJTMPPYfVTLKWXwKwoab0aCn4kpggMhrRA3t_wZ81oZV2jDU09w2tECCO1SFIsxbI_Z5YwWPnfM5W6Na1QcFuABHlKrgyvSQVNZYK6BBfVClvi0", "width": 4000}], "place_id": "ChIJi7kv9ApoQg0RTZRRwSNccQk", "plus_code": {"compound_code": "6PWR+22 Carabaña, Spain", "global_code": "8CGR6PWR+22"}, "rating": 5, "reference": "ChIJi7kv9ApoQg0RTZRRwSNccQk", "scope": "GOOGLE", "types": ["transit_station", "point_of_interest", "establishment"], "user_ratings_total": 1, "vicinity": "Spain"}]