[{"business_status": "OPERATIONAL", "geometry": {"location": {"lat": 40.5009444, "lng": -4.0670728}, "viewport": {"northeast": {"lat": 40.5022433302915, "lng": -4.065720019708498}, "southwest": {"lat": 40.4995453697085, "lng": -4.068417980291501}}}, "icon": "https://maps.gstatic.com/mapfiles/place_api/icons/v1/png_71/parking-71.png", "icon_background_color": "#7B9EB0", "icon_mask_base_uri": "https://maps.gstatic.com/mapfiles/place_api/icons/v2/parking_pinlet", "name": "Aparcamiento SIMPLY", "place_id": "ChIJU7zLB_OfQQ0RDUoBF-P3bIc", "plus_code": {"compound_code": "GW2M+95 Valdemorillo, Spain", "global_code": "8CGQGW2M+95"}, "reference": "ChIJU7zLB_OfQQ0RDUoBF-P3bIc", "scope": "GOOGLE", "types": ["parking", "point_of_interest", "establishment"], "vicinity": "Calle Ramón Gamonal, Valdemorillo"}, {"business_status": "OPERATIONAL", "geometry": {"location": {"lat": 40.5006818, "lng": -4.0652519}, "viewport": {"northeast": {"lat": 40.5019586302915, "lng": -4.063944669708498}, "southwest": {"lat": 40.4992606697085, "lng": -4.066642630291502}}}, "icon": "https://maps.gstatic.com/mapfiles/place_api/icons/v1/png_71/parking-71.png", "icon_background_color": "#7B9EB0", "icon_mask_base_uri": "https://maps.gstatic.com/mapfiles/place_api/icons/v2/parking_pinlet", "name": "Parking subterráneo Valdemorillo", "opening_hours": {"open_now": true}, "photos": [{"height": 4640, "html_attributions": ["<a href=\"https://maps.google.com/maps/contrib/106027927648282067481\">Mauricio C.G.</a>"], "photo_reference": "AWn5SU6Q6Ch308b-CcXjzmwwXUC0LRhYbOqAFVYZYISjhkDeIA_bA5TERDEOs3W_TtQwlcAJNjmH8zMkElmpVZrW12zzacfwZwBm5efVD4w8RbNox2fwfEgfUiD7tIVnlEYT5HoageinvzkkFvi2sFRkgvQrynUX_Z_sZt_jxqMIIfLdZhvXvlQodZIBsTu58eZSvKiWfCuuxGUjJPCAJdcJ0hn-jC_qR_YU0hGWP_TsLjThOjNR-bXUsFo-2Dml8Gn4OPG0scmZgOgnQ38fsiv7rzJEQ_QRFl_DxKCvV6LcDhhcjogkxf1b-XgclTac-GckzANaga--e8QTAUX8B8oM7-Y7lwgxi_qXtMM5SH3I5v6-bSKeOs4Sfv3xxQo04XewY_H_m41kbhJqg9NpgZJDveU3O8gbxwWwuuLhMmLv0I0nYWbnA2oUmnq6-9sGO9Yjb3Jyyggvyh27h9altO8UHdRRdmxQNvBXo4W8izpNqpCv-A4QTnzNN8t8FVfhkCD3k43jktbFnYFaP-rNz4cd-OKj15SNwQQ2NJqyKRxcDbyPrbbxIfcCy_ponvW1N908SLGyQDEQGZ4JLO6rmRXmHcZGm7CC6lvb3HHge4l-tfiHTrlOXNmf7U5AX3RPxasqmchfgrnw", "width": 3480}], "place_id": "ChIJQ67HWyyfQQ0RJuY-FELQPaY", "plus_code": {"compound_code": "GW2M+7V Valdemorillo, Spain", "global_code": "8CGQGW2M+7V"}, "rating": 4, "reference": "ChIJQ67HWyyfQQ0RJuY-FELQPaY", "scope": "GOOGLE", "types": ["parking", "point_of_interest", "establishment"], "user_ratings_total": 5, "vicinity": "Calle la Paz, 55, Valdemorillo"}, {"business_status": "OPERATIONAL", "geometry": {"location": {"lat": 40.49837149999999, "lng": -4.0623623}, "viewport": {"northeast": {"lat": 40.4996995802915, "lng": -4.060996819708497}, "southwest": {"lat": 40.4970016197085, "lng": -4.063694780291502}}}, "icon": "https://maps.gstatic.com/mapfiles/place_api/icons/v1/png_71/parking-71.png", "icon_background_color": "#7B9EB0", "icon_mask_base_uri": "https://maps.gstatic.com/mapfiles/place_api/icons/v2/parking_pinlet", "name": "Parking bus", "opening_hours": {"open_now": true}, "place_id": "ChIJr9kO7o-fQQ0RE_hpnI46PpM", "plus_code": {"compound_code": "FWXQ+83 Valdemorillo, Spain", "global_code": "8CGQFWXQ+83"}, "rating": 4, "reference": "ChIJr9kO7o-fQQ0RE_hpnI46PpM", "scope": "GOOGLE", "types": ["parking", "point_of_interest", "establishment"], "user_ratings_total": 1, "vicinity": "Calle Eras Cerradas, 23, Valdemorillo"}, {"business_status": "OPERATIONAL", "geometry": {"location": {"lat": 40.5226839, "lng": -4.0583651}, "viewport": {"northeast": {"lat": 40.5240013802915, "lng": -4.057016369708498}, "southwest": {"lat": 40.5213034197085, "lng": -4.059714330291502}}}, "icon": "https://maps.gstatic.com/mapfiles/place_api/icons/v1/png_71/parking-71.png", "icon_background_color": "#7B9EB0", "icon_mask_base_uri": "https://maps.gstatic.com/mapfiles/place_api/icons/v2/parking_pinlet", "name": "Parking el paraiso", "opening_hours": {"open_now": true}, "place_id": "ChIJKYuaXnKfQQ0RWEVua1HyYvM", "plus_code": {"compound_code": "GWFR+3M El Paraíso, Spain", "global_code": "8CGQGWFR+3M"}, "rating": 4.7, "reference": "ChIJKYuaXnKfQQ0RWEVua1HyYvM", "scope": "GOOGLE", "types": ["parking", "point_of_interest", "establishment"], "user_ratings_total": 3, "vicinity": "Calle Encina del Paraíso, El Paraíso"}, {"business_status": "OPERATIONAL", "geometry": {"location": {"lat": 40.5228537, "lng": -4.058948699999999}, "viewport": {"northeast": {"lat": 40.5241427302915, "lng": -4.057615569708497}, "southwest": {"lat": 40.5214447697085, "lng": -4.060313530291501}}}, "icon": "https://maps.gstatic.com/mapfiles/place_api/icons/v1/png_71/parking-71.png", "icon_background_color": "#7B9EB0", "icon_mask_base_uri": "https://maps.gstatic.com/mapfiles/place_api/icons/v2/parking_pinlet", "name": "Calle Encina del Paraíso, 6 Parking", "place_id": "ChIJhVfP_XefQQ0Ry22AWhQ3TGE", "plus_code": {"compound_code": "GWFR+4C El Paraíso, Spain", "global_code": "8CGQGWFR+4C"}, "reference": "ChIJhVfP_XefQQ0Ry22AWhQ3TGE", "scope": "GOOGLE", "types": ["parking", "point_of_interest", "establishment"], "vicinity": "Calle Encina del Paraíso, 6, El Paraíso"}, {"business_status": "OPERATIONAL", "geometry": {"location": {"lat": 40.5229367, "lng": -4.0593148}, "viewport": {"northeast": {"lat": 40.5242137302915, "lng": -4.057985719708499}, "southwest": {"lat": 40.5215157697085, "lng": -4.060683680291503}}}, "icon": "https://maps.gstatic.com/mapfiles/place_api/icons/v1/png_71/parking-71.png", "icon_background_color": "#7B9EB0", "icon_mask_base_uri": "https://maps.gstatic.com/mapfiles/place_api/icons/v2/parking_pinlet", "name": "Parking de Josito", "place_id": "ChIJl3qbWpOfQQ0RkRFwWgzAB4w", "plus_code": {"compound_code": "GWFR+57 El Paraíso, Spain", "global_code": "8CGQGWFR+57"}, "reference": "ChIJl3qbWpOfQQ0RkRFwWgzAB4w", "scope": "GOOGLE", "types": ["parking", "point_of_interest", "establishment"], "vicinity": "Calle Encina del Paraíso, 2, El Paraíso"}, {"business_status": "OPERATIONAL", "geometry": {"location": {"lat": 40.4807162, "lng": -4.1086027}, "viewport": {"northeast": {"lat": 40.4816873802915, "lng": -4.107093769708498}, "southwest": {"lat": 40.4789894197085, "lng": -4.109791730291502}}}, "icon": "https://maps.gstatic.com/mapfiles/place_api/icons/v1/png_71/parking-71.png", "icon_background_color": "#7B9EB0", "icon_mask_base_uri": "https://maps.gstatic.com/mapfiles/place_api/icons/v2/parking_pinlet", "name": "Av. de Roncesvalles Parking", "place_id": "ChIJ-b6Yd4ChQQ0R5-N0qA6QwKE", "plus_code": {"compound_code": "FVJR+7H Navalagamella, Spain", "global_code": "8CGQFVJR+7H"}, "rating": 4, "reference": "ChIJ-b6Yd4ChQQ0R5-N0qA6QwKE", "scope": "GOOGLE", "types": ["parking", "point_of_interest", "establishment"], "user_ratings_total": 1, "vicinity": "Avenida Roncesvalles, Navalagamella"}, {"business_status": "OPERATIONAL", "geometry": {"location": {"lat": 40.4806775, "lng": -4.1086178}, "viewport": {"northeast": {"lat": 40.48199258029149, "lng": -4.107318369708498}, "southwest": {"lat": 40.47929461970849, "lng": -4.110016330291502}}}, "icon": "https://maps.gstatic.com/mapfiles/place_api/icons/v1/png_71/parking-71.png", "icon_background_color": "#7B9EB0", "icon_mask_base_uri": "https://maps.gstatic.com/mapfiles/place_api/icons/v2/parking_pinlet", "name": "Parking Ruta de los Molinos", "opening_hours": {"open_now": true}, "photos": [{"height": 2268, "html_attributions": ["<a href=\"https://maps.google.com/maps/contrib/108749458939728371835\">joseluisff</a>"], "photo_reference": "AWn5SU5el2LRj6JjHjOjZi9A-9kVb6IKkEBz922x_WFJeWlmS-dmMhxPyBK28JKTSpDrmGzIKz5yiDiuN2zK7O_5oLYS6iX3R5s9kcRE4qDfYGws0IS2Nsia7MhOp_HY6-IUDc5WvapLE_saXfkub1zP1S1nYhzRWiBq4aJgvlOR8jzwnNRNRlRfQt8WLU0VzzEdERz-5r-0umjijVyr5ObmxVxjxDBOrCzrkXUVNktJHnTChyAko0zOT5PEbKdPMl8xs1EkbOGYBc-ocii1Vk3xXwz5NPMy6PejD_o5Mn4O1zd7fpCJ9cxEBRWsqAhgaD9X-f19aVFYWzOzxmF4HmxtS-8yr7mKikxmSp4MQCRdA_W9Wf3Ag9U5jtI-m_Xi_ld_hAkNuJLqIokzc5CfsZ8yufk9cgSod9GNBnGX1oEpvx71jbRPwALzo0uyLasL00p_twu1MtMxYULZbzOaLjdQFouSIbrctHxMM9mWJ56yUVOeoDE30m-CH3iTaO0vFcHp-Idp8Y0StlzxN66tSJP7uHPnxea8P1_V_EdBrYHDtcI_ZNJfoH_g7i2rmZVnpSSo-uO4rShXYiX5VskiXssqMpLNU3iR9HU__VMJGmRexzgXwVB_YcbVEqQyHlP4SKlYks3HaBEp", "width": 4032}], "place_id": "ChIJlYi-d4ChQQ0RDmEfxpTDYXI", "plus_code": {"compound_code": "FVJR+7H Navalagamella, Spain", "global_code": "8CGQFVJR+7H"}, "rating": 4.2, "reference": "ChIJlYi-d4ChQQ0RDmEfxpTDYXI", "scope": "GOOGLE", "types": ["parking", "point_of_interest", "establishment"], "user_ratings_total": 82, "vicinity": "Navalagamella"}, {"business_status": "OPERATIONAL", "geometry": {"location": {"lat": 40.4722997, "lng": -4.124005599999999}, "viewport": {"northeast": {"lat": 40.4736672802915, "lng": -4.122573469708497}, "southwest": {"lat": 40.4709693197085, "lng": -4.125271430291502}}}, "icon": "https://maps.gstatic.com/mapfiles/place_api/icons/v1/png_71/parking-71.png", "icon_background_color": "#7B9EB0", "icon_mask_base_uri": "https://maps.gstatic.com/mapfiles/place_api/icons/v2/parking_pinlet", "international_phone_number": "+34 918 98 80 08", "name": "Plaza de Marcelino Camacho", "opening_hours": {"open_now": true}, "photos": [{"height": 2248, "html_attributions": ["<a href=\"https://maps.google.com/maps/contrib/104901160031945908161\">Mere Gonzalez Mateos</a>"], "photo_reference": "AWn5SU72p3VZutMM6gaxpozk7cf2ZbusatOr5qMgEDUk9NOWzNbls1nUc0OrdWWjot0jH4x_1iNFJAoB1uRVMMUDnw1hrru9rlREeSVIyAQ29WJmsAmiC7Dz9R8GJlzy0_PDtV-qy9IvfsSiUC-SC2gGmXNHomYcE50DPEF9BUE6bbae6ymSaZVKXo7HlBnUkPo9Itpj4YZKQ4M0f8DYA7oxLR6Go1-yyIC1A24mmad6s_hzSkfFHu5znchufv54qzGuP21uGsbALs0XBYocH-UNdbXNB3I2Rj95fTs_TtLfyIL2EAHwbkrHLbn0AcygpDKioL8GEngJDH1SxD0nHltf4qapOmu3H3CsEkgVPUPAY61-f3CbMr1652uuYtzR2wzRq7AhqTlAHSJXOtv8xukkCKhUZL_9JRb_KIba6b_DarxjNk3yT6VwCWEhW54LonmKx3oRQ1QSGUVZWn7Bw4x0ThnKIJSRoMCpPeLeF3wnZOSv6O_UX29k7j3Yssi01spmNSo1G24m2dLBQO4jpk6uvlLAkf2rdDTK2JDBU_YywxeX-h8_0NODhXPiEw9Fb7fsgc9X76kTZJzQNLYocyHi1uQTuqqX9YbB9F93z7pKTC3N9Bs_0HM7dmCcysRtsDNqRwnh7A", "width": 4000}], "place_id": "ChIJQ15JCNujQQ0Rs-KvRR4q_Vs", "plus_code": {"compound_code": "FVCG+W9 Navalagamella, Spain", "global_code": "8CGQFVCG+W9"}, "rating": 4.5, "reference": "ChIJQ15JCNujQQ0Rs-KvRR4q_Vs", "scope": "GOOGLE", "types": ["parking", "point_of_interest", "establishment"], "user_ratings_total": 35, "vicinity": "Plaza de Marcelino Camacho, Navalagamella"}, {"business_status": "OPERATIONAL", "geometry": {"location": {"lat": 40.5018918, "lng": -3.994355399999999}, "viewport": {"northeast": {"lat": 40.5032548302915, "lng": -3.993121569708498}, "southwest": {"lat": 40.5005568697085, "lng": -3.995819530291502}}}, "icon": "https://maps.gstatic.com/mapfiles/place_api/icons/v1/png_71/parking-71.png", "icon_background_color": "#7B9EB0", "icon_mask_base_uri": "https://maps.gstatic.com/mapfiles/place_api/icons/v2/parking_pinlet", "name": "Parking Del Aeródromo", "photos": [{"height": 3120, "html_attributions": ["<a href=\"https://maps.google.com/maps/contrib/113276950381716230902\">Víctor Sánchez</a>"], "photo_reference": "AWn5SU50_GOiOuSSeN-ysRupdbu-mnexMl-dgIkmgrr4JY1FWzTf1PpRwqoeb0fom9ffruv8Y28r7IjTOjtwucyg6AD5r8M55i5kpMdHTIVJRJoDtwhtRiluEdf4E9qHxDUtDZiosXG3LXELlZHImeGyPYFwaIlTKlG5E60WktL2ecRGltjvN_YEwcz83DSJkkprqSzHoSPzDi5yGU5f8J0Lgd8UyOzv1FHULE3aki75F6EH_tLvIqKaLSVLOk38r12hrQPEP-wcIp5Yfq6E_BxloxEyiM_5S3vSLT5kAIYicj0YTrv9dZ-9UONXHq4cPsuiyxHs2ITYfiD7qYCXBiD-o_yodVvNRXRNs78yZ-kMVFkihqrYn3S1EprzqcRMCXoYNkun1yZP526Pj0SybcMvXRLY_lqMIADCzvgpgKTGED9Gfqk8pFvw_RDi_X6Z-lCWLBOS1O7zGJQJAz1lN-la-MbzQziAGcEVnmFtFBKJC2Me-rv10PYiyg9oaqze8PETRgu3gctQ-9i5n9l7fpjSctdBn69dtJsMMpSzPokUpQNmIZSVQO1_4ab3Jwd9REYy2HmocGC1sW-k83A2oaTjtOLrSg6k6k5wr-_bHYDsqYSIcvYc_zlHZWem8IYZkN5b", "width": 4160}], "place_id": "ChIJQRNTtqOeQQ0Rw6O7lf0wEGs", "plus_code": {"compound_code": "G224+Q7 Valdemorillo, Spain", "global_code": "8CGRG224+Q7"}, "rating": 3.2, "reference": "ChIJQRNTtqOeQQ0Rw6O7lf0wEGs", "scope": "GOOGLE", "types": ["parking", "point_of_interest", "establishment"], "user_ratings_total": 6, "vicinity": "Villanueva del Pardillo, Unnamed Road, 28229"}, {"business_status": "OPERATIONAL", "geometry": {"location": {"lat": 40.4673075, "lng": -4.1270007}, "viewport": {"northeast": {"lat": 40.46866203029149, "lng": -4.125654069708498}, "southwest": {"lat": 40.46596406970849, "lng": -4.128352030291501}}}, "icon": "https://maps.gstatic.com/mapfiles/place_api/icons/v1/png_71/parking-71.png", "icon_background_color": "#7B9EB0", "icon_mask_base_uri": "https://maps.gstatic.com/mapfiles/place_api/icons/v2/parking_pinlet", "name": "Parking Calle Amargura", "opening_hours": {"open_now": true}, "photos": [{"height": 1080, "html_attributions": ["<a href=\"https://maps.google.com/maps/contrib/111768585672458779564\">Samuel Sánchez-Caro Ontalba</a>"], "photo_reference": "AWn5SU4otUWc7FJHBos-rFcHkl7ClCbwmm2nX_X5XxBUaJTFpdt_NJwIpFit3W7-90wPtvhlpaIROdd1-aQ9mt8my_J4iEqEvnkhPut5uN_vPVWJvY0OKc4A3SfAZiFBFbqKgxVu8uObM4aexOKni25i8teLWMDrH66tk3ebY1gS1T4IRqyB5ZpPIHFdGD-JOKGLWBtzHIU5fw5e7SEBwjFBSUUs1UB3waqYg0xlKGnJ6Y6o9nvLaHvYpY9du31jMMyA7IaPTUxjOoroh7htGiPhyLaMwQlzkYuzZYJhuTmqMEVOC9K15a1__W47DiAZ7clqDn5ncopHWj40lbJpwbYCQEoTX-CihP_0_TR9cGrLdyCpAronqof_AcAT94ZyU4TCZMENXjDrC7Fe5389LSM22zB5P0KQfkRAIIyn5DaIYYx5FkHtlaYl1LttzCKYD5Cj2d8QGugmtVlC6TlybWnA75Bxyw89dtmOe2SYre3r7d1ecr95-NCeHfl5hbjH1lDwXlTLHM_u9NshYrtbZcw2jxpLvXISSHQ4_PnzOtp2_t_kmW7thBSp_6ESs9BBseb-0VcSCAEGPeQXR5io-FQLj-46yqPpV5ksDRUZoNKZO2x16jkuOzRDTiA-ilE9sFo_W2POmo1FbWSS7AQYX2NS8arH0Oc", "width": 1440}], "place_id": "ChIJE6aZVwCjQQ0RH-J6x3owfEM", "plus_code": {"compound_code": "FV8F+W5 Navalagamella, Spain", "global_code": "8CGQFV8F+W5"}, "reference": "ChIJE6aZVwCjQQ0RH-J6x3owfEM", "scope": "GOOGLE", "types": ["parking", "point_of_interest", "establishment"], "vicinity": "Calle de Amargura, 44, Navalagamella"}, {"business_status": "OPERATIONAL", "geometry": {"location": {"lat": 40.4655628, "lng": -4.125669}, "viewport": {"northeast": {"lat": 40.4668921302915, "lng": -4.124245919708498}, "southwest": {"lat": 40.46419416970851, "lng": -4.126943880291502}}}, "icon": "https://maps.gstatic.com/mapfiles/place_api/icons/v1/png_71/parking-71.png", "icon_background_color": "#7B9EB0", "icon_mask_base_uri": "https://maps.gstatic.com/mapfiles/place_api/icons/v2/parking_pinlet", "name": "Aparcamiento", "opening_hours": {"open_now": true}, "photos": [{"height": 1703, "html_attributions": ["<a href=\"https://maps.google.com/maps/contrib/101099853662667138786\">Miguel Lucio-V.M.</a>"], "photo_reference": "AWn5SU67zT07cN0D_XZAH06Lnu4VGcYZul1OPdfdZD5TPeM_BZ1jQI25cVsnCOpFI5c5ssSJZvnv0Diw38KtwASIy1SkeJVqBuExMvi71xn9BxHI2CzAbv6MpAwMrMZvkXSC7ZJw1HGpvGluDjkKN3d8_Pr84EoaNEztutdB1oKiy1kNLvLfvf9oo4dDb9mCmrTwRR5MHcfprD9fUwj9O7bw9EdKbsyDh9bKgCRg9SNT6h_QK-snZxXsNWh2qt03Et7VT33RbywDktSjqNJujKQewoKAOB7xwh09rON6-fPPDFcMH_c1wWd4jhZhRwVaRbe8C2uAMlT1dX9ORfcfiYSuthOXeJW1ToV7nEpAzLoJVXQ_ZVIkWpszG7T2SSdkrSvbZBOnVVXPRKYfpF28rLiL4NNwZ_VcA5Zb_BhQ9fYcOYGaub-w-yzViLDQYm9ERe0hSyp7l064_ujMR4AuabSA3Jd7FlaDUPI-Uwb3cEL6_BovKqR8zFa1zgpIvBLCUSdvmXwKcNx4DU3bCCUgOaWl3irTISsZy_AuAP8gx7kgPuV7sFnY9iyahiOkpLs3rc-cdyfb5Kl3QCseVMy4mhCmjrtZNGgdcMHOHCvhcOdm0wXUVCd-jo6cvXGaFSG4XW_s3X7QdQ", "width": 2650}], "place_id": "ChIJ49GFUB6jQQ0RQk8bsa_AwDY", "plus_code": {"compound_code": "FV8F+6P Navalagamella, Spain", "global_code": "8CGQFV8F+6P"}, "reference": "ChIJ49GFUB6jQQ0RQk8bsa_AwDY", "scope": "GOOGLE", "types": ["parking", "point_of_interest", "establishment"], "vicinity": "Navalagamella"}, {"business_status": "OPERATIONAL", "geometry": {"location": {"lat": 40.5465498, "lng": -4.011375300000001}, "viewport": {"northeast": {"lat": 40.54789858029149, "lng": -4.010024919708498}, "southwest": {"lat": 40.5452006197085, "lng": -4.012722880291503}}}, "icon": "https://maps.gstatic.com/mapfiles/place_api/icons/v1/png_71/parking-71.png", "icon_background_color": "#7B9EB0", "icon_mask_base_uri": "https://maps.gstatic.com/mapfiles/place_api/icons/v2/parking_pinlet", "name": "Aparcamiento de la Universidad", "photos": [{"height": 3120, "html_attributions": ["<a href=\"https://maps.google.com/maps/contrib/113276950381716230902\">Víctor Sánchez</a>"], "photo_reference": "AWn5SU4D0KYOR4wxzU5pJqw03dUGfvpE9eZ1tkP6e95FmkJdwUB5JWfnKKpjAtuTemaTvQ2oDpwrxfAQIMV2j2blYzKda8NCH2WNG-wYdyRQIPc5HnQO56MgejIzwOKMR4Y-P7l09VZwpX3D1SBHxclY51yAAYkOzfbAyxD-zMlicLa32nHa99VBeTmi5ccCSsIl3dtAJJP3ZKR9gKG5tchIYX2AQlCAG5XPJHA_BHVjr8qM3YprO8cm5zGVIUK2-k9h6AYCuwknn2_En6_osygdu1CuahS7YMTseujK6uBdrSnRKT6c3Jc_uIxhwfYx2k1PQPIWD1eCsrMcXm8HPbXE6osvYO4ogP46Fk05ZOY13GggYnd1FOF3uudtILDhVR86fwn1C5YsXN5pdTioHzq4_HbV0H8tiWtfqv0Bcop85WZVhB55ihiJDzMzLrlgVjssp42SQns6ft5xPvyvgc25FQ6FqblrH_HsI7hdOSkazwGQqPtEAIt-ar2Lo-7ibkyAmW8Xb30tcWDUKQvZvkAHugAFXK4HZkJ92N4c21gTP_MmXRcait-Nbf9Z785dYuftvsA_vwXZnJG896yPk2kvAy6mcwFPQ832UzS5e09WvK3nh6OA0CgagIH_bWQH9WcorWgk0Q", "width": 4160}], "place_id": "ChIJ1-5cDlCfQQ0RPZQp-yR3E9U", "plus_code": {"compound_code": "GXWQ+JC Colmenarejo, Spain", "global_code": "8CGQGXWQ+JC"}, "rating": 2.5, "reference": "ChIJ1-5cDlCfQQ0RPZQp-yR3E9U", "scope": "GOOGLE", "types": ["parking", "point_of_interest", "establishment"], "user_ratings_total": 2, "vicinity": "Colmenarejo"}]