[{"business_status": "OPERATIONAL", "geometry": {"location": {"lat": 40.9982298, "lng": -3.6372873}, "viewport": {"northeast": {"lat": 40.9995709802915, "lng": -3.636013469708498}, "southwest": {"lat": 40.9968730197085, "lng": -3.638711430291502}}}, "icon": "https://maps.gstatic.com/mapfiles/place_api/icons/v1/png_71/parking-71.png", "icon_background_color": "#7B9EB0", "icon_mask_base_uri": "https://maps.gstatic.com/mapfiles/place_api/icons/v2/parking_pinlet", "name": "Parking Público Gratuito", "place_id": "ChIJi3ccMADlQw0RuSNHlJ1E64M", "plus_code": {"compound_code": "X9X7+73 Buitrago del Lozoya, Spain", "global_code": "8CGRX9X7+73"}, "reference": "ChIJi3ccMADlQw0RuSNHlJ1E64M", "scope": "GOOGLE", "types": ["parking", "point_of_interest", "establishment"], "vicinity": "Calle de Concepción Vera, 8, Buitrago del Lozoya"}, {"business_status": "OPERATIONAL", "geometry": {"location": {"lat": 40.9968441, "lng": -3.637024100000001}, "viewport": {"northeast": {"lat": 40.9982065802915, "lng": -3.635656469708497}, "southwest": {"lat": 40.9955086197085, "lng": -3.638354430291502}}}, "icon": "https://maps.gstatic.com/mapfiles/place_api/icons/v1/png_71/parking-71.png", "icon_background_color": "#7B9EB0", "icon_mask_base_uri": "https://maps.gstatic.com/mapfiles/place_api/icons/v2/parking_pinlet", "name": "Parking Público Gratuito", "place_id": "ChIJRfl0YwDlQw0RYd-jgzrW7LE", "plus_code": {"compound_code": "X9W7+P5 Buitrago del Lozoya, Spain", "global_code": "8CGRX9W7+P5"}, "rating": 4.3, "reference": "ChIJRfl0YwDlQw0RYd-jgzrW7LE", "scope": "GOOGLE", "types": ["parking", "point_of_interest", "establishment"], "user_ratings_total": 3, "vicinity": "Calle del Lavadero, 2, Buitrago del Lozoya"}, {"business_status": "OPERATIONAL", "geometry": {"location": {"lat": 40.9967946, "lng": -3.6370787}, "viewport": {"northeast": {"lat": 40.99815778029149, "lng": -3.635710069708497}, "southwest": {"lat": 40.99545981970849, "lng": -3.638408030291501}}}, "icon": "https://maps.gstatic.com/mapfiles/place_api/icons/v1/png_71/parking-71.png", "icon_background_color": "#7B9EB0", "icon_mask_base_uri": "https://maps.gstatic.com/mapfiles/place_api/icons/v2/parking_pinlet", "name": "Parking Plaza del Progreso", "place_id": "ChIJDXrEaQDlQw0Rhpo7OfBZdEg", "plus_code": {"compound_code": "X9W7+P5 Buitrago del Lozoya, Spain", "global_code": "8CGRX9W7+P5"}, "reference": "ChIJDXrEaQDlQw0Rhpo7OfBZdEg", "scope": "GOOGLE", "types": ["parking", "point_of_interest", "establishment"], "vicinity": "Buitrago del Lozoya"}, {"business_status": "OPERATIONAL", "geometry": {"location": {"lat": 40.99641399999999, "lng": -3.638537799999999}, "viewport": {"northeast": {"lat": 40.9977683802915, "lng": -3.637110219708497}, "southwest": {"lat": 40.9950704197085, "lng": -3.639808180291502}}}, "icon": "https://maps.gstatic.com/mapfiles/place_api/icons/v1/png_71/parking-71.png", "icon_background_color": "#7B9EB0", "icon_mask_base_uri": "https://maps.gstatic.com/mapfiles/place_api/icons/v2/parking_pinlet", "name": "Parking Andarrío", "place_id": "ChIJBWzcXgDlQw0R3ag14UuzUTU", "plus_code": {"compound_code": "X9W6+HH Buitrago del Lozoya, Spain", "global_code": "8CGRX9W6+HH"}, "reference": "ChIJBWzcXgDlQw0R3ag14UuzUTU", "scope": "GOOGLE", "types": ["parking", "point_of_interest", "establishment"], "vicinity": "Buitrago del Lozoya"}, {"business_status": "OPERATIONAL", "geometry": {"location": {"lat": 40.9964, "lng": -3.6384645}, "viewport": {"northeast": {"lat": 40.9977519302915, "lng": -3.637072469708498}, "southwest": {"lat": 40.9950539697085, "lng": -3.639770430291502}}}, "icon": "https://maps.gstatic.com/mapfiles/place_api/icons/v1/png_71/parking-71.png", "icon_background_color": "#7B9EB0", "icon_mask_base_uri": "https://maps.gstatic.com/mapfiles/place_api/icons/v2/parking_pinlet", "name": "Parking Público Gratuito", "place_id": "ChIJRV9kMwDlQw0RBLSEQZWaP6o", "plus_code": {"compound_code": "X9W6+HJ Buitrago del Lozoya, Spain", "global_code": "8CGRX9W6+HJ"}, "reference": "ChIJRV9kMwDlQw0RBLSEQZWaP6o", "scope": "GOOGLE", "types": ["parking", "point_of_interest", "establishment"], "vicinity": "Calle del Puente Nuevo, 1A, Buitrago del Lozoya"}, {"business_status": "OPERATIONAL", "geometry": {"location": {"lat": 40.9943306, "lng": -3.634525799999999}, "viewport": {"northeast": {"lat": 40.9957337302915, "lng": -3.633288069708498}, "southwest": {"lat": 40.9930357697085, "lng": -3.635986030291503}}}, "icon": "https://maps.gstatic.com/mapfiles/place_api/icons/v1/png_71/parking-71.png", "icon_background_color": "#7B9EB0", "icon_mask_base_uri": "https://maps.gstatic.com/mapfiles/place_api/icons/v2/parking_pinlet", "name": "Parking Plaza del Belen Viviente", "photos": [{"height": 1148, "html_attributions": ["<a href=\"https://maps.google.com/maps/contrib/115525466144398863782\">Jorge Diaz</a>"], "photo_reference": "AWn5SU6NmGvWG9AiYBSqwyvDIfKFWpT1IUz6BDiD37wK_NyKaHAUpftbqWugsAYeOpJzy_ZLrxuGdgPHHoMcp9myVYGS5dcKx_pxGFk874n23lM_XwCix02BjzxPDylOyCK_7M6pJ8pSrdqz0x_Lvl7ZIkz4FPT5AV9CFDqEcMxM1bSgMhY16svQUSoGVKXAC-3b_AUJ-sA4Y7kk_q0tXpnNjfBqWevW3awmuPpEoJPHMtGJW9vI_FWeDRvJsVRoyo6PKsZ2T0KP3SnM5fBfSVN6vqnEpLhZqNVPusRsIavS_DQBsdbf8bDKfGGqx1xls1sihSnwfk999Z8yo9eRBCaaLTCJ4OHGAxjYWlxSq9deswJKIF_3QZo4Qryj-3u0v3N6TSsOGoqEZNqcqyE2MRVz7zDQ_kb9uvksiWmaqmId9m27GQO8xn46-Vn8OW7ZnfSC4M3ZoJM5X2R0xP7ZJnyWxP9crs8Wv_hgsz1DYf716TKEUORPOtTsndPr9zPXnEBzVhJa9Lkj2kYgWv9lVBJ0_FqmjuBjPZynXOvoQQZhWMYIkkxseU_rJ2wwXPewh--3MWaNxw7fyExNVWfgSnnJv-rUFIDA0moL_DtwScmjyD1Jb9RGsShb_EEFmnT9iluwWGnedbIUTLuwo7809uLoKg", "width": 2040}], "place_id": "ChIJOzi_ZADlQw0RWRhIjycQkPc", "plus_code": {"compound_code": "X9V8+P5 Buitrago del Lozoya, Spain", "global_code": "8CGRX9V8+P5"}, "rating": 5, "reference": "ChIJOzi_ZADlQw0RWRhIjycQkPc", "scope": "GOOGLE", "types": ["parking", "point_of_interest", "establishment"], "user_ratings_total": 2, "vicinity": "Plaza del Belén Viviente, 4, Buitrago del Lozoya"}, {"business_status": "OPERATIONAL", "geometry": {"location": {"lat": 40.994305, "lng": -3.634594}, "viewport": {"northeast": {"lat": 40.9957209302915, "lng": -3.633316369708497}, "southwest": {"lat": 40.9930229697085, "lng": -3.636014330291502}}}, "icon": "https://maps.gstatic.com/mapfiles/place_api/icons/v1/png_71/parking-71.png", "icon_background_color": "#7B9EB0", "icon_mask_base_uri": "https://maps.gstatic.com/mapfiles/place_api/icons/v2/parking_pinlet", "name": "Aparcamiento de la Muralla Gratuito", "opening_hours": {"open_now": true}, "place_id": "ChIJIzvJfADlQw0RK0jOnqalvMM", "plus_code": {"compound_code": "X9V8+P5 Buitrago del Lozoya, Spain", "global_code": "8CGRX9V8+P5"}, "rating": 4.5, "reference": "ChIJIzvJfADlQw0RK0jOnqalvMM", "scope": "GOOGLE", "types": ["parking", "point_of_interest", "establishment"], "user_ratings_total": 2, "vicinity": "Plaza del Belén Viviente, 4, Buitrago del Lozoya"}, {"business_status": "OPERATIONAL", "geometry": {"location": {"lat": 40.9931735, "lng": -3.6371073}, "viewport": {"northeast": {"lat": 40.99454373029149, "lng": -3.635792269708498}, "southwest": {"lat": 40.9918457697085, "lng": -3.638490230291503}}}, "icon": "https://maps.gstatic.com/mapfiles/place_api/icons/v1/png_71/parking-71.png", "icon_background_color": "#7B9EB0", "icon_mask_base_uri": "https://maps.gstatic.com/mapfiles/place_api/icons/v2/parking_pinlet", "name": "Parking Buitrago", "opening_hours": {"open_now": false}, "photos": [{"height": 4032, "html_attributions": ["<a href=\"https://maps.google.com/maps/contrib/106385721624443534857\">Mojca Gerželj Štembergar</a>"], "photo_reference": "AWn5SU56WCoCg_0NTKa2ABGlKZAdLlzLnTKp8J82tTORWaj9j48084OvYEJ8FgxN7e9A-CULZRrA2Nt05xnJhUSMLgfjLG2L_9P66VpnWhf569zWpAqYobRBqQEPDGVs8iGCBsZrz4XSYLQrrqI-xtyH2DsDy3qiadxYBoNdH89HkrlQBIo-uwXCTwr6PyFwE4vZIsuzQb1FC31LjBWisCYo_CBSlgfEbfvpH5AY3PneS7YIfat5eiNR-7FOldgLfGRR5tpkfs_Rb6O-vC33VJOvNJBzYFBXnhW8zvxthF4JzKLXVkp4RuqbrnJZcMW7-1ddPGWdaHUZkL0b26VwhOzvc3wdhR2hiHqFDr5lEIl4se4GIdR_pwoLMNK6nJN1f_7CBkablbjM__-p6hO72kiwVujweeue3sfiAfpUku3Q0XBqLbVC09DZE_NKmMRpoqueD1MR-CNhxgtP9rPT9iPvGKx7-psjHM66jze7pKYc6xonovPhj6rP6cc4MzKb1OHZNzlLe2oTGEeROPf0XTWzloTtCpZw780DsczZyzIwPjMv3qtKiJ9WXfBu3VRqpbaIxFCXwO20-iTmz8AxYPVadfFUnkkMXJFE1674SOtPPryZ_hC6RtseNi06w3V_IkvU4Er8O2aiPzhR90-kc7SPmA", "width": 3024}], "place_id": "ChIJ46WYKADlQw0RV-CfBfovIt4", "plus_code": {"compound_code": "X9V7+75 Buitrago del Lozoya, Spain", "global_code": "8CGRX9V7+75"}, "rating": 3.5, "reference": "ChIJ46WYKADlQw0RV-CfBfovIt4", "scope": "GOOGLE", "types": ["parking", "point_of_interest", "establishment"], "user_ratings_total": 2, "vicinity": "Calle Real, 48, Buitrago del Lozoya"}, {"business_status": "OPERATIONAL", "geometry": {"location": {"lat": 41.06594909999999, "lng": -3.5860748}, "viewport": {"northeast": {"lat": 41.0673056802915, "lng": -3.584766369708498}, "southwest": {"lat": 41.0646077197085, "lng": -3.587464330291502}}}, "icon": "https://maps.gstatic.com/mapfiles/place_api/icons/v1/png_71/parking-71.png", "icon_background_color": "#7B9EB0", "icon_mask_base_uri": "https://maps.gstatic.com/mapfiles/place_api/icons/v2/parking_pinlet", "name": "Aparcamiento", "place_id": "ChIJVWvLdwD7Qw0RElEq-khgldI", "plus_code": {"compound_code": "3C87+9H Horcajo de la Sierra, Spain", "global_code": "8CHR3C87+9H"}, "reference": "ChIJVWvLdwD7Qw0RElEq-khgldI", "scope": "GOOGLE", "types": ["parking", "point_of_interest", "establishment"], "vicinity": "Calle Mayor, Horcajo de la Sierra"}, {"business_status": "OPERATIONAL", "geometry": {"location": {"lat": 40.989368, "lng": -3.6368058}, "viewport": {"northeast": {"lat": 40.9907067302915, "lng": -3.635428619708497}, "southwest": {"lat": 40.9880087697085, "lng": -3.638126580291501}}}, "icon": "https://maps.gstatic.com/mapfiles/place_api/icons/v1/png_71/parking-71.png", "icon_background_color": "#7B9EB0", "icon_mask_base_uri": "https://maps.gstatic.com/mapfiles/place_api/icons/v2/parking_pinlet", "name": "Aparcamiento Gratuito Parque Juan Pablo II", "opening_hours": {"open_now": true}, "photos": [{"height": 480, "html_attributions": ["<a href=\"https://maps.google.com/maps/contrib/117624763777496541960\">Harry Turver-Kingston</a>"], "photo_reference": "AWn5SU4EaIwImLpx87fAiT-rO8_OksQhD6hlHWpngw_Ao6AiqcnEDlryn7_-pOEbE51yuG0wPqUrX_3DljfBsSaaSAI22eE4y1tiC0r-UUppXlwYBGfZgLasNIksqpuyG8aSy6r7bqddKhxjXK3RREXpA51J0M2Cv5qLMApjEhkbwSINKnL2RbnY0ZBQNaRjWNfeXPC0SYCPmdD9JEDiQ1lI9bzhdx3n6NPl2-TBmbJ2Qu5Vl6fdWhz6UJc8dEG3OiTge6ihbxifFHUNpk5MiIoSgD8MLafScDhPdAnfzbM-AbE64LheKEVg8rw5I7SkE4iyokns5ggD1k-k3SolraDvs-pdD_e8ag5e5KCRuYx6gRUdt2z0Q6iiDUZIzamQL0xFBBz1pz9RIir6K_QuzFPIOPfsHzdvrOR6qftXo6yp2lbVWHLxP38_4mMbD3sjHAzHWbwD6MyKZ-6NGoBTWy_FB0eLeh_5_jO8hjfQ5JHA-LdrMxTUmoJnI3Frrs4SRB80RtYwxB9Lb6ccUa5iQmAnUoAhl6L2t-DEyBIVrYzIMCFkIZCbiCJABlMcBMy6LkOUfczF-DYqDctUQ1h5NNALw40N_eInBqW3E70X2R2wif6eV1PJ6lPUjwfGD3XOEDxXMUaCHSRQPwmsWbtzSvNvAykA4Zk", "width": 640}], "place_id": "ChIJ26PrdQDlQw0RTC-iNLvCc4E", "plus_code": {"compound_code": "X9Q7+P7 Buitrago del Lozoya, Spain", "global_code": "8CGRX9Q7+P7"}, "rating": 5, "reference": "ChIJ26PrdQDlQw0RTC-iNLvCc4E", "scope": "GOOGLE", "types": ["parking", "point_of_interest", "establishment"], "user_ratings_total": 1, "vicinity": "Paseo del Río Lozoya, 55, Buitrago del Lozoya"}, {"business_status": "OPERATIONAL", "geometry": {"location": {"lat": 41.0885593, "lng": -3.6220665}, "viewport": {"northeast": {"lat": 41.0899108302915, "lng": -3.620720519708498}, "southwest": {"lat": 41.0872128697085, "lng": -3.623418480291502}}}, "icon": "https://maps.gstatic.com/mapfiles/place_api/icons/v1/png_71/parking-71.png", "icon_background_color": "#7B9EB0", "icon_mask_base_uri": "https://maps.gstatic.com/mapfiles/place_api/icons/v2/parking_pinlet", "name": "Parking del Camping La Acebeda", "opening_hours": {"open_now": true}, "photos": [{"height": 1920, "html_attributions": ["<a href=\"https://maps.google.com/maps/contrib/108991065925202119120\">Jesus</a>"], "photo_reference": "AWn5SU5JovWpvrY_GQ5Lo9zpU3VbaaUggoXuSBXSVxPaKWGb7hZzL3z20WspB-Qt24XhLA-WhIWjfuHScoNx604Gkml1XI5JDaVyBoF-FdKdbb5-H-WZG8J8Xlw_ntZMhOldgfWMM_tG5FiIyZtTAHEQPq2Zz8aF_cSPFl4Sk8gG5mKCPyA8tbaM9jhfWTFstLtEPEr0lM38Txuj5Ful6f13pw6BPXk1R41vQxiAPt3mmB7OPnP5B99XdZkoQ6TXQZ569DC56SpyT5yZ4YyN5rAiTooLtMSgS29bjuid8TSML3TWfaH2kXwUqwEhSYJSk_czt0hRWGm3kzVYvA1dG9fUhvGe7of5MeuTk3f8nJQzgTuoTal6nGcvADlgUUWFW9O32RGchM72cWWZWyKedEw_Y9jdW9nSVw93qI3fNWyN_j4WJW_lFL8QbE8rL9sVO4JC-_aalfYnurbzWwYPHtnvh3sgTC0eJg5Wcs3MI7ZjaYcexiiuaF86mi6B1X2IMRIWb_mj9xtcnwALE4k_JQuJ20B7sBcukhAIHu8YokOCEbHNur1zaRjBxXRkLqMQKKtIh5LeobyVX7gG-f_jlNP1NXTLi1raxGh7idmBlckAWA2OaU7jGAi-ZjoYb8WsUEGfjvUl1A", "width": 1080}], "place_id": "ChIJsY6ho2D7Qw0RUZLap0OvPeU", "plus_code": {"compound_code": "39QH+C5 La Acebeda, Spain", "global_code": "8CHR39QH+C5"}, "rating": 4.2, "reference": "ChIJsY6ho2D7Qw0RUZLap0OvPeU", "scope": "GOOGLE", "types": ["parking", "point_of_interest", "establishment"], "user_ratings_total": 5, "vicinity": "La Acebeda"}, {"business_status": "OPERATIONAL", "geometry": {"location": {"lat": 40.9879537, "lng": -3.6395927}, "viewport": {"northeast": {"lat": 40.9893262802915, "lng": -3.638205669708498}, "southwest": {"lat": 40.98662831970851, "lng": -3.640903630291502}}}, "icon": "https://maps.gstatic.com/mapfiles/place_api/icons/v1/png_71/parking-71.png", "icon_background_color": "#7B9EB0", "icon_mask_base_uri": "https://maps.gstatic.com/mapfiles/place_api/icons/v2/parking_pinlet", "name": "Parking Público Gratuito", "photos": [{"height": 1834, "html_attributions": ["<a href=\"https://maps.google.com/maps/contrib/113122228210210331671\">David Dave</a>"], "photo_reference": "AWn5SU7CiMOrCg1zlMuzq5T2yxi1SRT6YgObOhSFMDFXqjxasApHxB9L3iQ1roYCXk6ovHra1ksE9QD8cvDe8MhQ5yyBzWcAt8Ys0xXRoraB17x23a29UqoeCTbxbYMDGSuQryuxif2pAX7huVObILWBpEQ0_0Lct8Dzbd0Dyv5xqAU4tqifTKl0FQjAthB3OAokkOUoWQ82qAmu51DpkklZlU1HnJFlnpxWrgmqr4y2DLdhkh2S_eMxLcxW5CNjnRvetrwtiF1iTGB-SIUbekCHGJJ7odIg70nuZRfC9Vq3GSlfmUAWPYXsfsJLPCbfrFbyuLf1U1qwT6yEuYRXqtHNaSrF0JxjYSNa3K1U4k2dzNHid6xhR47nZH4bbhiK_2rCFZwGgEUm09-eFIMnoDN5uW5XcXk00S4VR1cclvNUiyFlcM5zuJA2W4cIv5dbaYs7v1WtjJ6WayhetnGLhNkQWmAtyOsLtIhWBYW2ctED-mpbVjzgPs-YCtm2idKO0M6vdB0P25tgjDLrxaHnaS9L2YkM_v7nncQ1Bc2DDbHnBtdiV5dFOJ-WFDJxLt2rgsh4dQIs4X6atEuD5InEM3MbOoxFIySYA2kF1nXt2hX5TRpckHdVbp6Z5QmbGJTN1cRf", "width": 4096}], "place_id": "ChIJRYUFWwDlQw0RGs0tc73vakY", "plus_code": {"compound_code": "X9Q6+55 Buitrago del Lozoya, Spain", "global_code": "8CGRX9Q6+55"}, "reference": "ChIJRYUFWwDlQw0RGs0tc73vakY", "scope": "GOOGLE", "types": ["parking", "point_of_interest", "establishment"], "vicinity": "Camino del Cementerio, 8, Buitrago del Lozoya"}, {"business_status": "OPERATIONAL", "geometry": {"location": {"lat": 40.9874655, "lng": -3.634517899999999}, "viewport": {"northeast": {"lat": 40.9888184302915, "lng": -3.633164719708498}, "southwest": {"lat": 40.9861204697085, "lng": -3.635862680291502}}}, "icon": "https://maps.gstatic.com/mapfiles/place_api/icons/v1/png_71/parking-71.png", "icon_background_color": "#7B9EB0", "icon_mask_base_uri": "https://maps.gstatic.com/mapfiles/place_api/icons/v2/parking_pinlet", "name": "APARCAMIENTO", "place_id": "ChIJ7SULZwDlQw0Rd9O1_C5jqxg", "plus_code": {"compound_code": "X9P8+X5 Buitrago del Lozoya, Spain", "global_code": "8CGRX9P8+X5"}, "rating": 3, "reference": "ChIJ7SULZwDlQw0Rd9O1_C5jqxg", "scope": "GOOGLE", "types": ["parking", "point_of_interest", "establishment"], "user_ratings_total": 2, "vicinity": "Calle Somosierra, 8, Buitrago del Lozoya"}]