[{"business_status": "OPERATIONAL", "geometry": {"location": {"lat": 40.11716759999999, "lng": -3.1576253}, "viewport": {"northeast": {"lat": 40.1185353802915, "lng": -3.156163469708498}, "southwest": {"lat": 40.11583741970851, "lng": -3.158861430291502}}}, "icon": "https://maps.gstatic.com/mapfiles/place_api/icons/v1/png_71/park-71.png", "icon_background_color": "#4DB546", "icon_mask_base_uri": "https://maps.gstatic.com/mapfiles/place_api/icons/v2/tree_pinlet", "name": "Descansadero de Las Eras o de los Cerrillos", "place_id": "ChIJKzMXWwBjQg0R9VFGwgiJoT0", "plus_code": {"compound_code": "4R8R+VW Fuentidueña de Tajo, Spain", "global_code": "8CGR4R8R+VW"}, "rating": 5, "reference": "ChIJKzMXWwBjQg0R9VFGwgiJoT0", "scope": "GOOGLE", "types": ["park", "point_of_interest", "establishment"], "user_ratings_total": 2, "vicinity": "Calle Bajada al Río, 18D, Fuentidueña de Tajo"}, {"business_status": "OPERATIONAL", "geometry": {"location": {"lat": 40.1174409, "lng": -3.1573429}, "viewport": {"northeast": {"lat": 40.1187800302915, "lng": -3.156053069708498}, "southwest": {"lat": 40.1160820697085, "lng": -3.158751030291502}}}, "icon": "https://maps.gstatic.com/mapfiles/place_api/icons/v1/png_71/park-71.png", "icon_background_color": "#4DB546", "icon_mask_base_uri": "https://maps.gstatic.com/mapfiles/place_api/icons/v2/tree_pinlet", "name": "Municipal Malala Park", "photos": [{"height": 3072, "html_attributions": ["<a href=\"https://maps.google.com/maps/contrib/115701397367877819929\">Anna Canals</a>"], "photo_reference": "AWn5SU6i__DGprM_WUOP1sZY-nkoO71lrswu8XGF4mkgPT-uIpXMegi5T5rqBkoxL2yTIQZF724UXmUtx5Z1IvxWl653DR-ijM4X0k-id6t5kGhyos5bJnkc7hFEQEeLzJSrtSSR-V9BS1_OD7h7F1aGdKeXD--ECL3EBSsGacOcmXPedulEyWrO6nsOgoMm-GJQ07fnpBfSkiuSUiVQZfGF1b-UYIte3IbB0vsAnD4AQqMRHPI9cr5AEgQz8bfVn1Aw8hTOhmUgN3KUeFBz8WU4XmuDqRPl1uMjBInntpZsjkNwu1dPyve-w0DcQ15Gfd0uHbp5F-E418me3yHOiGxK7oxYJWJX3FIhsd7MN1YI8T94w5QIsBq-_YxaLuNKUPxGRjLSN6TlTwC48jwwya6tUy_UaMAXhnuwLlanqK-PQcUrDTwyyzPptWiIgBLVk_scoNJ8DtCcQtREn0AtvE5_CLRVjzjETacv7K2CrTSiOGxdGvq2PcNu4R1TveFBoeuYXcZT7KV0emZJFF46kl9vAc6n3jyWwkE382Vdxz6OJBAYhtGsyFu390idN2jAueS6JMpBy9gMOuZ3iszjyrMAIijaEoTSGu_FvxIPrVfl4czXY3u3CsOXPDUlNx2Gl9zhKYF0VQ", "width": 4096}], "place_id": "ChIJ8dJBcABjQg0RtAWZIsJldN8", "plus_code": {"compound_code": "4R8V+X3 Fuentidueña de Tajo, Spain", "global_code": "8CGR4R8V+X3"}, "rating": 4.8, "reference": "ChIJ8dJBcABjQg0RtAWZIsJldN8", "scope": "GOOGLE", "types": ["park", "point_of_interest", "establishment"], "user_ratings_total": 4, "vicinity": "Fuentidueña de Tajo"}, {"business_status": "OPERATIONAL", "geometry": {"location": {"lat": 40.11856029999999, "lng": -3.1567907}, "viewport": {"northeast": {"lat": 40.1199221802915, "lng": -3.155483719708498}, "southwest": {"lat": 40.1172242197085, "lng": -3.158181680291502}}}, "icon": "https://maps.gstatic.com/mapfiles/place_api/icons/v1/png_71/park-71.png", "icon_background_color": "#4DB546", "icon_mask_base_uri": "https://maps.gstatic.com/mapfiles/place_api/icons/v2/tree_pinlet", "name": "Natural Trail of the Eastern Soriana Royal Cañada", "place_id": "ChIJe_YMUQBjQg0RG4k_TnGLBrc", "plus_code": {"compound_code": "4R9V+C7 Fuentidueña de Tajo, Spain", "global_code": "8CGR4R9V+C7"}, "rating": 5, "reference": "ChIJe_YMUQBjQg0RG4k_TnGLBrc", "scope": "GOOGLE", "types": ["park", "point_of_interest", "establishment"], "user_ratings_total": 1, "vicinity": "Calle Cañada, 16, Fuentidueña de Tajo"}, {"business_status": "OPERATIONAL", "geometry": {"location": {"lat": 40.12049700000001, "lng": -3.1618453}, "viewport": {"northeast": {"lat": 40.12188473029151, "lng": -3.160521169708499}, "southwest": {"lat": 40.11918676970851, "lng": -3.163219130291502}}}, "icon": "https://maps.gstatic.com/mapfiles/place_api/icons/v1/png_71/park-71.png", "icon_background_color": "#4DB546", "icon_mask_base_uri": "https://maps.gstatic.com/mapfiles/place_api/icons/v2/tree_pinlet", "name": "Fuente de la iglesia", "photos": [{"height": 3200, "html_attributions": ["<a href=\"https://maps.google.com/maps/contrib/106623301670690254267\">Fernando M. A.</a>"], "photo_reference": "AWn5SU7VqTBKk8DUm-_YpUyQdTgho9uJQGTBUtI59XI-G0Az4JWUqKpIsguGUQ1qS_Ta8uRSdMnVQ67p1JyLVuCPtbfK5rGeFbHcV8u70y4yFYo70U_Mu6pAxLzwvcRMZBF3MBcGgX5HoLMGkyHfLkXxM4pHdzQWxQVDNpDTceIjFIMFbWaxeB0OtkIWMsuhDy5G1XnIj4gIHHaQKfkRpF5DoBnwwCJawtYy8fSBiIuYE49XYU7j9Q1iNw20pGbl2_9pCemJpKl0tZOta8YKCWuRDg3X6e9QheKOzzJEFC9I0bh7-nOJIIMvfRoxBMq3Me5tiP8dbpu3d2p36XPvFJsX1PLzNGjuaS9wtVi2RB-kp9UtuS4QB6o-yue_kSAoElgK6yzlbPabxNDoyqoki4SIYfWoOlOQ5ArJLJ2ujldZDzXK0Y5NQa0HF_aCmdpIpn2MiIpSt9Fmjp0SRCqJ3Gu862ke_wJLZ9d-cZD-NFCs6c2mwYvJ7h2_MQgpGTrhY9pXHz24ZR6bwraM2tXeMbQjLlj3Mb3YGSLoNxRXYkjEFtPC7Zc3Ooxkvtp7LfOEQ2123-cy71PGpafab6zE0AexlCHYdPQqkmeXy52L8fEjzm-PI-_rO-LIJ41t1s5uNAFFBSc1dl0B", "width": 1440}], "place_id": "ChIJbVqzQ91jQg0RK0XMOV_JRVY", "plus_code": {"compound_code": "4RCQ+57 Fuentidueña de Tajo, Spain", "global_code": "8CGR4RCQ+57"}, "rating": 2, "reference": "ChIJbVqzQ91jQg0RK0XMOV_JRVY", "scope": "GOOGLE", "types": ["park", "point_of_interest", "establishment"], "user_ratings_total": 1, "vicinity": "Barrio del Castillo, 20, Fuentidueña de Tajo"}, {"business_status": "OPERATIONAL", "geometry": {"location": {"lat": 40.1210154, "lng": -3.1606544}, "viewport": {"northeast": {"lat": 40.12240478029149, "lng": -3.159320169708498}, "southwest": {"lat": 40.11970681970849, "lng": -3.162018130291502}}}, "icon": "https://maps.gstatic.com/mapfiles/place_api/icons/v1/png_71/park-71.png", "icon_background_color": "#4DB546", "icon_mask_base_uri": "https://maps.gstatic.com/mapfiles/place_api/icons/v2/tree_pinlet", "name": "Fuente en cascada", "opening_hours": {"open_now": true}, "place_id": "ChIJ8Re6Q4NjQg0R41TA9ryu6gU", "plus_code": {"compound_code": "4RCQ+CP Fuentidueña de Tajo, Spain", "global_code": "8CGR4RCQ+CP"}, "rating": 3.5, "reference": "ChIJ8Re6Q4NjQg0R41TA9ryu6gU", "scope": "GOOGLE", "types": ["park", "point_of_interest", "establishment"], "user_ratings_total": 2, "vicinity": "Barrio del Castillo, 20, Fuentidueña de Tajo"}, {"business_status": "OPERATIONAL", "geometry": {"location": {"lat": 40.1211233, "lng": -3.160308399999999}, "viewport": {"northeast": {"lat": 40.1224840802915, "lng": -3.158964519708498}, "southwest": {"lat": 40.1197861197085, "lng": -3.161662480291501}}}, "icon": "https://maps.gstatic.com/mapfiles/place_api/icons/v1/png_71/park-71.png", "icon_background_color": "#4DB546", "icon_mask_base_uri": "https://maps.gstatic.com/mapfiles/place_api/icons/v2/tree_pinlet", "name": "Camino Natural de la Cañada Real Soriana Oriental", "opening_hours": {"open_now": true}, "photos": [{"height": 3016, "html_attributions": ["<a href=\"https://maps.google.com/maps/contrib/103359314741437913605\">Ricardo Bedia Crespo</a>"], "photo_reference": "AWn5SU7opwGqoMaPEZZQvhr57W9UF_cad2n1IKGmPguGjqdMJ5zePq1-szPXQf3fWPyVN52oddhy7Xh2Mqi9xTknYLZhZ8dB3gM6lvUM3JOgucLDjS4V5ZN_jq2n_LKU_1zEwTyIxKuIjW1gr0GlKa8cDPXcDi_lj7fiAUOnZGQFXrV9BCj_DOmoh6AVIJqgg2eO-Yg4lK3_pAA_MMMMNvHKhgMI3MDXpKMtnruV1fhiAHM7DjyHPaS_Sj2ZO8gO-sGBIkcHgYkVbMW7G7fC_1YqlTOMppAOuNES1YYT8m2M3KDKRhkNQsiRVHc0f2zajs9PAvoYbskK38ju62AqUK02_gO0yb2kwidFRF_CT57uBixKEDe-cM_nx4uy1Y75C8ncIIvyERtDNhuqmXYzWqDJ7QuTo3QflTGAK6yoUzrSHQ_gkDhgEbO84M1HiWThpBFcfGBVedAUHgnETCbWxOeff57kDMkGOlmYextQzII78l2l3OAlZWo9sNuk8IHGEQYWeIiavPQ9TILQhj0zYO_-asGmovJz6CWX4oyQJ27V9d2QKOtERcTAs-pH0OSfgG4_cPCBaoluJCi-U4_lnnCjtEVUK8fqZlBvcIOJL8y-gdbfCCpF90bTWYDD6YplA-8YSb0RfNFs", "width": 4032}], "place_id": "ChIJCRyy1_N9Qg0RLkG7IOJ_zwM", "plus_code": {"compound_code": "4RCQ+CV Fuentidueña de Tajo, Spain", "global_code": "8CGR4RCQ+CV"}, "rating": 4.7, "reference": "ChIJCRyy1_N9Qg0RLkG7IOJ_zwM", "scope": "GOOGLE", "types": ["park", "point_of_interest", "establishment"], "user_ratings_total": 6, "vicinity": "Fuentidueña de Tajo"}, {"business_status": "OPERATIONAL", "geometry": {"location": {"lat": 40.1183672, "lng": -3.1635556}, "viewport": {"northeast": {"lat": 40.11970728029151, "lng": -3.162194769708499}, "southwest": {"lat": 40.11700931970851, "lng": -3.164892730291502}}}, "icon": "https://maps.gstatic.com/mapfiles/place_api/icons/v1/png_71/park-71.png", "icon_background_color": "#4DB546", "icon_mask_base_uri": "https://maps.gstatic.com/mapfiles/place_api/icons/v2/tree_pinlet", "name": "Igualdad Park", "photos": [{"height": 3000, "html_attributions": ["<a href=\"https://maps.google.com/maps/contrib/108317125951098191590\">Rubi Ruiz M.</a>"], "photo_reference": "AWn5SU5ryOspuOG9LYf3d-K-UvWKtPyzJFtaI-KyWXkRUUcCAeFtRVtDjxLWR3JMQzX40l6QwhItNGkA622jbNi6NWAXqWJD2FhUYJvyS7rY9IUZuPyPJ_5R7wGAZANVY0xaeKKVZPzfmfDENXw4mZjpA31NX4SV-0d1sWVbHcsTzksWzGRFvUnoJ2IVhoAtGx-yOlMeGOcRAnBeBzm3lE0goqnpLLZXf6eD4ixFKS4B3fpm6SF_1T-doQObR3K-9_04pXTHjx3rfdWbcfASzbEjHw9PO-CJcq_7GfQtvKLbIQARPU4oT6EByByKmdb7HvHEUyzMGGawPyqi3sCVE0Pz29_9Rx3I-UmY5Mgb--AmnIPXr3h0zOIxp6e6s2nH3DTA47gITkoflNZbFW1RihD7rhYPwH0RB_gwi_8y-Lc-14KPhp6xTG4P4ft31Q99Chw0DXzcDu3hCZ40m2gaVR-2p6xRYAMivccn2hSHsNMJMVZdcnxuUqaeKC3LM1AuPwWE9M0yZLajWJpBvATPab6ACZex9f0bs74Dwu7XeLBpebpEjgcFyrVMZnH96KSdGOk5ZH6BH5weQz0UpykrWsCahJxNdDGNf88rTBZ-_IZx2uliEjUr1FKhwuYox0BMyC1JbuXjlQ", "width": 4000}], "place_id": "ChIJ7VeSbQBjQg0R4291emzls3A", "plus_code": {"compound_code": "4R9P+8H Fuentidueña de Tajo, Spain", "global_code": "8CGR4R9P+8H"}, "rating": 5, "reference": "ChIJ7VeSbQBjQg0R4291emzls3A", "scope": "GOOGLE", "types": ["park", "point_of_interest", "establishment"], "user_ratings_total": 2, "vicinity": "Calle Sepulcro, 12-8, Fuentidueña de Tajo"}, {"business_status": "OPERATIONAL", "geometry": {"location": {"lat": 40.11585199999999, "lng": -3.1567418}, "viewport": {"northeast": {"lat": 40.11717793029149, "lng": -3.155516769708498}, "southwest": {"lat": 40.11447996970849, "lng": -3.158214730291502}}}, "icon": "https://maps.gstatic.com/mapfiles/place_api/icons/v1/png_71/park-71.png", "icon_background_color": "#4DB546", "icon_mask_base_uri": "https://maps.gstatic.com/mapfiles/place_api/icons/v2/tree_pinlet", "name": "Descansadero Abrevadero de La Chorrera", "place_id": "ChIJ555NLwBjQg0RZEandXyW5xg", "plus_code": {"compound_code": "4R8V+88 Fuentidueña de Tajo, Spain", "global_code": "8CGR4R8V+88"}, "rating": 5, "reference": "ChIJ555NLwBjQg0RZEandXyW5xg", "scope": "GOOGLE", "types": ["park", "point_of_interest", "establishment"], "user_ratings_total": 2, "vicinity": "Fuentidueña de Tajo"}, {"business_status": "OPERATIONAL", "geometry": {"location": {"lat": 40.1206272, "lng": -3.1630493}, "viewport": {"northeast": {"lat": 40.12192883029149, "lng": -3.161666819708498}, "southwest": {"lat": 40.1192308697085, "lng": -3.164364780291502}}}, "icon": "https://maps.gstatic.com/mapfiles/place_api/icons/v1/png_71/park-71.png", "icon_background_color": "#4DB546", "icon_mask_base_uri": "https://maps.gstatic.com/mapfiles/place_api/icons/v2/tree_pinlet", "name": "Fuente Salobre", "opening_hours": {"open_now": true}, "photos": [{"height": 3000, "html_attributions": ["<a href=\"https://maps.google.com/maps/contrib/116098533032577855814\">Doncelador</a>"], "photo_reference": "AWn5SU4czricOT7wjefWXqtofo8NPX385rLtBubM7hg5pWzg9ZJMIFw_W57_a7Xvm0aLTZZ0Qzg7jH74RrI8R1KMFpPlwqa19xme75sbf35hHc99GyHqbbDGaQ5dEVTv1rc_YmN6RlNE6NQWAg-dzTr7lDKsiZjc4FfkTQpLzvAVJChLaFisr2G3nMOUWpnz0D6ZiTg5ocj8MX9xqpAzaIRA2yUKFKHHvWqdg1ikFmEMJHN8osxnogKSPCyPum50d7HbCtMc0GbJSBAlKOLgkJDFuhWgrzfgHOINtDoJ2wIrwX9zFQkVOQvcuJfxOqtPgk1J4-x3_HOvyZv34jsclYgeaYcF6FUpSaf31p8WC5mOrvXt68adQUgnF7Hn7rIor-3rsAIj7t3TvlX2u5Axn7N76G6c6Rnk3hNTs3G88zink8NgyGE6tYy_1hRWmgNn13LCj2xq6sbAGefv1ikB9ooPnN9jVWg88Y0BireI5S4WSLUHd5E2Lo_1HKbs_GYq3DSjBt-SX-2oIGhB-0Kujm5bkyFBJPmh39ydrwPvJxOthwvB5GV3EBwhms0aTsYLYhFG5tjBr4rzRVdI0cOdyfBZV65_I0YyxcGvefHwNcs3SGPFlK3j0sPxYvzrIbOaXR1CQeIqPdD8", "width": 4000}], "place_id": "ChIJjfVUKEJjQg0RgIkcZD-7CDA", "plus_code": {"compound_code": "4RCP+7Q Fuentidueña de Tajo, Spain", "global_code": "8CGR4RCP+7Q"}, "rating": 4.6, "reference": "ChIJjfVUKEJjQg0RgIkcZD-7CDA", "scope": "GOOGLE", "types": ["park", "point_of_interest", "establishment"], "user_ratings_total": 22, "vicinity": "Barrio del Castillo, 2, Fuentidueña de Tajo"}, {"business_status": "OPERATIONAL", "geometry": {"location": {"lat": 40.1129413, "lng": -3.1542876}, "viewport": {"northeast": {"lat": 40.1146953302915, "lng": -3.153282019708498}, "southwest": {"lat": 40.1119973697085, "lng": -3.155979980291502}}}, "icon": "https://maps.gstatic.com/mapfiles/place_api/icons/v1/png_71/park-71.png", "icon_background_color": "#4DB546", "icon_mask_base_uri": "https://maps.gstatic.com/mapfiles/place_api/icons/v2/tree_pinlet", "name": "Rápidos del Tajo", "photos": [{"height": 6610, "html_attributions": ["<a href=\"https://maps.google.com/maps/contrib/114335367376732645356\">Leopoldo Fernández Gómez</a>"], "photo_reference": "AWn5SU6FoiHgYKEExvj6mrVtch3mb7nQHB0kLBkaEIJOcTYTz90aXWWBJyAgO1nPJnNqUxy-uiu9DSHC4Ir_i2GbMkTMgHnh1-L3Ibqci6WyzN2jzg57xE4AYsVE-HqHBACSbcC1qw0vQHqPx0UvEZ3BbASgteXRSC7eVG0TDyFMtyQV9x5oGs96CY2TGMl_GIJ9rZh1g9tkJUm1AAsseIb6nzUC6Os8moQm36fngLZEHavP_fEDu_AmnEQf7N4bEdRKm3WZ44GF2uShwuRoO1yUBAu2EmRk696AXd9krr7ElAEZG9y4RVK_EeLJzSvGc9DHFwpVyype1O9ggtdH9zl6cWfYSJyp0TyCQbpiTyia2tCqL8sfZta2xi7o71IWcpCUxuR6BJMqFOpcMX08D9tVxMdDS4CVt6UTQ9I16Ml8LXow0Qc29Rl7p4dHGeeFSfXX4ksWDEGil0SxZ2z-pZoXfZkY0amZBWmT69vfi8DXSKtqzm6IS69wyhqXdvC5VDnHwB_anAic5fozH_09cUGv7HIDvSIzn2Q_1h4fJ3DVLxVbNy9z1DHHNSV7yBk6LXA1-G4hHy-9hk2E_x6egt8Yh1lX997aWCKjxCXoO3KK-4eWFNMZwGuSc_ojd9z4og0x9dDiXA", "width": 4304}], "place_id": "ChIJO1NOYJpjQg0RjjbykeNq77A", "plus_code": {"compound_code": "4R7W+57 Fuentidueña de Tajo, Spain", "global_code": "8CGR4R7W+57"}, "reference": "ChIJO1NOYJpjQg0RjjbykeNq77A", "scope": "GOOGLE", "types": ["park", "point_of_interest", "establishment"], "vicinity": "Avenida de Elena Soriano, 39, Fuentidueña de Tajo"}, {"business_status": "OPERATIONAL", "geometry": {"location": {"lat": 40.1126066, "lng": -3.1667487}, "viewport": {"northeast": {"lat": 40.1140119802915, "lng": -3.165287219708498}, "southwest": {"lat": 40.1113140197085, "lng": -3.167985180291502}}}, "icon": "https://maps.gstatic.com/mapfiles/place_api/icons/v1/png_71/park-71.png", "icon_background_color": "#4DB546", "icon_mask_base_uri": "https://maps.gstatic.com/mapfiles/place_api/icons/v2/tree_pinlet", "name": "Uno Park", "photos": [{"height": 3000, "html_attributions": ["<a href=\"https://maps.google.com/maps/contrib/108317125951098191590\">Rubi Ruiz M.</a>"], "photo_reference": "AWn5SU6VGl2n1LWcV3nOwDruEEa3HD_uYxxML2D9M55VHrn9NFeqzlypI9DAOg2FL0M6XKcw_bQL-u6HfIcu7kz6pVH2K73u6wmwt6EkQj4IGM8rF2ue3-GIzobP9H-rsmwyS_7mROS5DB6trZ7mr8uhgeMV2OBmE-HkVGzko322mpp2BBbTyQqr2JzV2jB1oZpoMb0BZFcfUuR-6Dcfdh1tGjD4JJwFhi5sweMl-_mcvbCF6quMreFNTC-_fGfHraBqpbY0a_NrUfJoUZjSwI7-8suQq29dqAmc2ohIF1jiFuEp6AMNml5sDMf60LmAWSkLn3UX53RHeXU7XnMwSG0bKUrpyVUikN6isRKpj58Nlq2f8E5v_kUOc1Vw414LBbrW-lBGvcCR3W74cabnGxULDgpgoD89x2o8Yq1SUGY2H_od_8mB9Qhc7y2pHbkNg40KTLeADjEPd2zCdgoHYghVjGIAMbrey5PNRbHV7uqLCa2iaVmCWLDwK3FLlfA-7qduneoFJDBBHV0DvrZDhTev1li1Ncw7-_wpParcvBep5IAgnfKlrUFAgHCEu4_CFDO0a72VBfA-3VySWuf21sl0ZedwW2fL7ikJlGXEdQD6VOTz56oIUxUJeVhcPs243eMA", "width": 4000}], "place_id": "ChIJSyR1SQBjQg0RsPWioN7XzDI", "plus_code": {"compound_code": "4R7M+28 Fuentidueña de Tajo, Spain", "global_code": "8CGR4R7M+28"}, "rating": 4.5, "reference": "ChIJSyR1SQBjQg0RsPWioN7XzDI", "scope": "GOOGLE", "types": ["park", "point_of_interest", "establishment"], "user_ratings_total": 2, "vicinity": "C. Claveles de los, 2, Fuentidueña de Tajo"}, {"business_status": "OPERATIONAL", "geometry": {"location": {"lat": 40.11246999999999, "lng": -3.149991299999999}, "viewport": {"northeast": {"lat": 40.1134654802915, "lng": -3.148936969708498}, "southwest": {"lat": 40.1107675197085, "lng": -3.151634930291502}}}, "icon": "https://maps.gstatic.com/mapfiles/place_api/icons/v1/png_71/park-71.png", "icon_background_color": "#4DB546", "icon_mask_base_uri": "https://maps.gstatic.com/mapfiles/place_api/icons/v2/tree_pinlet", "name": "Descansadero remanso de la tejada", "place_id": "ChIJu2LQSABjQg0R3hxnClTeEu4", "rating": 5, "reference": "ChIJu2LQSABjQg0R3hxnClTeEu4", "scope": "GOOGLE", "types": ["park", "point_of_interest", "establishment"], "user_ratings_total": 2, "vicinity": "4V62+X2, Fuentidueña de Tajo"}, {"business_status": "OPERATIONAL", "geometry": {"location": {"lat": 40.0984643, "lng": -3.1514468}, "viewport": {"northeast": {"lat": 40.0997835302915, "lng": -3.150002969708498}, "southwest": {"lat": 40.0970855697085, "lng": -3.152700930291502}}}, "icon": "https://maps.gstatic.com/mapfiles/place_api/icons/v1/png_71/park-71.png", "icon_background_color": "#4DB546", "icon_mask_base_uri": "https://maps.gstatic.com/mapfiles/place_api/icons/v2/tree_pinlet", "name": "Descansadero del Cerro Morrón", "place_id": "ChIJIbAvEAB9Qg0RlWrVxJbLy8Q", "plus_code": {"compound_code": "3RXX+9C Fuentidueña de Tajo, Spain", "global_code": "8CGR3RXX+9C"}, "rating": 5, "reference": "ChIJIbAvEAB9Qg0RlWrVxJbLy8Q", "scope": "GOOGLE", "types": ["park", "point_of_interest", "establishment"], "user_ratings_total": 1, "vicinity": "Fuentidueña de Tajo"}]