[{"geometry": {"location": {"lat": 40.2567009, "lng": -3.2376227}, "viewport": {"northeast": {"lat": 40.2648896354505, "lng": -3.234662243877871}, "southwest": {"lat": 40.25053894472909, "lng": -3.249281120391945}}}, "icon": "https://maps.gstatic.com/mapfiles/place_api/icons/v1/png_71/geocode-71.png", "icon_background_color": "#7B9EB0", "icon_mask_base_uri": "https://maps.gstatic.com/mapfiles/place_api/icons/v2/generic_pinlet", "name": "Carabaña", "photos": [{"height": 900, "html_attributions": ["<a href=\"https://maps.google.com/maps/contrib/116592005467442757440\">Juan Ignacio Ramos Frias</a>"], "photo_reference": "AWn5SU6ENC3m635tVSPI8Zk_X7y3zCeK-OjUEmfUWZnykAfbVCUaXmrAIjoFaKNfrN6h7ppbREqnfAxFmhm6ypiglT4mAFi7U71OsxFXs3kztcA-ORdbluDETwcMTNEbTbJCLV45aqHfC_8AuDpiPIIqQ23RSazeqy7jQN1fahOsenxGAFWedm6_n-BY54EGma8g3GEsBQByPCN58drgJaPdg_16t1vBYNfENm_2_a7uqYsv-235D7m_q_tj40bVDRYI_wfAl0QBjbFjYPQhRrcs2oAPv8-4PsiOg4u7J63y3a0nGH_Q99CFxDYo4Tu600dXTIueOaL6MjlFoNKV_SHZ3z46VEHo5SoG2g_m8VlgrVZELUC38jTMZzRhNnAmSCM5dnCX-UEDVSh7MSRx6sX-3wuRwzVu3mTMQMbWZM01a0gy18BdX9vypEi6F9fbDYT90gtY1WKoGfl851dCwUKw6USINvWwSwuLHOEt-yBq4nRbIYtziDofxHcGOgWljeN7_8XO9qNTGDDQBPC9SjFqFWYPr4SYe_JyiJwPW94tp2a2AUM-ms0ifAdHiz2Z99Ro5eJlgIvw6XU4uUMqAX88Qyjw0ITuo59rwHIEz9PKZ2HuhmNI5fUHLKoMWqyXBOUgJ3L7jw", "width": 1600}], "place_id": "ChIJA47204xnQg0R7ND7CcDlUnI", "reference": "ChIJA47204xnQg0R7ND7CcDlUnI", "scope": "GOOGLE", "types": ["locality", "political"], "vicinity": "Carabaña"}, {"business_status": "OPERATIONAL", "geometry": {"location": {"lat": 40.2478085, "lng": -3.2347048}, "viewport": {"northeast": {"lat": 40.2491617302915, "lng": -3.233327969708498}, "southwest": {"lat": 40.2464637697085, "lng": -3.236025930291502}}}, "icon": "https://maps.gstatic.com/mapfiles/place_api/icons/v1/png_71/generic_business-71.png", "icon_background_color": "#7B9EB0", "icon_mask_base_uri": "https://maps.gstatic.com/mapfiles/place_api/icons/v2/generic_pinlet", "international_phone_number": "+34 619 96 50 88", "name": "NAYDANUR: Residencia y educación canina en Madrid", "opening_hours": {"open_now": true}, "photos": [{"height": 3120, "html_attributions": ["<a href=\"https://maps.google.com/maps/contrib/109568438371642814736\">NAYDANUR: Residencia y educación canina en Madrid</a>"], "photo_reference": "AWn5SU5TjHJejrYDE-uFueHz_au7jAG59YiByQ8iRFqWyN56dZWKHK0ZH-3sMqE8369br6GlzQfzY7YowWizuGVGQMiUT_Ig5POdpjXf-H-PH291zZpM-MnVcNZeoE0VCAXn_GPycN4_7vWsRVJO606Og9qig41T0nEN9wPYpVKjLRomlHxdn9trWv_ZUz4NevvPpM-8_zAwHF26ReXuOPhJOYCa9XTJj-nW8mA4_5bqroZdqQ4kTKLJGFYgNp-DU_nFusQ67b10ST9QXXu3FzrseezXBAqHNug2LU0zGVSBwVUzkCoBYkPp0COuD9sNw1_VnEFHWQ4_k3k", "width": 4160}], "place_id": "ChIJhyiQ639HQg0RBHCOUOWttyU", "plus_code": {"compound_code": "6QX8+44 Carabaña, Spain", "global_code": "8CGR6QX8+44"}, "rating": 4.5, "reference": "ChIJhyiQ639HQg0RBHCOUOWttyU", "scope": "GOOGLE", "types": ["point_of_interest", "establishment"], "user_ratings_total": 35, "vicinity": "Carabaña"}, {"business_status": "OPERATIONAL", "geometry": {"location": {"lat": 40.2583064, "lng": -3.233676}, "viewport": {"northeast": {"lat": 40.2596065802915, "lng": -3.232243519708498}, "southwest": {"lat": 40.2569086197085, "lng": -3.234941480291502}}}, "icon": "https://maps.gstatic.com/mapfiles/place_api/icons/v1/png_71/generic_business-71.png", "icon_background_color": "#7B9EB0", "icon_mask_base_uri": "https://maps.gstatic.com/mapfiles/place_api/icons/v2/generic_pinlet", "international_phone_number": "+34 630 64 08 49", "name": "MOTOSCLASICASONLINE", "place_id": "ChIJnxahA4xnQg0ROkBbIv1arAE", "plus_code": {"compound_code": "7Q58+8G Carabaña, Spain", "global_code": "8CGR7Q58+8G"}, "rating": 5, "reference": "ChIJnxahA4xnQg0ROkBbIv1arAE", "scope": "GOOGLE", "types": ["car_repair", "point_of_interest", "establishment"], "user_ratings_total": 5, "vicinity": "Camino de los Villares, 3, Carabaña"}, {"business_status": "CLOSED_TEMPORARILY", "geometry": {"location": {"lat": 40.2579135, "lng": -3.231270899999999}, "viewport": {"northeast": {"lat": 40.2594614302915, "lng": -3.230127469708498}, "southwest": {"lat": 40.2567634697085, "lng": -3.232825430291502}}}, "icon": "https://maps.gstatic.com/mapfiles/place_api/icons/v1/png_71/generic_business-71.png", "icon_background_color": "#7B9EB0", "icon_mask_base_uri": "https://maps.gstatic.com/mapfiles/place_api/icons/v2/generic_pinlet", "name": "Piscina Pública Municipal de Carabaña", "permanently_closed": true, "photos": [{"height": 2336, "html_attributions": ["<a href=\"https://maps.google.com/maps/contrib/111022823786487100277\">Isabel Fernandez Rodriguez</a>"], "photo_reference": "AWn5SU56aNKKuBh4bsjLLA1KGiENWCzs_32g1b8MEPDYAjma23CT_6InldAkhN512TjS_Bkxx2tG4BLhXwqoaoDH47OHjtZfQY2NYsms68KGeF8BXoUNMg0iebqunI6drP2f5bwUjYaGaHRXpACzCWBQ4IA1h4rXeY4CK0UEiZFk7g9xbiYDsJnizAZe83ermN4o3tLgnzW5HqJQzKk7oWlgE-Yhs7H1vr9we0wQYkU5-uPbELIPQSuIzuFj6QRp01vHc7rofERXJNna_GgsGdPIKSo4IazD8wDxTal7gmv-xhGW_w_qajsPrhnyDTOQlDCw-r1i2dQ0thVifLRafcHTqBZ3HWjMSpp479xRbrGo3ymT3l-oJquUa45vIrlapouKQ52gWYnN_-306qH7BTSaJelPNNXXK1maaJb3uXcBoSNOdRshhPF7GFHRWBqKEExb00twxHJfAs2vDlYTIPb-za45TCsquof7la9ZLvTR6P2JowkR0bvsUelvAboYge_RBwBo7yhuW6GHtsT4gkbWw9tSvCzxJohdG1nyM_qcKZA9Um5AIwZ5GA5XNn8njgY8v7_6hixAbJWtGANSUQaScP9bfSfSdZQwS45uEjt_ZaLXbi0GmghUDbz2YvvoYEWH", "width": 4160}], "place_id": "ChIJbUeGr45nQg0RTDbq0lZxmso", "plus_code": {"compound_code": "7Q59+5F Carabaña, Spain", "global_code": "8CGR7Q59+5F"}, "rating": 4.4, "reference": "ChIJbUeGr45nQg0RTDbq0lZxmso", "scope": "GOOGLE", "types": ["point_of_interest", "establishment"], "user_ratings_total": 139, "vicinity": "Camino de Orusco, 18, Carabaña"}, {"business_status": "OPERATIONAL", "geometry": {"location": {"lat": 40.2549442, "lng": -3.2364734}, "viewport": {"northeast": {"lat": 40.2562734302915, "lng": -3.235184119708498}, "southwest": {"lat": 40.25357546970851, "lng": -3.237882080291502}}}, "icon": "https://maps.gstatic.com/mapfiles/place_api/icons/v1/png_71/generic_business-71.png", "icon_background_color": "#7B9EB0", "icon_mask_base_uri": "https://maps.gstatic.com/mapfiles/place_api/icons/v2/generic_pinlet", "international_phone_number": "+34 918 72 37 07", "name": "Decoraciones Carabaña SL", "opening_hours": {"open_now": false}, "place_id": "ChIJXQYvE41nQg0RVHCMu3cCj18", "plus_code": {"compound_code": "7Q37+XC Carabaña, Spain", "global_code": "8CGR7Q37+XC"}, "reference": "ChIJXQYvE41nQg0RVHCMu3cCj18", "scope": "GOOGLE", "types": ["painter", "general_contractor", "point_of_interest", "establishment"], "vicinity": "Calle del Real, 43, Carabaña"}, {"business_status": "OPERATIONAL", "geometry": {"location": {"lat": 40.2571677, "lng": -3.2373281}, "viewport": {"northeast": {"lat": 40.2584731802915, "lng": -3.236062569708498}, "southwest": {"lat": 40.2557752197085, "lng": -3.238760530291502}}}, "icon": "https://maps.gstatic.com/mapfiles/place_api/icons/v1/png_71/generic_business-71.png", "icon_background_color": "#7B9EB0", "icon_mask_base_uri": "https://maps.gstatic.com/mapfiles/place_api/icons/v2/generic_pinlet", "international_phone_number": "+34 616 92 06 57", "name": "TOLDOS Y PERGOLAS", "photos": [{"height": 3456, "html_attributions": ["<a href=\"https://maps.google.com/maps/contrib/105227986060372799923\">José Luis Guerrero</a>"], "photo_reference": "AWn5SU7fd9vrFDF0aF8iYSfCRAHBxi_QAFx3PgYigrQFrUUJsnfh8W08WUAiHqVxv_LSSKSCRkwPunRZFYE8NCriOzI6GTLZ9rwOK2Y0c3mIH8M-xdoI5QXG7FSJZuCGTrb8a7edWeqxU4fFxDspT4nX1ki-VTyetNKYe87aSecd6H0Ygs9aZwshAcKASfQZksAMwnqrPd6cfWGaZ7-dCLXUMrOCB3-RL3TcN136u2a6irDdHU_8eo-yuNipFxtfO1WAL_Bfu3FKcXrcgcv_QwPrL060gd98DjLAuDxmqIM68-ah9G8Mgt3oq9pOQ53YeHZ11DkVYJKb39nkf_gXnR9IYHto5_71SjcOo72rH2FFWFDCFIcHUmwVQnleOzE-exY8j4IjF-JEbsdXUleXLYBQdAhI7oa8btl8vh5XaDejNBVXQEeZ7UKQBr4BY1PQAQ0nVwQ65fXs3VnT-7syhPvjqir1KXBTtN4XFHXoEET1sDmIJ3S4RYgmFInvavhLndqHlmaDTfUi4sVRMTS4BehGr5ElxTzJUFvY1AfB_wN-15CcVbakXGUPaVfv6ZkEk2dLYlGCSMSe6QqhvSJvVEGv8kR-eIQUjYGKzideaE9i91n9ZptOymQn6UPQblt-cjgI77PTzg", "width": 5184}], "place_id": "ChIJXxEnx4xnQg0RFjc3fNZsF1k", "plus_code": {"compound_code": "7Q47+V3 Carabaña, Spain", "global_code": "8CGR7Q47+V3"}, "rating": 4, "reference": "ChIJXxEnx4xnQg0RFjc3fNZsF1k", "scope": "GOOGLE", "types": ["point_of_interest", "establishment"], "user_ratings_total": 1, "vicinity": "Rivas-Vaciamadrid, Calle Electrodo 72 Nave 67"}, {"business_status": "OPERATIONAL", "geometry": {"location": {"lat": 40.2562912, "lng": -3.2349384}, "viewport": {"northeast": {"lat": 40.2576379302915, "lng": -3.233582519708499}, "southwest": {"lat": 40.25493996970851, "lng": -3.236280480291502}}}, "icon": "https://maps.gstatic.com/mapfiles/place_api/icons/v1/png_71/shopping-71.png", "icon_background_color": "#4B96F3", "icon_mask_base_uri": "https://maps.gstatic.com/mapfiles/place_api/icons/v2/shoppingcart_pinlet", "international_phone_number": "+34 675 85 53 26", "name": "Coviran", "opening_hours": {"open_now": false}, "place_id": "ChIJj1Lmp45nQg0RDmoPr8w41Ms", "plus_code": {"compound_code": "7Q48+G2 Carabaña, Spain", "global_code": "8CGR7Q48+G2"}, "rating": 4, "reference": "ChIJj1Lmp45nQg0RDmoPr8w41Ms", "scope": "GOOGLE", "types": ["supermarket", "grocery_or_supermarket", "food", "point_of_interest", "store", "establishment"], "user_ratings_total": 137, "vicinity": "Avenida de Tielmes, Carabaña"}, {"business_status": "OPERATIONAL", "geometry": {"location": {"lat": 40.2573375, "lng": -3.2336974}, "viewport": {"northeast": {"lat": 40.2587406802915, "lng": -3.232421619708497}, "southwest": {"lat": 40.2560427197085, "lng": -3.235119580291501}}}, "icon": "https://maps.gstatic.com/mapfiles/place_api/icons/v1/png_71/school-71.png", "icon_background_color": "#7B9EB0", "icon_mask_base_uri": "https://maps.gstatic.com/mapfiles/place_api/icons/v2/school_pinlet", "international_phone_number": "+34 918 72 30 41", "name": "CEIP Santa Lucía", "opening_hours": {"open_now": false}, "photos": [{"height": 768, "html_attributions": ["<a href=\"https://maps.google.com/maps/contrib/110697026422613781214\">Juan Carlos Martínez Martínez</a>"], "photo_reference": "AWn5SU61svy-WgxJS_XaaUhd8ay2A7sQTqzIQ2xNr9zRtuo954MoOHrA_Pvnu-9hVbqRu1Crq1S9r_yfAP0xHbG0QJ1NrDzA7JhXZgbc1zQXpbbMpjwN_JxVCloIoRaakgCZm7iHLF-bt9Yjar96APCVPWS7V6S9Wz0CYzYXOyk8xRkZoTSnn9HgUjrT0fIb1hcj1HLDLDVkMtFA7fyq2KCP4KIXyc9BMMNEnHll4oWy0IURWfCtpSNAbQe0VbLh0CJNISJ1Llm6k11nHqfFAMh9lRiIgjzTfk0zYaDH2Ak45IXOCsiDAY5FNg8omYoz_PVRxMkaHfuTeF2D0WCtvGe3PAbI4rxetmJZFRNnIybm4unLwO3NjPoe4awbgs2MAqObKWgbZCQJnCXh5XLH6gmZ-VrmXfN04cV3Y4-7q-kIUlOd173Sh6JI9sa2pIciXkqhieH9DWy4DZxtsbWfyL4HXsXMMfVfK6ZND9IMDHut3uY91V5P7IFuna-664Uuux2lkWKklhWMHWe93zVm7nKjh1BTESOWCzFZqZW4rnfHvtc51juC_DQ8X5_PBqAGCQWu3NrlEV5yvgMh3WcCBkZq0W0z2eSRkvE1TrMORa2jPfzW_2RvOlE0cqrkahrePYPt-8qokO-X", "width": 1024}], "place_id": "ChIJVxbcHoxnQg0RjJ6jAT8jyUU", "plus_code": {"compound_code": "7Q48+WG Carabaña, Spain", "global_code": "8CGR7Q48+WG"}, "reference": "ChIJVxbcHoxnQg0RjJ6jAT8jyUU", "scope": "GOOGLE", "types": ["point_of_interest", "school", "establishment"], "vicinity": "Avenida de Tielmes, 20, Carabaña"}, {"business_status": "OPERATIONAL", "geometry": {"location": {"lat": 40.25792089999999, "lng": -3.2333801}, "viewport": {"northeast": {"lat": 40.2592549302915, "lng": -3.232009419708498}, "southwest": {"lat": 40.2565569697085, "lng": -3.234707380291502}}}, "icon": "https://maps.gstatic.com/mapfiles/place_api/icons/v1/png_71/school-71.png", "icon_background_color": "#7B9EB0", "icon_mask_base_uri": "https://maps.gstatic.com/mapfiles/place_api/icons/v2/school_pinlet", "international_phone_number": "+34 918 72 33 76", "name": "Escuela de Educación Infantil Casa de Niños Elmer", "place_id": "ChIJAzarHYxnQg0R9OBCF7W47Cs", "plus_code": {"compound_code": "7Q58+5J Carabaña, Spain", "global_code": "8CGR7Q58+5J"}, "reference": "ChIJAzarHYxnQg0R9OBCF7W47Cs", "scope": "GOOGLE", "types": ["point_of_interest", "school", "establishment"], "vicinity": "Avenida de Tielmes, 23, Carabaña"}, {"business_status": "OPERATIONAL", "geometry": {"location": {"lat": 40.25677, "lng": -3.2372338}, "viewport": {"northeast": {"lat": 40.2580576802915, "lng": -3.235875819708498}, "southwest": {"lat": 40.25535971970851, "lng": -3.238573780291502}}}, "icon": "https://maps.gstatic.com/mapfiles/place_api/icons/v1/png_71/worship_general-71.png", "icon_background_color": "#7B9EB0", "icon_mask_base_uri": "https://maps.gstatic.com/mapfiles/place_api/icons/v2/worship_christian_pinlet", "international_phone_number": "+34 918 72 30 17", "name": "Iglesia de la Asunción de Nuestra Señora", "photos": [{"height": 1836, "html_attributions": ["<a href=\"https://maps.google.com/maps/contrib/117735187351956145054\">Sergio “Assur94”</a>"], "photo_reference": "AWn5SU6nV2GEmsVn0ic-PrmO3f1PBrJVIYqdWhxnEpPSCXLbyUa4SSCU8dzsxJzHN1comVEOUE95sK3NK8cG-oZ4c9HEM2jTZCgnVOodqrfal6oAa8PzuHUvMaYHNZ4eqc768SPmxeydQzm-LOv4UNZWiPAzb83vmdUKonvr1yCmcBn_6-E4k-wQozBs0vA3CKmkhFTFhC5tcDOOWb01ANY6zrkEsCOWH0OWgwPCUUt9np85lAGGnmJIJ8GL_kfd4PHf8RBy-hWHE9uziayWy2PtwUkX-H0hPFUbP2CMQjLbP3fvm82ueqhSCZH1AEYoa7FE9P1_Fzy7KoFCS_jMLmq2tnsr-ya_td7FLDbKSv3kXo9WrpoQUK_MdCn0FQkiYtiOceIGIOAUR1DQ26F75husV53zkYcvSMBsyd0ezuEWcT6vUzCu-DMUFr8JtQLkoGog-rggEpwONLoRDAZlasiv8rNFgWXMCILGdKUTmIrLxoiWp-XRK6YzQwa4rQL0JfzkHDutzbdExHVYCIzG_3UvVlbs2csjY4X1A_KLIgD67P3ytVyYTp6QHu4hCcTfrnsj5nh6lz7uL5kLPIn6xwoXaQx1xc3DPqdXP4v4kIO0LtxtsOyzNUjUlm8wLi_5c6a6cagmew", "width": 3264}], "place_id": "ChIJjWPb3IxnQg0RAhAG5rNU4aQ", "plus_code": {"compound_code": "7Q47+P4 Carabaña, Spain", "global_code": "8CGR7Q47+P4"}, "rating": 4.4, "reference": "ChIJjWPb3IxnQg0RAhAG5rNU4aQ", "scope": "GOOGLE", "types": ["church", "place_of_worship", "point_of_interest", "establishment"], "user_ratings_total": 17, "vicinity": "Plaza de Joaquina de Orea, 8, Carabaña"}, {"business_status": "OPERATIONAL", "geometry": {"location": {"lat": 40.2548349, "lng": -3.236698399999999}, "viewport": {"northeast": {"lat": 40.2562041302915, "lng": -3.235288269708498}, "southwest": {"lat": 40.2535061697085, "lng": -3.237986230291502}}}, "icon": "https://maps.gstatic.com/mapfiles/place_api/icons/v1/png_71/civic_building-71.png", "icon_background_color": "#7B9EB0", "icon_mask_base_uri": "https://maps.gstatic.com/mapfiles/place_api/icons/v2/civic-bldg_pinlet", "international_phone_number": "+34 918 72 30 07", "name": "Guardia Civil de Carabaña", "opening_hours": {"open_now": false}, "place_id": "ChIJQXEaPY1nQg0RumgU4IOjB7c", "plus_code": {"compound_code": "7Q37+W8 Carabaña, Spain", "global_code": "8CGR7Q37+W8"}, "rating": 5, "reference": "ChIJQXEaPY1nQg0RumgU4IOjB7c", "scope": "GOOGLE", "types": ["police", "point_of_interest", "establishment"], "user_ratings_total": 2, "vicinity": "Calle del Real, 94, Carabaña"}, {"business_status": "OPERATIONAL", "geometry": {"location": {"lat": 40.257378, "lng": -3.2381941}, "viewport": {"northeast": {"lat": 40.25870563029149, "lng": -3.236824569708498}, "southwest": {"lat": 40.2560076697085, "lng": -3.239522530291502}}}, "icon": "https://maps.gstatic.com/mapfiles/place_api/icons/v1/png_71/restaurant-71.png", "icon_background_color": "#FF9E67", "icon_mask_base_uri": "https://maps.gstatic.com/mapfiles/place_api/icons/v2/restaurant_pinlet", "international_phone_number": "+34 654 46 72 35", "name": "Asador de los Gallos", "opening_hours": {"open_now": false}, "photos": [{"height": 534, "html_attributions": ["<a href=\"https://maps.google.com/maps/contrib/117912204975129387883\">Manolo Villagordo Cabañez</a>"], "photo_reference": "AWn5SU4-C3_0uyqJHyF9q2QZ5NArtGi9rg5ZwkeSfV9mVKFMDOCAHX036n1b5Vw3YOw1rH5fQan7Wf583BAGfFOD0eI3lGID4sHol8AD7zJH5wv2qOF4TyYr-CQI8EzpsVjZs4-Ag1xwECb-j0cRU1RiF9-62fjpWhvob8tYYq2cZKt7Lr2jF4GiZQYvj_dfD0r_9mUvbceB3W5IcgFrl91hYkIHeKGwDx-ENtFRCmsSgpFJo_XywWLIWEc63Xr9KCVB5v4o4Sc-a1nl8HZFSFWbCW_vWAJyohVY10Jz5P4DCp9JLktR4And_B8WwCnBJIgstZIcrFxoKaP1aL-wSlthavfkWiVQjLxb7C-KuqTS1Li-vTJp6hb5VVzlcJLpa1Jnyjr5D7Jpfg3-tQnofJN09b2zFc4tXWsfSZMywSFD1NrHVqCOb6nGRRrOunytmRhvDAVFuHDg4FIECdh9Aw9Y5PHHnNBJ4C7O32eSoOjLGSlW_x_SmPvCovylVpjn8_nDkWZUlTX9PBDQ7MfkBEn1tzCNNgXnTnk98wkH-ZRmLu9ZwlDBYZ9zmy667U0vwybnQXiPX4ZzgfT1pcj2dQKvbFfQgRqELjzNFt4Je1BpumiaJ2eriAoaScnuXdNRt6dUN2TRrTx0KLz5ChUd6BWRBQ", "width": 800}], "place_id": "ChIJMQ1EtYxnQg0RLS_QdO_5u8Q", "plus_code": {"compound_code": "7Q46+XP Carabaña, Spain", "global_code": "8CGR7Q46+XP"}, "price_level": 2, "rating": 4.6, "reference": "ChIJMQ1EtYxnQg0RLS_QdO_5u8Q", "scope": "GOOGLE", "types": ["restaurant", "food", "point_of_interest", "establishment"], "user_ratings_total": 1528, "vicinity": "Plaza de España, 23, Carabaña"}, {"business_status": "OPERATIONAL", "geometry": {"location": {"lat": 40.26121670000001, "lng": -3.235129}, "viewport": {"northeast": {"lat": 40.2625976302915, "lng": -3.233891119708499}, "southwest": {"lat": 40.25989966970851, "lng": -3.236589080291502}}}, "icon": "https://maps.gstatic.com/mapfiles/place_api/icons/v1/png_71/generic_business-71.png", "icon_background_color": "#13B5C7", "icon_mask_base_uri": "https://maps.gstatic.com/mapfiles/place_api/icons/v2/generic_pinlet", "international_phone_number": "+34 699 40 54 52", "name": "Villarclarinet", "opening_hours": {"open_now": false}, "photos": [{"height": 846, "html_attributions": ["<a href=\"https://maps.google.com/maps/contrib/116056837256762791705\">Villarclarinet</a>"], "photo_reference": "AWn5SU4kQ1ZSXIBOEYiJQMzm0yG-NlkJaNkDoDCsUF8j9oHw-GMLfLvxVv_od8SpUHc7_BbA7lcaLvoQC_9MEyty2FQ4EIcXVCZYs8f4HR2adta973906ykRlQ_yM9etrQcv0fMgcPrTtjaXOwR8zpjxbo6TSBZAechbNYfiVIzU-vozUKRK6d8bfs5PkG4Ft7tprKHPpDpwUXY0OepctcBrsoewj-wbtTElrLqgxlq995Bxz1ieHuZrKmVaJc6csIiH-np9RTCWTtGclevGhobZUvfpNkjRyPUcoQ75YCRP5Rgv27kf1BTEkgoDhC05le1tpbg_pqrAvNA", "width": 1520}], "place_id": "ChIJZUQzAFhdQg0RzHBoOYR6Y8Q", "plus_code": {"compound_code": "7Q67+FW Carabaña, Spain", "global_code": "8CGR7Q67+FW"}, "rating": 5, "reference": "ChIJZUQzAFhdQg0RzHBoOYR6Y8Q", "scope": "GOOGLE", "types": ["point_of_interest", "establishment"], "user_ratings_total": 2, "vicinity": "Camino de los Pinos, 20, Carabaña"}, {"business_status": "OPERATIONAL", "geometry": {"location": {"lat": 40.2540185, "lng": -3.2400454}, "viewport": {"northeast": {"lat": 40.2553838302915, "lng": -3.238778319708498}, "southwest": {"lat": 40.2526858697085, "lng": -3.241476280291502}}}, "icon": "https://maps.gstatic.com/mapfiles/place_api/icons/v1/png_71/generic_business-71.png", "icon_background_color": "#7B9EB0", "icon_mask_base_uri": "https://maps.gstatic.com/mapfiles/place_api/icons/v2/generic_pinlet", "international_phone_number": "+34 607 64 52 27", "name": "Lincoln Consulting, S.L.", "place_id": "ChIJc0qjmvJnQg0R-eTwr2w_VTk", "plus_code": {"compound_code": "7Q35+JX Carabaña, Spain", "global_code": "8CGR7Q35+JX"}, "reference": "ChIJc0qjmvJnQg0R-eTwr2w_VTk", "scope": "GOOGLE", "types": ["point_of_interest", "establishment"], "vicinity": "Calle Nuevo Trazado, 19, Carabaña"}, {"business_status": "OPERATIONAL", "geometry": {"location": {"lat": 40.2540185, "lng": -3.2400454}, "viewport": {"northeast": {"lat": 40.2553838302915, "lng": -3.238778319708498}, "southwest": {"lat": 40.2526858697085, "lng": -3.241476280291502}}}, "icon": "https://maps.gstatic.com/mapfiles/place_api/icons/v1/png_71/generic_business-71.png", "icon_background_color": "#7B9EB0", "icon_mask_base_uri": "https://maps.gstatic.com/mapfiles/place_api/icons/v2/generic_pinlet", "name": "PSICOLOGÍA PEGGY", "opening_hours": {"open_now": false}, "photos": [{"height": 3949, "html_attributions": ["<a href=\"https://maps.google.com/maps/contrib/107127820087839764324\">PSICOLOGÍA PEGGY</a>"], "photo_reference": "AWn5SU7M3K7ro5ZtKTkq8Wzw-FvSxKjjNLJuxCxmqL2wjLoFaujdLPFG5F_wZ6dJp86qBmWo2nIy-QVM0vwnqO8rnq1dyYJ1Ou-E3vLyStJQzeosYWZnawx8kL63iDpW7QuCvESZ2ypHr0RvHpHA02x6w-AszxjP8iuv0kzxLOSBBDDD5sTHX0EBNFNGvRLnGVQoSlgrClFRoL72N-Byap-Lq0qtDnc4aEVxEdPAC-craBsb73VWZWHZFzlmQY5jZ0o8pNN7RwUzDpvkE15bt2QEbB8Z-w57io1vqFhz-zgG1JJHwnuWA7gzVh8qHLNq4T5hIRBIRHT6p7U", "width": 3735}], "place_id": "ChIJ0Re1mvJnQg0RqljVpX1AZLw", "plus_code": {"compound_code": "7Q35+JX Carabaña, Spain", "global_code": "8CGR7Q35+JX"}, "reference": "ChIJ0Re1mvJnQg0RqljVpX1AZLw", "scope": "GOOGLE", "types": ["point_of_interest", "health", "establishment"], "vicinity": "Calle Nuevo Trazado, 19, Carabaña"}, {"business_status": "OPERATIONAL", "geometry": {"location": {"lat": 40.2548472, "lng": -3.2412421}, "viewport": {"northeast": {"lat": 40.2561721802915, "lng": -3.239940069708498}, "southwest": {"lat": 40.2534742197085, "lng": -3.242638030291502}}}, "icon": "https://maps.gstatic.com/mapfiles/place_api/icons/v1/png_71/generic_business-71.png", "icon_background_color": "#7B9EB0", "icon_mask_base_uri": "https://maps.gstatic.com/mapfiles/place_api/icons/v2/generic_pinlet", "international_phone_number": "+34 616 77 23 66", "name": "Antenas GP", "opening_hours": {"open_now": false}, "photos": [{"height": 960, "html_attributions": ["<a href=\"https://maps.google.com/maps/contrib/106123109357786494427\">Antenas GP</a>"], "photo_reference": "AWn5SU4p98uKusm_ObOs0iSuh8dYtxSX6yljumMDl4iTpE8gr6_cLPxQ9rLZaLdamIuTHfuovdJJgTl-Qrk0w6J5t6wJH14f2KmIiMp84KPGREhS-5H7xtEkZKIfwMzWKCZkmqEXp3LxPIc562Un0qeTxf-x6etlecPq3-BTUQof7C6RdX1f75txZinDqGMg5eYQfsKsSCCimmqGkZLZnH7QV1xre4jOK3wVZLVb1LJV550_93TiXiVKNeIzJCrmBjKnbruQwzTIK8EyD3CEstLlAseaDG9QgtI7l-fNhqYUox2sCoT4hGfdZ8cmG2PVsSoZiGtgYUMk-VQ", "width": 720}], "place_id": "ChIJ9c7mXPJnQg0RmYpznc6lns8", "plus_code": {"compound_code": "7Q35+WG Carabaña, Spain", "global_code": "8CGR7Q35+WG"}, "rating": 4.9, "reference": "ChIJ9c7mXPJnQg0RmYpznc6lns8", "scope": "GOOGLE", "types": ["point_of_interest", "establishment"], "user_ratings_total": 9, "vicinity": "Calle de los Cotos, 3, Carabaña"}, {"business_status": "OPERATIONAL", "geometry": {"location": {"lat": 40.2512692, "lng": -3.2347806}, "viewport": {"northeast": {"lat": 40.2526181802915, "lng": -3.233738869708498}, "southwest": {"lat": 40.2499202197085, "lng": -3.236436830291502}}}, "icon": "https://maps.gstatic.com/mapfiles/place_api/icons/v1/png_71/generic_business-71.png", "icon_background_color": "#13B5C7", "icon_mask_base_uri": "https://maps.gstatic.com/mapfiles/place_api/icons/v2/generic_pinlet", "international_phone_number": "+34 680 11 67 01", "name": "A.M.A.E.M. Marías Guerreras (Asociación de Mujeres de las Artes Escénicas en Madrid)", "photos": [{"height": 601, "html_attributions": ["<a href=\"https://maps.google.com/maps/contrib/105127897523187653244\">A.M.A.E.M. Marías Guerreras (Asociación de Mujeres de las Artes Escénicas en Madrid)</a>"], "photo_reference": "AWn5SU5xJgiDwijwhSIjj6YsqGT9FhCzRDsd83xZiv3g-tWIivZCTDWNCC1P5xEX3WKrSHJB3IwNnqIWmWVYBHgjHrP9_I90MLIbNwWuyCXCDSduIwD8k05uAdJPFRXMsjums4U_A_U0tzWV_gyVebV2IKJS9s1E4rmDBlc4ufdkNK7xTUz8FROWnFLGsJf47xH6D2Cx4HqYvY-7ElgLvZN6T9t55B5qVdq0Z35SDL64gpqwlXo3SLCsTT_Npzs4KYpIEs29qWWYH00Zaeh2Ocy-7khbO2zVHGWIu2317fHoyFiFWORVOEEwlM190XGjLr9L6b9ObyInbeo", "width": 1129}], "place_id": "ChIJk9tKv21xQQ0R5KaTzTbqKE0", "plus_code": {"compound_code": "7Q28+G3 Carabaña, Spain", "global_code": "8CGR7Q28+G3"}, "rating": 4.5, "reference": "ChIJk9tKv21xQQ0R5KaTzTbqKE0", "scope": "GOOGLE", "types": ["point_of_interest", "establishment"], "user_ratings_total": 2, "vicinity": "Camino de Orusco, 6, Carabaña"}, {"business_status": "OPERATIONAL", "geometry": {"location": {"lat": 40.2604623, "lng": -3.2289362}, "viewport": {"northeast": {"lat": 40.26185238029149, "lng": -3.227924969708498}, "southwest": {"lat": 40.2591544197085, "lng": -3.230622930291502}}}, "icon": "https://maps.gstatic.com/mapfiles/place_api/icons/v1/png_71/generic_business-71.png", "icon_background_color": "#7B9EB0", "icon_mask_base_uri": "https://maps.gstatic.com/mapfiles/place_api/icons/v2/generic_pinlet", "international_phone_number": "+34 620 20 79 87", "name": "Cerrajería y estufas Asenjo", "opening_hours": {"open_now": false}, "photos": [{"height": 600, "html_attributions": ["<a href=\"https://maps.google.com/maps/contrib/109527616449419805972\">Cerrajería y estufas Asenjo</a>"], "photo_reference": "AWn5SU6r5_3Q69Dryp6RzwH1kgPZdw_XdevmOOux0cfnCzhc9IGAlo5G_vaZ8hpg0vHAv8groXgh02DsOH4lCK4uwZYSvvnCfKTtIuX1juwx4WaOJHCqGTVKKCzw4gieTp6OiyWcRV1w_zC-HMBsdLpzSvarNPdElhR63OpATNZMV_kyWKL4PWqO-dLMydgYVGjhp5OPEb6-cFw0BDvr4bNSCLBPUiYzGBHkPLykST8uU3ou2pVt8wBkfOqo87ZBDVXCdUN8dH-lr2-v-2yoovZWgwLFwm6EiNTqon2O6wfFzP3af4eCBlt89Zuc8CAWYgCbDLKEZsVrY6o", "width": 800}], "place_id": "ChIJa3P76ohnQg0Rb1WLNaO0ADA", "plus_code": {"compound_code": "7Q6C+5C Carabaña, Spain", "global_code": "8CGR7Q6C+5C"}, "rating": 4.1, "reference": "ChIJa3P76ohnQg0Rb1WLNaO0ADA", "scope": "GOOGLE", "types": ["locksmith", "point_of_interest", "establishment"], "user_ratings_total": 43, "vicinity": "Avenida de Tielmes, 34, Carabaña"}, {"business_status": "OPERATIONAL", "geometry": {"location": {"lat": 40.2607269, "lng": -3.2289967}, "viewport": {"northeast": {"lat": 40.26222293029151, "lng": -3.227676169708499}, "southwest": {"lat": 40.25952496970851, "lng": -3.230374130291502}}}, "icon": "https://maps.gstatic.com/mapfiles/place_api/icons/v1/png_71/generic_business-71.png", "icon_background_color": "#7B9EB0", "icon_mask_base_uri": "https://maps.gstatic.com/mapfiles/place_api/icons/v2/generic_pinlet", "international_phone_number": "+34 918 80 10 60", "name": "Recoupage", "opening_hours": {"open_now": false}, "photos": [{"height": 2268, "html_attributions": ["<a href=\"https://maps.google.com/maps/contrib/113892026040017723565\">Pedro Valero Cambronero</a>"], "photo_reference": "AWn5SU4mnfGhZxb4USWye5samjJsFpNSFUK3ggAwSMvjEHXZYqN8isUtR2AL3vW-D0o8W9OrGiOl-U6QoTSASxXGo6rvzhjd37c73T3l8qBkQZbR1eUdA14XqaDb-thdiEtaOZeIj1KuOV2cCwZHaTrHSMxJJG3HDO3PeOG6xzYB_WIjeW1FMeaag1jr9CYU84walmLDYTRa-ScnmG08ymv4U1AWWch9EYKMn5X0urlna0zsLcJS4kiXT6dJv68-US-XToHrwHydUrQ1MKqf_18vey1fpIQZZqXzKcFlIed7M6dmX2sm_mVKWmMhc308kzns_QPi8P7Yqjpo09oqmF6NDQUCReQwctHHPfs29pFHrleqetwvBtJtQOLipj7sOHvDjsu_tQ7m_od2SA3rFElkqR8NYNaASVep-o1n9yPniIOnmS0BgFAL3zep3CS4H_yST-5DvwhR3QtKDIChxOF7U_gyR9j-3_19QUnJ8FX-u0ys4B_nZjB9WfU0C13KuI12OcJdpEn3q93C5a_G8Y-9dGo2lOrDKoWAWnOaZ4oMvbsksUMQD86XDAmXa8IEEE4TSrNylvBTETGuxBUKgOMK8KeuoUeiSZjoEeAs2cZGF5ejQIOEgPkZ3kI5aE_GekXJ-q7qVA", "width": 4032}], "place_id": "ChIJ-fXMI4lnQg0RQ4YtIrVljkg", "plus_code": {"compound_code": "7Q6C+7C Carabaña, Spain", "global_code": "8CGR7Q6C+7C"}, "rating": 3.7, "reference": "ChIJ-fXMI4lnQg0RQ4YtIrVljkg", "scope": "GOOGLE", "types": ["storage", "point_of_interest", "establishment"], "user_ratings_total": 41, "vicinity": "Camino de Valhondo, 38, Carabaña"}, {"geometry": {"location": {"lat": 40.25012340000001, "lng": -3.2367729}, "viewport": {"northeast": {"lat": 40.2586389886962, "lng": -3.220765476228582}, "southwest": {"lat": 40.24160673972953, "lng": -3.252780323771418}}}, "icon": "https://maps.gstatic.com/mapfiles/place_api/icons/v1/png_71/geocode-71.png", "icon_background_color": "#7B9EB0", "icon_mask_base_uri": "https://maps.gstatic.com/mapfiles/place_api/icons/v2/generic_pinlet", "name": "Urbanización Santa Lucía", "place_id": "ChIJZd7rFpNnQg0RgY_yLud2JYA", "reference": "ChIJZd7rFpNnQg0RgY_yLud2JYA", "scope": "GOOGLE", "types": ["neighborhood", "political"], "vicinity": "Carabaña"}]