[{"business_status": "OPERATIONAL", "geometry": {"location": {"lat": 40.7855452, "lng": -3.701137}, "viewport": {"northeast": {"lat": 40.7869262802915, "lng": -3.699729719708497}, "southwest": {"lat": 40.7842283197085, "lng": -3.702427680291501}}}, "icon": "https://maps.gstatic.com/mapfiles/place_api/icons/v1/png_71/school-71.png", "icon_background_color": "#7B9EB0", "icon_mask_base_uri": "https://maps.gstatic.com/mapfiles/place_api/icons/v2/school_pinlet", "international_phone_number": "+34 646 84 52 32", "name": "ESCUELA INFANTIL TRASGOS", "opening_hours": {"open_now": false}, "photos": [{"height": 970, "html_attributions": ["<a href=\"https://maps.google.com/maps/contrib/109633860901677894087\">ESCUELA INFANTIL TRASGOS</a>"], "photo_reference": "AWn5SU63sF8jP8lMbUvF6oPMmQ9L5m2xmjDW7Q7mWTee7QEaFUUusJLlQh30ju0aSCHmKnR1XVGo8DRMl05nJwkla5R5MEi1BcHLoU_BroRcbXwdeYhc7v-j-6GS_UyZRhu6A1w6CI4iCvyIybMtamXHaNV8uh6kWt8UnaNPKsWwwvyr1S-p0YHF3GE8ep30nFQZn8TkFKwGg5rORejKFh1yUPPOFCG5GpmzHwf97_6xS_hVWRhSQePTSqrAnS0dFRfp_T96gmgeK84C6Z5nk_GxJqI53M9J0sEmBYmsZ0qfn-DPPYzppw0oUMb-RHLc6QU_dg2LnsYBoX0", "width": 1600}], "place_id": "ChIJq6hrUgLZQw0RRHq32DdKl9Q", "plus_code": {"compound_code": "Q7PX+6G Guadalix de la Sierra, Spain", "global_code": "8CGRQ7PX+6G"}, "rating": 5, "reference": "ChIJq6hrUgLZQw0RRHq32DdKl9Q", "scope": "GOOGLE", "types": ["school", "point_of_interest", "establishment"], "user_ratings_total": 29, "vicinity": "Calle Eras de Arriba, 11, Guadalix de la Sierra"}, {"business_status": "OPERATIONAL", "geometry": {"location": {"lat": 40.7844429, "lng": -3.6962864}, "viewport": {"northeast": {"lat": 40.78579158029149, "lng": -3.694942169708498}, "southwest": {"lat": 40.7830936197085, "lng": -3.697640130291502}}}, "icon": "https://maps.gstatic.com/mapfiles/place_api/icons/v1/png_71/school-71.png", "icon_background_color": "#7B9EB0", "icon_mask_base_uri": "https://maps.gstatic.com/mapfiles/place_api/icons/v2/school_pinlet", "international_phone_number": "+34 918 47 14 57", "name": "Escuela de Educación Infantil Guadalix de la Sierra", "place_id": "ChIJxTeYPgTZQw0RKU7ciqtBhzY", "plus_code": {"compound_code": "Q8M3+QF Guadalix de la Sierra, Spain", "global_code": "8CGRQ8M3+QF"}, "reference": "ChIJxTeYPgTZQw0RKU7ciqtBhzY", "scope": "GOOGLE", "types": ["school", "point_of_interest", "establishment"], "vicinity": "Calle Eras de Abajo, 1, Guadalix de la Sierra"}, {"business_status": "OPERATIONAL", "geometry": {"location": {"lat": 40.82027370000001, "lng": -3.6785858}, "viewport": {"northeast": {"lat": 40.8217654802915, "lng": -3.677090969708498}, "southwest": {"lat": 40.8190675197085, "lng": -3.679788930291502}}}, "icon": "https://maps.gstatic.com/mapfiles/place_api/icons/v1/png_71/school-71.png", "icon_background_color": "#7B9EB0", "icon_mask_base_uri": "https://maps.gstatic.com/mapfiles/place_api/icons/v2/school_pinlet", "international_phone_number": "+34 918 43 26 27", "name": "Colegio Público Navalafuente", "opening_hours": {"open_now": false}, "place_id": "ChIJpQOD97TeQw0Relelak7CjnY", "plus_code": {"compound_code": "R8CC+4H Navalafuente, Spain", "global_code": "8CGRR8CC+4H"}, "reference": "ChIJpQOD97TeQw0Relelak7CjnY", "scope": "GOOGLE", "types": ["primary_school", "school", "point_of_interest", "establishment"], "vicinity": "Calle Eras de Arriba, 56, Navalafuente"}, {"business_status": "OPERATIONAL", "geometry": {"location": {"lat": 40.8114395, "lng": -3.758974299999999}, "viewport": {"northeast": {"lat": 40.8128295302915, "lng": -3.757681069708498}, "southwest": {"lat": 40.8101315697085, "lng": -3.760379030291502}}}, "icon": "https://maps.gstatic.com/mapfiles/place_api/icons/v1/png_71/school-71.png", "icon_background_color": "#7B9EB0", "icon_mask_base_uri": "https://maps.gstatic.com/mapfiles/place_api/icons/v2/school_pinlet", "international_phone_number": "+34 918 44 38 73", "name": "Public School Vicente Aleixandre", "place_id": "ChIJT46aYBliQQ0R-g6-crIFBfw", "plus_code": {"compound_code": "R66R+HC Miraflores de la Sierra, Spain", "global_code": "8CGRR66R+HC"}, "reference": "ChIJT46aYBliQQ0R-g6-crIFBfw", "scope": "GOOGLE", "types": ["school", "point_of_interest", "establishment"], "vicinity": "Avenida de la Constitución, 29, Miraflores de la Sierra"}, {"business_status": "OPERATIONAL", "geometry": {"location": {"lat": 40.8105197, "lng": -3.7587236}, "viewport": {"northeast": {"lat": 40.81181178029149, "lng": -3.757451019708498}, "southwest": {"lat": 40.8091138197085, "lng": -3.760148980291502}}}, "icon": "https://maps.gstatic.com/mapfiles/place_api/icons/v1/png_71/school-71.png", "icon_background_color": "#7B9EB0", "icon_mask_base_uri": "https://maps.gstatic.com/mapfiles/place_api/icons/v2/school_pinlet", "name": "Centro de Educación Secundaria Vicente Aleixandre", "place_id": "ChIJtcMN4BtiQQ0RAwk_nQGB_88", "plus_code": {"compound_code": "R66R+6G Miraflores de la Sierra, Spain", "global_code": "8CGRR66R+6G"}, "reference": "ChIJtcMN4BtiQQ0RAwk_nQGB_88", "scope": "GOOGLE", "types": ["school", "point_of_interest", "establishment"], "vicinity": "de la, Avenida de la Constitución, 5, Miraflores de la Sierra"}, {"business_status": "OPERATIONAL", "geometry": {"location": {"lat": 40.8124495, "lng": -3.762024999999999}, "viewport": {"northeast": {"lat": 40.8137514302915, "lng": -3.760684369708497}, "southwest": {"lat": 40.8110534697085, "lng": -3.763382330291501}}}, "icon": "https://maps.gstatic.com/mapfiles/place_api/icons/v1/png_71/school-71.png", "icon_background_color": "#7B9EB0", "icon_mask_base_uri": "https://maps.gstatic.com/mapfiles/place_api/icons/v2/school_pinlet", "international_phone_number": "+34 918 44 37 95", "name": "Escuela de Educación Infantil Miraflores de la Sierra", "place_id": "ChIJp5bbax9iQQ0Rm28hhHwWbT0", "plus_code": {"compound_code": "R66Q+X5 Miraflores de la Sierra, Spain", "global_code": "8CGRR66Q+X5"}, "reference": "ChIJp5bbax9iQQ0Rm28hhHwWbT0", "scope": "GOOGLE", "types": ["school", "point_of_interest", "establishment"], "vicinity": "Avenida de la Constitución, 1, Miraflores de la Sierra"}, {"business_status": "OPERATIONAL", "geometry": {"location": {"lat": 40.81670769999999, "lng": -3.760849}, "viewport": {"northeast": {"lat": 40.81809218029149, "lng": -3.759450669708497}, "southwest": {"lat": 40.81539421970849, "lng": -3.762148630291502}}}, "icon": "https://maps.gstatic.com/mapfiles/place_api/icons/v1/png_71/school-71.png", "icon_background_color": "#7B9EB0", "icon_mask_base_uri": "https://maps.gstatic.com/mapfiles/place_api/icons/v2/school_pinlet", "international_phone_number": "+34 918 44 35 79", "name": "Saint Paul School", "opening_hours": {"open_now": false}, "place_id": "ChIJ1U8iofVhQQ0Rrx5_V5xhfmM", "plus_code": {"compound_code": "R68Q+MM Miraflores de la Sierra, Spain", "global_code": "8CGRR68Q+MM"}, "reference": "ChIJ1U8iofVhQQ0Rrx5_V5xhfmM", "scope": "GOOGLE", "types": ["school", "point_of_interest", "establishment"], "vicinity": "Calle San Pablo, 24, Miraflores de la Sierra"}, {"business_status": "OPERATIONAL", "geometry": {"location": {"lat": 40.78322169999999, "lng": -3.699045799999999}, "viewport": {"northeast": {"lat": 40.7845666302915, "lng": -3.697703619708498}, "southwest": {"lat": 40.7818686697085, "lng": -3.700401580291502}}}, "icon": "https://maps.gstatic.com/mapfiles/place_api/icons/v1/png_71/school-71.png", "icon_background_color": "#7B9EB0", "icon_mask_base_uri": "https://maps.gstatic.com/mapfiles/place_api/icons/v2/school_pinlet", "international_phone_number": "+34 918 47 28 67", "name": "Escuela de Educación Infantil Río de Alisos", "place_id": "ChIJE2b1QgHZQw0ROpjgxAwDx1I", "plus_code": {"compound_code": "Q8M2+79 Guadalix de la Sierra, Spain", "global_code": "8CGRQ8M2+79"}, "reference": "ChIJE2b1QgHZQw0ROpjgxAwDx1I", "scope": "GOOGLE", "types": ["school", "point_of_interest", "establishment"], "vicinity": "Calle Manzanares, 17, Guadalix de la Sierra"}, {"business_status": "OPERATIONAL", "geometry": {"location": {"lat": 40.78144469999999, "lng": -3.695387}, "viewport": {"northeast": {"lat": 40.7829164802915, "lng": -3.693921169708498}, "southwest": {"lat": 40.78021851970851, "lng": -3.696619130291503}}}, "icon": "https://maps.gstatic.com/mapfiles/place_api/icons/v1/png_71/school-71.png", "icon_background_color": "#7B9EB0", "icon_mask_base_uri": "https://maps.gstatic.com/mapfiles/place_api/icons/v2/school_pinlet", "international_phone_number": "+34 918 47 02 56", "name": "Public school Alejandro Rubio", "photos": [{"height": 921, "html_attributions": ["<a href=\"https://maps.google.com/maps/contrib/105529828170438346072\">Rebeca Peña Garcia</a>"], "photo_reference": "AWn5SU5BFhV0_ZIvmGMYPo1g5wAhmiQ_rBpLFWBkietXFant0uCQEFcIcYghwbbSLT1oAKGzBZfh7Xtpy88cWOPvAJd0Sr5SZwSMZRbVHsKHJFiBNww-8fF4iB5uXMBEqDRos0Eyw4jTUw5cdKf6jUXb_94N8EF9CplQMcUKIWsSFH8ytDESqULIsngEmHJRqhhYQI94xhji44EjSVbQ7Z3H7hKxHqqY-LREYJriWdcqryum70Gm1Am6HFhOBcar9nYIiqTgwQ_PK7pT9KJuCMSKFDk7cleKAt8fNs_bfs5ZC5qnzKNxNaYK9NBAs5ciFiG1UclmaIid1CCpOSnDF4NHMUV64KclzXgmBVaPHdCD7Y9B8dRsbdwm8kJKJIeGDk3gSRyNnSxCJ9IOoYDNbp7SfQt6Dd2S3HaiQqaC1_n6xNDSsyOpwCoTcqLLKFjGsVgiRXJMtwHGhiTh6jlHzHsUw-71i2tsE3kWaTv_ia69sAgbB1gLX-GmQqIigc4C-TOujVvP5im0ljabHUi8iv2FEqCG4x6FIyP3iXL-Sg0uLST_thaEt_IGhidmSANqefzzgDFGg0RX3SJJv5HEH-1aCcKIQtHW8F3Q5SsjqmjWUfvJLj9EaKhT-jut6j14TUsrj8fab6Pp", "width": 921}], "place_id": "ChIJe6d19AbZQw0R9jqL7F5fat0", "plus_code": {"compound_code": "Q8J3+HR Guadalix de la Sierra, Spain", "global_code": "8CGRQ8J3+HR"}, "reference": "ChIJe6d19AbZQw0R9jqL7F5fat0", "scope": "GOOGLE", "types": ["school", "point_of_interest", "establishment"], "vicinity": "Calle Prado Panetes, 36, Guadalix de la Sierra"}, {"business_status": "OPERATIONAL", "geometry": {"location": {"lat": 40.78171989999999, "lng": -3.696664299999999}, "viewport": {"northeast": {"lat": 40.78312728029149, "lng": -3.695360519708497}, "southwest": {"lat": 40.78042931970849, "lng": -3.698058480291501}}}, "icon": "https://maps.gstatic.com/mapfiles/place_api/icons/v1/png_71/school-71.png", "icon_background_color": "#7B9EB0", "icon_mask_base_uri": "https://maps.gstatic.com/mapfiles/place_api/icons/v2/school_pinlet", "name": "I.E.S. Luis García Berlanga", "opening_hours": {"open_now": false}, "place_id": "ChIJ6WkbKADZQw0RAUocvy5-6qs", "plus_code": {"compound_code": "Q8J3+M8 Guadalix de la Sierra, Spain", "global_code": "8CGRQ8J3+M8"}, "reference": "ChIJ6WkbKADZQw0RAUocvy5-6qs", "scope": "GOOGLE", "types": ["secondary_school", "school", "point_of_interest", "establishment"], "vicinity": "Camino de Chozas, Guadalix de la Sierra"}, {"business_status": "OPERATIONAL", "geometry": {"location": {"lat": 40.7815665, "lng": -3.696576}, "viewport": {"northeast": {"lat": 40.7828863802915, "lng": -3.695282069708498}, "southwest": {"lat": 40.7801884197085, "lng": -3.697980030291502}}}, "icon": "https://maps.gstatic.com/mapfiles/place_api/icons/v1/png_71/school-71.png", "icon_background_color": "#7B9EB0", "icon_mask_base_uri": "https://maps.gstatic.com/mapfiles/place_api/icons/v2/school_pinlet", "name": "Colegio", "place_id": "ChIJwxjLvrPZQw0RqV4KmxuQ_bI", "plus_code": {"compound_code": "Q8J3+J9 Guadalix de la Sierra, Spain", "global_code": "8CGRQ8J3+J9"}, "reference": "ChIJwxjLvrPZQw0RqV4KmxuQ_bI", "scope": "GOOGLE", "types": ["secondary_school", "school", "point_of_interest", "establishment"], "vicinity": "Calle Prado Panetes, 2, Guadalix de la Sierra"}, {"business_status": "OPERATIONAL", "geometry": {"location": {"lat": 40.7843279, "lng": -3.699346299999999}, "viewport": {"northeast": {"lat": 40.78572653029149, "lng": -3.698048269708498}, "southwest": {"lat": 40.78302856970849, "lng": -3.700746230291502}}}, "icon": "https://maps.gstatic.com/mapfiles/place_api/icons/v1/png_71/school-71.png", "icon_background_color": "#7B9EB0", "icon_mask_base_uri": "https://maps.gstatic.com/mapfiles/place_api/icons/v2/school_pinlet", "international_phone_number": "+34 650 29 39 06", "name": "clases de matematicas y ciencias, secundaria, bachillerato, universidad...", "opening_hours": {"open_now": false}, "place_id": "ChIJi6likJLZQw0RlQvLIIlgSdk", "plus_code": {"compound_code": "Q8M2+P7 Guadalix de la Sierra, Spain", "global_code": "8CGRQ8M2+P7"}, "reference": "ChIJi6likJLZQw0RlQvLIIlgSdk", "scope": "GOOGLE", "types": ["school", "point_of_interest", "establishment"], "vicinity": "Calle Residencial Olma, Guadalix de la Sierra"}, {"business_status": "OPERATIONAL", "geometry": {"location": {"lat": 40.78627469999999, "lng": -3.6824707}, "viewport": {"northeast": {"lat": 40.78755418029149, "lng": -3.681054769708498}, "southwest": {"lat": 40.78485621970849, "lng": -3.683752730291503}}}, "icon": "https://maps.gstatic.com/mapfiles/place_api/icons/v1/png_71/school-71.png", "icon_background_color": "#7B9EB0", "icon_mask_base_uri": "https://maps.gstatic.com/mapfiles/place_api/icons/v2/school_pinlet", "international_phone_number": "+34 649 29 63 06", "name": "EAFEV | Escuela de Formación de Socorristas - Cursos de Socorrista Comunidad de Madrid", "opening_hours": {"open_now": false}, "photos": [{"height": 571, "html_attributions": ["<a href=\"https://maps.google.com/maps/contrib/101128327220470307666\">EAFEV | Escuela de Formación de Socorristas - Cursos de Socorrista Comunidad de Madrid</a>"], "photo_reference": "AWn5SU6zU0yB0We7DtPXOXlofIZePRQmfWuMidSFIPSlBT_qcQDO_7KKwqMXhm6GYN-0OmKyUATLWJRsHESwuhQvkeb2X8IFd_bpGYnhfII0KGhoCeF4pCNOYDrX_Tq2TyEjwMtLAT9hE28fkrZ3shYEgV8T3ATIwNAP5HzwMT7dxVbjPqC4gKqdVpE4c8seQQefUjlQMo463iYeWkb28ya4Ba4GtphsZv1GXt77vg1WWewwFj-E9P3WG_zJuowVyk-FGm-1CMTo2TFMRpbFDMFtfJdHbZYcWOkc8HVQ7xU_SQALWF3htQ-9ne6m0C2x7wW4uQA3obBJt-w", "width": 1000}], "place_id": "ChIJ4QQ85GonYosRe7T1fH1Yu1s", "plus_code": {"compound_code": "Q8P9+G2 Guadalix de la Sierra, Spain", "global_code": "8CGRQ8P9+G2"}, "rating": 4.9, "reference": "ChIJ4QQ85GonYosRe7T1fH1Yu1s", "scope": "GOOGLE", "types": ["school", "health", "point_of_interest", "establishment"], "user_ratings_total": 19, "vicinity": "Camino Majalgar, 7, Guadalix de la Sierra"}, {"business_status": "OPERATIONAL", "geometry": {"location": {"lat": 40.8179817, "lng": -3.6745004}, "viewport": {"northeast": {"lat": 40.8193074802915, "lng": -3.673114719708498}, "southwest": {"lat": 40.8166095197085, "lng": -3.675812680291502}}}, "icon": "https://maps.gstatic.com/mapfiles/place_api/icons/v1/png_71/school-71.png", "icon_background_color": "#7B9EB0", "icon_mask_base_uri": "https://maps.gstatic.com/mapfiles/place_api/icons/v2/school_pinlet", "international_phone_number": "+34 918 43 23 12", "name": "Escuela De Educación Infantil Casa De Niños Navalafuente", "place_id": "ChIJ2VAwybPeQw0R1EuejHXrFJg", "plus_code": {"compound_code": "R89G+55 Navalafuente, Spain", "global_code": "8CGRR89G+55"}, "reference": "ChIJ2VAwybPeQw0R1EuejHXrFJg", "scope": "GOOGLE", "types": ["school", "point_of_interest", "establishment"], "vicinity": "Calle Santa Águeda, 14, Navalafuente"}, {"business_status": "OPERATIONAL", "geometry": {"location": {"lat": 40.797805, "lng": -3.6209742}, "viewport": {"northeast": {"lat": 40.79917478029149, "lng": -3.619694269708497}, "southwest": {"lat": 40.7964768197085, "lng": -3.622392230291502}}}, "icon": "https://maps.gstatic.com/mapfiles/place_api/icons/v1/png_71/school-71.png", "icon_background_color": "#7B9EB0", "icon_mask_base_uri": "https://maps.gstatic.com/mapfiles/place_api/icons/v2/school_pinlet", "international_phone_number": "+34 918 43 95 31", "name": "Escuela de Educación Infantil Venturada", "photos": [{"height": 4008, "html_attributions": ["<a href=\"https://maps.google.com/maps/contrib/116522339215122585058\">Juan Rubio</a>"], "photo_reference": "AWn5SU6__wGJhoowO1LLttu_AD-Jz3jMccqOlZFRuRszYHRe4mIozTAi1WovPOyy_EyWXjcgCsm573jyCaqs9GUJOHe6NyOtMgJWqTU-pDf7_KSFDkoavOFtUn-iwtAziVNBHWM7dhjhHqbYJhsOjcVHs2CVMSLM7kbu0rHhR8QoTL4LD7SZ4xScX6FqcKMonu22Tsk4gymWPcY7Dhf1aXDbupwr10aVSAE2yvUjHqEoUnSIbv6zyGev7IrFzeUM5Q8bMehsWMLgDcR3BmliqpOkGMDmGVeRFyPVJz9i_a3NlR8bNCgDTAKo-S7rDpcyB6OgK19jZ9QTtq_ubptpnsmSKItoTmuHTfANjJ_LOUGua_srDfwZDdoKDAq3jBA59xdbpG87yPkgiAtF2N4Sg5ZegjUOK8SExZx5hmu3Y9uqCUZxM3eSTVZsnYtDB57cgniLraivSDwmwDwE8Z7o8g42M9NfrURUWxh7OdPrD0p5znA6Vek0oXOEUuXk8cw7iY-kAXDWZCFJB09oL9YhaJfU7PF64-8S6-mFgxzyAFjPa7bJd7ckRTNtFHrvEPQtyw555wghYPwy2aryt38lj7-O6tDsxSkpIexRqc1Jq5XAnKpMVdjYNH2XC0ZtnBRB7HSeuqpOlw", "width": 6008}], "place_id": "ChIJu8kVcgrbQw0RANePJu4b7CI", "plus_code": {"compound_code": "Q9XH+4J Venturada, Spain", "global_code": "8CGRQ9XH+4J"}, "rating": 5, "reference": "ChIJu8kVcgrbQw0RANePJu4b7CI", "scope": "GOOGLE", "types": ["school", "point_of_interest", "establishment"], "user_ratings_total": 3, "vicinity": "Calle de los Álamos, Venturada"}, {"business_status": "OPERATIONAL", "geometry": {"location": {"lat": 40.8110427, "lng": -3.7592072}, "viewport": {"northeast": {"lat": 40.81230008029151, "lng": -3.757983419708498}, "southwest": {"lat": 40.80960211970851, "lng": -3.760681380291503}}}, "icon": "https://maps.gstatic.com/mapfiles/place_api/icons/v1/png_71/school-71.png", "icon_background_color": "#7B9EB0", "icon_mask_base_uri": "https://maps.gstatic.com/mapfiles/place_api/icons/v2/school_pinlet", "international_phone_number": "+34 918 44 38 73", "name": "Cp Inf Pri Sec Vicente Aleixandre", "opening_hours": {"open_now": false}, "place_id": "ChIJCxjArxhiQQ0R-9Z6Y-ZcrF8", "plus_code": {"compound_code": "R66R+C8 Miraflores de la Sierra, Spain", "global_code": "8CGRR66R+C8"}, "reference": "ChIJCxjArxhiQQ0R-9Z6Y-ZcrF8", "scope": "GOOGLE", "types": ["primary_school", "school", "point_of_interest", "establishment"], "vicinity": "Avenida de la Constitución, 29, Miraflores de la Sierra"}]