[{"business_status": "OPERATIONAL", "geometry": {"location": {"lat": 40.3607758, "lng": -4.3960682}, "viewport": {"northeast": {"lat": 40.36211943029149, "lng": -4.394724169708498}, "southwest": {"lat": 40.3594214697085, "lng": -4.397422130291502}}}, "icon": "https://maps.gstatic.com/mapfiles/place_api/icons/v1/png_71/parking-71.png", "icon_background_color": "#7B9EB0", "icon_mask_base_uri": "https://maps.gstatic.com/mapfiles/place_api/icons/v2/parking_pinlet", "name": "Parking La Estacion", "opening_hours": {"open_now": true}, "place_id": "ChIJ5wSFytOzQQ0RXi8dGPB-dmE", "plus_code": {"compound_code": "9J63+8H San Martín de Valdeiglesias, Spain", "global_code": "8CGQ9J63+8H"}, "reference": "ChIJ5wSFytOzQQ0RXi8dGPB-dmE", "scope": "GOOGLE", "types": ["parking", "point_of_interest", "establishment"], "vicinity": "Avenida Madrid, 23A, San Martín de Valdeiglesias"}, {"business_status": "OPERATIONAL", "geometry": {"location": {"lat": 40.36177929999999, "lng": -4.3995644}, "viewport": {"northeast": {"lat": 40.36312628029149, "lng": -4.398222269708498}, "southwest": {"lat": 40.3604283197085, "lng": -4.400920230291502}}}, "icon": "https://maps.gstatic.com/mapfiles/place_api/icons/v1/png_71/parking-71.png", "icon_background_color": "#7B9EB0", "icon_mask_base_uri": "https://maps.gstatic.com/mapfiles/place_api/icons/v2/parking_pinlet", "name": "Zona de aparcamiento reservada para motos", "opening_hours": {"open_now": true}, "place_id": "ChIJ-4agNQBNQA0RgiKFsVZPZQI", "plus_code": {"compound_code": "9J62+P5 San Martín de Valdeiglesias, Spain", "global_code": "8CGQ9J62+P5"}, "reference": "ChIJ-4agNQBNQA0RgiKFsVZPZQI", "scope": "GOOGLE", "types": ["parking", "point_of_interest", "establishment"], "vicinity": "Calle de las Carretas, 1, San Martín de Valdeiglesias"}, {"business_status": "OPERATIONAL", "geometry": {"location": {"lat": 40.3599994, "lng": -4.401801}, "viewport": {"northeast": {"lat": 40.3612058802915, "lng": -4.400247319708498}, "southwest": {"lat": 40.3585079197085, "lng": -4.402945280291503}}}, "icon": "https://maps.gstatic.com/mapfiles/place_api/icons/v1/png_71/parking-71.png", "icon_background_color": "#7B9EB0", "icon_mask_base_uri": "https://maps.gstatic.com/mapfiles/place_api/icons/v2/parking_pinlet", "name": "PARKING GRATUITO", "opening_hours": {"open_now": true}, "photos": [{"height": 635, "html_attributions": ["<a href=\"https://maps.google.com/maps/contrib/101804606924435546180\">DIEGO NIETO PARDO</a>"], "photo_reference": "AWn5SU5sawtlPqfoEzNHXtZDFdifC9xMkoWjFt0dnY50gQeYwlg22smUVuKi6jichBYUOZjZwE6b60nK5ZZcurUdUMw2AKj8mU3Tr1d6rNBG6pcRyQlvQjTzxt_flfMUhyBL4NqOArFADxKVq-t9g7V8GSMkm-gbuTbo8cMmV5IaamE_dXfn_DyInml6OOZquILVnlm1UnakKmpj2wA94uMSEjG63UawhSIWGQtT8Ojd8SqGryfLf1dQWDzwF8cAIELBeW6FRFwxnfTRbRu-eYVRXixgJerwYDGc3nCXYcPltTUYM2DGnF5Q67q53nNaS9qjUcJAZiHUnxwqNHw3vWCrlFkmClOgQFAayerVvFACWUlkGCU_C1A1zOmRXLJeVeHfRQowVVuRedAE1s0YWtag-dQTqo1kIUXBkogeqVROXXPSMgjCKkHxvYOFglsbbZS_udQZ1qyzSxTgiyCJElvs_YXjmz7TN324DBOMtF4zypzsQovRxSNUEsdLNhi95ncLYW_OGuUeuGw5IS8foXvivakmqnnWpXiPdlB-oybdXmcO1uKCt-4He2uDZA0E1pLZwxV_BiDYmK-gLnOQejXEPCrsAFxrUBhD0QflTJaMj2z1x4vKV1c1qMyQPSXwQxUf_q7jKA", "width": 749}], "place_id": "ChIJdQg3I-FNQA0RhkcJ2t0hSak", "plus_code": {"compound_code": "9H5X+X7 San Martín de Valdeiglesias, Spain", "global_code": "8CGQ9H5X+X7"}, "reference": "ChIJdQg3I-FNQA0RhkcJ2t0hSak", "scope": "GOOGLE", "types": ["parking", "point_of_interest", "establishment"], "vicinity": "Calle Ue, 23, San Martín de Valdeiglesias"}, {"business_status": "OPERATIONAL", "geometry": {"location": {"lat": 40.36324260000001, "lng": -4.3925387}, "viewport": {"northeast": {"lat": 40.3646390802915, "lng": -4.391107919708498}, "southwest": {"lat": 40.3619411197085, "lng": -4.393805880291502}}}, "icon": "https://maps.gstatic.com/mapfiles/place_api/icons/v1/png_71/parking-71.png", "icon_background_color": "#7B9EB0", "icon_mask_base_uri": "https://maps.gstatic.com/mapfiles/place_api/icons/v2/parking_pinlet", "name": "Parking público El Rosario", "opening_hours": {"open_now": true}, "photos": [{"height": 3024, "html_attributions": ["<a href=\"https://maps.google.com/maps/contrib/101804606924435546180\">DIEGO NIETO PARDO</a>"], "photo_reference": "AWn5SU4U9I7KRUO0WMRdJnHI4dHlEPngCsDk0JpeWki3z6FDJd3InYtErCXu1CApSxRNrCa8uXtq442AdFtClHtDjPRiIh9nDWBPKuAK5lyq4Pz7ClfCBZfgWfgXm24yG_WO3T1nF7NWlOOCKg6Dq6pndeF5EgTu2cPig3rb79diOrM4sVjTXpljkRPWIK71m9DpUl81mklIzbGsoHvGT41sBTMLAU2lv_1ZyYUrILv8G6t3uaDrRBhULvEQFeRgZ2WUZIpQz8eGp0xECOQWl-TYkKD284SD9SVigfpQaHcZBaVkgy-mPH7wSiat6-b6neQchl0A-WZ38c3enao9lEoV0TAbLBoZ-xo1a08z8ldlwu6IqH-PpXUqloXwe-DoOTyua-a2_rRnti1AVAUVP8KQlNMayEVrH2kwUyfHfKHHiG5ZDr4vESFdmROgfUo1zGvFrJP6j9mUwW0c6Eld44z6GTMi9QzrI5R2Hal9p0RXch-UMAU5UT-QO13gNwyAIiUxm_Sup5S0LUAPBfOwWpjdzI5IsY2TdprRpnF61sl75cj4tn7MfobQUsBg9fELzdCZZO8eKkNTcrRkGRq2wbyG3egzgXw8watRcjaGnQcoDxuu1kg7FxpD5SO_m1wx3yQTE2ZArBY_", "width": 4032}], "place_id": "ChIJ26HyFlOzQQ0RCjFQb4gtQno", "plus_code": {"compound_code": "9J74+7X San Martín de Valdeiglesias, Spain", "global_code": "8CGQ9J74+7X"}, "rating": 3.7, "reference": "ChIJ26HyFlOzQQ0RCjFQb4gtQno", "scope": "GOOGLE", "types": ["parking", "point_of_interest", "establishment"], "user_ratings_total": 3, "vicinity": "Calle de Rosario, 5P, San Martín de Valdeiglesias"}, {"business_status": "OPERATIONAL", "geometry": {"location": {"lat": 40.36034349999999, "lng": -4.4027499}, "viewport": {"northeast": {"lat": 40.36169503029149, "lng": -4.401391169708498}, "southwest": {"lat": 40.35899706970849, "lng": -4.404089130291502}}}, "icon": "https://maps.gstatic.com/mapfiles/place_api/icons/v1/png_71/parking-71.png", "icon_background_color": "#7B9EB0", "icon_mask_base_uri": "https://maps.gstatic.com/mapfiles/place_api/icons/v2/parking_pinlet", "name": "PARKING GRATUITO", "opening_hours": {"open_now": true}, "photos": [{"height": 490, "html_attributions": ["<a href=\"https://maps.google.com/maps/contrib/101804606924435546180\">DIEGO NIETO PARDO</a>"], "photo_reference": "AWn5SU5p3Vd0EDcnjwes4gbm-G_GwoPvtlHD3aTWeHtTUb7Dq6KNDiOUx7rm4100PDdQOhIAeAlWcXtcXoGkfTAfAXmNerWw2lzq8hHcosOCKs-tGNnPXnz7dsitVCw8kKmx9MT-L2DaY22lChA9h-pFhxnuJMXs6CJFYBOHwT2pksEQE5N_eSjJWaUzECEJMCyGaSLyZt6wJW0D9OZYEs_XPowrwUHqNs-eVHQnxL9pmGK07TSw77qcfQWBZGEzyRbeq9osIuw_2kmn321MOIOhfPWMsDx6Z1a0WAZFB6KAy8N0DJHYrUNcY4t9z_kyJXcUmmmLXpFdF_MAmM2VJY__jKBMrBBlTlMKftP3VumKfAfh_Hub4hc7D7cspVApdJvqfxVLolFxuoBXCAPRx9j50wWugIZADzQ0ZNunrKII0DURUoXHPlrm9xubnuxka-HVN-jnX27gG4VUs4mQDLA9RGAU61aoHtXTeOustT3qUjC6wbU9PRif7OOERCt6xnZusfpFkOOr-5KCP9IuT3NTmVpBgRJR093Ba83rgW2CM64L0W5jULm6qiVix8_Isf39PJzm-7vBClll1b2cLlFHpBTMjoesgDC6z3iSzrRBFNbznr-9t_TAO2DQZE8aTcXrvLcunA", "width": 749}], "place_id": "ChIJeblVs95NQA0R-uqjmKdDVqI", "plus_code": {"compound_code": "9H6W+4W San Martín de Valdeiglesias, Spain", "global_code": "8CGQ9H6W+4W"}, "reference": "ChIJeblVs95NQA0R-uqjmKdDVqI", "scope": "GOOGLE", "types": ["parking", "point_of_interest", "establishment"], "vicinity": "Camino de Cadalso, 2, San Martín de Valdeiglesias"}, {"business_status": "OPERATIONAL", "geometry": {"location": {"lat": 40.3604498, "lng": -4.4028672}, "viewport": {"northeast": {"lat": 40.36181698029149, "lng": -4.401531819708498}, "southwest": {"lat": 40.35911901970849, "lng": -4.404229780291502}}}, "icon": "https://maps.gstatic.com/mapfiles/place_api/icons/v1/png_71/parking-71.png", "icon_background_color": "#7B9EB0", "icon_mask_base_uri": "https://maps.gstatic.com/mapfiles/place_api/icons/v2/parking_pinlet", "name": "Aparcamiento Plaza de Toros", "opening_hours": {"open_now": true}, "photos": [{"height": 490, "html_attributions": ["<a href=\"https://maps.google.com/maps/contrib/101804606924435546180\">DIEGO NIETO PARDO</a>"], "photo_reference": "AWn5SU78622CzBZ3xj8TTZ_hQ5YCCi0hb0Ck9yxUAU0XeU8YFQdzPKso-wxvFyKKVYFJmfX6lTyKtVPqT8drrFEvoPT5KsLgJPr97XXV6VJWSwOAg8lFxU5N_OIGHr1ufGABlw943F-1AdE6uTj8WyTae-WlWQcNEEyxTiBdiak22Q9RBAfax_eGoikB70OtmITbzlH_touyUrVO00IGy7efGy0brI5bqMYz6DuybIgeX3uPAZuSvyjLbS3mIQ6-8MTe4j-zcKtilg-e7l-3zlij4j_UYO-QHmpq6ijlxcvdxhN5-D1HtG_cH5wQsiLuqU-EfiQMHgyyC3s1nU90IgqF13GKz5GYGsh2hPi_c_FVWROWZt9K_of6Ejd-gTy_e_QULdmsKMHx0cFnYhRDpe2XI4nb7aLZ3oh_WnbX5Ca7CJh0tYGMH8_KhWOQ_TFqp0OIS8wImXl3sHcadFQ1vLvcwNhm4LhvLY3egS-fcsJ1qzltpDNpiZRTr0Vr_vwQVH0z49IagyDl8rQpp-IgFMrLeFzspNIggajWpqImMExOENHgyEaNOrvarMo1iVoWHOyM1lQt6Rd-03h8cxRcKTKLEPrvzHmm6tn-x-FksWd2uT7p4VuBzN42DGoYrIMIyE8I2Q676Jog", "width": 749}], "place_id": "ChIJF1P-CGBNQA0RuJn1qW2jT5A", "plus_code": {"compound_code": "9H6W+5V San Martín de Valdeiglesias, Spain", "global_code": "8CGQ9H6W+5V"}, "rating": 3, "reference": "ChIJF1P-CGBNQA0RuJn1qW2jT5A", "scope": "GOOGLE", "types": ["parking", "point_of_interest", "establishment"], "user_ratings_total": 2, "vicinity": "Camino de Cadalso, 2, San Martín de Valdeiglesias"}, {"business_status": "OPERATIONAL", "geometry": {"location": {"lat": 40.3636797, "lng": -4.404063499999999}, "viewport": {"northeast": {"lat": 40.3650048302915, "lng": -4.402737219708498}, "southwest": {"lat": 40.3623068697085, "lng": -4.405435180291502}}}, "icon": "https://maps.gstatic.com/mapfiles/place_api/icons/v1/png_71/parking-71.png", "icon_background_color": "#7B9EB0", "icon_mask_base_uri": "https://maps.gstatic.com/mapfiles/place_api/icons/v2/parking_pinlet", "name": "APARCAMIENTO", "place_id": "ChIJdf42eQBNQA0RrwRDABMHgVk", "plus_code": {"compound_code": "9H7W+F9 San Martín de Valdeiglesias, Spain", "global_code": "8CGQ9H7W+F9"}, "reference": "ChIJdf42eQBNQA0RrwRDABMHgVk", "scope": "GOOGLE", "types": ["parking", "point_of_interest", "establishment"], "vicinity": "Calle de los Jardines, 10, San Martín de Valdeiglesias"}, {"business_status": "OPERATIONAL", "geometry": {"location": {"lat": 40.3590363, "lng": -4.410278799999999}, "viewport": {"northeast": {"lat": 40.3603729302915, "lng": -4.408989719708497}, "southwest": {"lat": 40.3576749697085, "lng": -4.411687680291502}}}, "icon": "https://maps.gstatic.com/mapfiles/place_api/icons/v1/png_71/parking-71.png", "icon_background_color": "#7B9EB0", "icon_mask_base_uri": "https://maps.gstatic.com/mapfiles/place_api/icons/v2/parking_pinlet", "name": "APARCAMIENTO", "place_id": "ChIJg2UjPgBNQA0R2c9-kWpkb8g", "plus_code": {"compound_code": "9H5Q+JV San Martín de Valdeiglesias, Spain", "global_code": "8CGQ9H5Q+JV"}, "reference": "ChIJg2UjPgBNQA0R2c9-kWpkb8g", "scope": "GOOGLE", "types": ["parking", "point_of_interest", "establishment"], "vicinity": "Calle de los Mecánicos, 11, San Martín de Valdeiglesias"}, {"business_status": "OPERATIONAL", "geometry": {"location": {"lat": 40.3900242, "lng": -4.3728319}, "viewport": {"northeast": {"lat": 40.3913313302915, "lng": -4.371515519708497}, "southwest": {"lat": 40.3886333697085, "lng": -4.374213480291502}}}, "icon": "https://maps.gstatic.com/mapfiles/place_api/icons/v1/png_71/parking-71.png", "icon_background_color": "#7B9EB0", "icon_mask_base_uri": "https://maps.gstatic.com/mapfiles/place_api/icons/v2/parking_pinlet", "name": "Aparcamiento de tierra", "opening_hours": {"open_now": true}, "photos": [{"height": 4128, "html_attributions": ["<a href=\"https://maps.google.com/maps/contrib/108767812302811385443\">Eduard Ciobanu</a>"], "photo_reference": "AWn5SU74pdk9ugvFNAN7GB7Se2GcGK5T5lJbqNDzf3z8-MTuExARMHtZM6jB6izWUA6ItVYBtfRuKg5bnk79ldq-f2wS6wGvs1qJqo7QroIe0mQVGG8bZXFmFM5_2zHbmBIMCUy-WnJugp9V8NpUB_ZvLp8ghtofVMZQYOEumvwApOtEZiA5T17eHZ-H7SMrS2Y0f1cTD7ZUtB5XjWGLSg3c4Ngrzib9u0Y7iHK7ZKrD1Xw-Wpr0onV2suCr7m_kBHWklSuVBhfUpC7b2qy3ucb9AxrVdXm3c1h45DdoADXFwlpVig3ygMS1gMo_aJ0khVI5XGT7xqZlsa7qE5RqgzLc6n8Z5epXIUJ-ZBwCRbIp19BLRoiq2uHf-0OgYrUifZcmKJwB0quKBShofoivhUX4k4F47rpYzm8OlEbE5jumkE8ncOBX4JhzXddMWw5jYgr3wBC7ADeyjVLjO0OgnQTvjBVkOcJHuEIhVnUBBtqV4P3C0MIqygSw0Cj0kNd_lbppGuNTrE5eOYIAPe2LN8six956OxlzaNGajH2oU_PyOyFb7wtYKpIgb92UcmEk1yzLc8Quf5w2OLFavEWHBgBcO8_8oTmFZZxPa3oFiZChOdyD1zoaivhtJKR2_KFK3Yx1LdA0t6ut", "width": 3096}], "place_id": "ChIJy1HMkwqtQQ0RR9gg5ChMh9M", "plus_code": {"compound_code": "9JRG+2V San Martín de Valdeiglesias, Spain", "global_code": "8CGQ9JRG+2V"}, "rating": 3.8, "reference": "ChIJy1HMkwqtQQ0RR9gg5ChMh9M", "scope": "GOOGLE", "types": ["parking", "point_of_interest", "establishment"], "user_ratings_total": 10, "vicinity": "Avenida del Galeón, 86, San Martín de Valdeiglesias"}, {"business_status": "OPERATIONAL", "geometry": {"location": {"lat": 40.3854306, "lng": -4.355077800000001}, "viewport": {"northeast": {"lat": 40.3867948302915, "lng": -4.353680869708497}, "southwest": {"lat": 40.3840968697085, "lng": -4.356378830291502}}}, "icon": "https://maps.gstatic.com/mapfiles/place_api/icons/v1/png_71/parking-71.png", "icon_background_color": "#7B9EB0", "icon_mask_base_uri": "https://maps.gstatic.com/mapfiles/place_api/icons/v2/parking_pinlet", "name": "Salida de emergencia de las urbanizaciones de Ciudad San Ramón y Costa de Madrid", "place_id": "ChIJufEmEwCzQQ0RAdLY--odIJw", "plus_code": {"compound_code": "9JPV+5X San Martín de Valdeiglesias, Spain", "global_code": "8CGQ9JPV+5X"}, "rating": 1, "reference": "ChIJufEmEwCzQQ0RAdLY--odIJw", "scope": "GOOGLE", "types": ["parking", "point_of_interest", "establishment"], "user_ratings_total": 1, "vicinity": "San Martín de Valdeiglesias"}, {"business_status": "OPERATIONAL", "geometry": {"location": {"lat": 40.40154690000001, "lng": -4.388959899999999}, "viewport": {"northeast": {"lat": 40.4029340802915, "lng": -4.387765419708497}, "southwest": {"lat": 40.40023611970851, "lng": -4.390463380291501}}}, "icon": "https://maps.gstatic.com/mapfiles/place_api/icons/v1/png_71/parking-71.png", "icon_background_color": "#7B9EB0", "icon_mask_base_uri": "https://maps.gstatic.com/mapfiles/place_api/icons/v2/parking_pinlet", "name": "Parking Ermita Virgen de la Nueva", "photos": [{"height": 3240, "html_attributions": ["<a href=\"https://maps.google.com/maps/contrib/101652063753833456910\">Jesus Alonso</a>"], "photo_reference": "AWn5SU7nnCNieyTWQL0NQNefLfGAHpb8DxxxcmCwE3wH9x-Wuawnqn-YM1y6ekfgw5nQ0cpCQT_Kbwkp2wD9O-2lpJSnwY2Ky1xP9FSF9QECzWpGU69012sSg0iBQAmNQs3ovQgUkr_HcgSzpS-9imwm7qOruCaAHhrNKyWZkIl8-ZEkzS3GBNPBKr0X6C_YHfgctaqlacT8UBPRei4ryvoWig0X3Ofdw6H2KpmZzF3dn39wdElpVUZKDbPSCw6w7CiBw2GYaBqBFB9d3gO9D-w3F-203k6E5qBVvAZJiiir5etgF2bz1vMtSltiUFThPf1GY4OGm7Bw_u7Q91tU8Q-o3ThW9SHI4BCa8vS01HmncZkhH9DR442MEbdo3Y51VfRXnX85-JqTih1D62Ms44oybxcjZmVHcsaxYKKFu3dMfu5LQHgYA8tqy7yKL4m0CbIPRaSDzCeaSFDN5ldmO6gE5PJobzqp8Mp2AFtAkmzeUhZtTrWkbDacFUNW93jK2oN3bsN4NbcAfpodKoi9NCoY9KXwzVxSpcrUWjc0cbzqs8fHUs8UU_0SfPtX8CcLpG4ANU5C-mFI3hzUiZ0AR6dcg1fSaw4dukdoWkm0v6aEyTkL44snaAP_uRjzSgmdbfhk1oj8sg", "width": 5760}], "place_id": "ChIJ9fpeItGtQQ0RzXt4JY9Nn4k", "plus_code": {"compound_code": "CJ26+JC San Martín de Valdeiglesias, Spain", "global_code": "8CGQCJ26+JC"}, "rating": 3.6, "reference": "ChIJ9fpeItGtQQ0RzXt4JY9Nn4k", "scope": "GOOGLE", "types": ["parking", "point_of_interest", "establishment"], "user_ratings_total": 35, "vicinity": "San Martín de Valdeiglesias"}, {"business_status": "OPERATIONAL", "geometry": {"location": {"lat": 40.3611498, "lng": -4.334173499999999}, "viewport": {"northeast": {"lat": 40.3623875302915, "lng": -4.332847569708496}, "southwest": {"lat": 40.3596895697085, "lng": -4.335545530291501}}}, "icon": "https://maps.gstatic.com/mapfiles/place_api/icons/v1/png_71/parking-71.png", "icon_background_color": "#7B9EB0", "icon_mask_base_uri": "https://maps.gstatic.com/mapfiles/place_api/icons/v2/parking_pinlet", "name": "APARCAMIENTO", "place_id": "ChIJKQlyTgCzQQ0R58nGlz3ebzw", "plus_code": {"compound_code": "9M68+F8 Pelayos de la Presa, Spain", "global_code": "8CGQ9M68+F8"}, "reference": "ChIJKQlyTgCzQQ0R58nGlz3ebzw", "scope": "GOOGLE", "types": ["parking", "point_of_interest", "establishment"], "vicinity": "Avenida del Mirador, 2, Pelayos de la Presa"}, {"business_status": "OPERATIONAL", "geometry": {"location": {"lat": 40.36256459999999, "lng": -4.328952199999999}, "viewport": {"northeast": {"lat": 40.36394233029149, "lng": -4.327612069708498}, "southwest": {"lat": 40.36124436970849, "lng": -4.330310030291503}}}, "icon": "https://maps.gstatic.com/mapfiles/place_api/icons/v1/png_71/parking-71.png", "icon_background_color": "#7B9EB0", "icon_mask_base_uri": "https://maps.gstatic.com/mapfiles/place_api/icons/v2/parking_pinlet", "name": "APARCAMIENTO", "place_id": "ChIJKY4gAwCzQQ0R-KFHxsyHIws", "plus_code": {"compound_code": "9M7C+2C Pelayos de la Presa, Spain", "global_code": "8CGQ9M7C+2C"}, "reference": "ChIJKY4gAwCzQQ0R-KFHxsyHIws", "scope": "GOOGLE", "types": ["parking", "point_of_interest", "establishment"], "vicinity": "Avenida del Arquitecto García Benito, 25, Pelayos de la Presa"}, {"business_status": "OPERATIONAL", "geometry": {"location": {"lat": 40.3666125, "lng": -4.3230781}, "viewport": {"northeast": {"lat": 40.36796253029149, "lng": -4.321732019708498}, "southwest": {"lat": 40.36526456970849, "lng": -4.324429980291502}}}, "icon": "https://maps.gstatic.com/mapfiles/place_api/icons/v1/png_71/parking-71.png", "icon_background_color": "#7B9EB0", "icon_mask_base_uri": "https://maps.gstatic.com/mapfiles/place_api/icons/v2/parking_pinlet", "name": "TP Bus Pelayos de la Presa, Monasterio", "place_id": "ChIJI-hgCQCzQQ0RTfZ4TxbDCdI", "reference": "ChIJI-hgCQCzQQ0RTfZ4TxbDCdI", "scope": "GOOGLE", "types": ["parking", "point_of_interest", "establishment"], "vicinity": "9M8G+JQV, Pelayos de la Presa"}, {"business_status": "OPERATIONAL", "geometry": {"location": {"lat": 40.37426600000001, "lng": -4.3238071}, "viewport": {"northeast": {"lat": 40.3754303302915, "lng": -4.322472819708498}, "southwest": {"lat": 40.37273236970851, "lng": -4.325170780291502}}}, "icon": "https://maps.gstatic.com/mapfiles/place_api/icons/v1/png_71/parking-71.png", "icon_background_color": "#7B9EB0", "icon_mask_base_uri": "https://maps.gstatic.com/mapfiles/place_api/icons/v2/parking_pinlet", "name": "Aparcamiento pelayos de la presa", "photos": [{"height": 4000, "html_attributions": ["<a href=\"https://maps.google.com/maps/contrib/105130588211785020025\">Josefina Guzmán López</a>"], "photo_reference": "AWn5SU7op_TgN9Jf56p9wvzm8VzbIeq0FTIqwt4UJUIjMdF4rR3-IL1u5XI7BvDF3kw7BPKrNgmMwKqB5UHrHmoqlRytfllhTwGx-wUJJ0mh7A5YJx7faetIqt4oY8gyBBWF3BSgd-8JVNjzvWRrXhY6lCDO_Z0Q-QAalBkOkVsB9er-3Poj--uayEEL3K-68VNnMmdKn7S7O_qyjGNiJ2YPFmtBr0S-R0v8fSADGZ8_x4jKNkx1E0WFhCU01uAqaaSksyJN-cJLDuQyJ518tfFZqSrpyQ2zhM2NU5wzrAxpKEU_f0q1QtAjgaTjliL2Ccd97y6ABUb4BckUtq5RPNek7Rr1QKLFqAzVwq-TMjdMGdqXX2vOJlQ7oNdIBC4-O4vLpTGXQ6LNsaJy72KRvbz0YH0jJybgCQx94D6u-aO21BBDOKxf74J5GBKSbIgpO5bDW1TDdb3IzbW8cyLDbxoCwleGEoN6gImYpkPKzzgwiKrjxfiBrxVux1RN3MZgDkpQ-2nomkhrXqH_48VcQrmoUqvYiPrqEnrJMpXODFApLiITvwPcs-kt4mBmgrfrqNKddlVBkUYCUfmsNt4rV2-JpYRA3ZvB2TX3qP8H2BFDEWPj0QF3nzHdRGRBMnGPt8YZwCztBg", "width": 3000}], "place_id": "ChIJ0ST4by6zQQ0RFYvpqZmsdig", "plus_code": {"compound_code": "9MFG+PF Pelayos de la Presa, Spain", "global_code": "8CGQ9MFG+PF"}, "rating": 4.2, "reference": "ChIJ0ST4by6zQQ0RFYvpqZmsdig", "scope": "GOOGLE", "types": ["parking", "point_of_interest", "establishment"], "user_ratings_total": 53, "vicinity": "Carretera del Pantano"}, {"business_status": "OPERATIONAL", "geometry": {"location": {"lat": 40.3690238, "lng": -4.3165138}, "viewport": {"northeast": {"lat": 40.37025343029151, "lng": -4.315132169708498}, "southwest": {"lat": 40.36755546970851, "lng": -4.317830130291503}}}, "icon": "https://maps.gstatic.com/mapfiles/place_api/icons/v1/png_71/parking-71.png", "icon_background_color": "#7B9EB0", "icon_mask_base_uri": "https://maps.gstatic.com/mapfiles/place_api/icons/v2/parking_pinlet", "name": "Aparcamiento de la Playa del Embalse", "photos": [{"height": 3000, "html_attributions": ["<a href=\"https://maps.google.com/maps/contrib/118226214431884631827\">Alba Lorenzo Barros</a>"], "photo_reference": "AWn5SU4kh4_U2ZkP6A8mNla138xTC93pc_7t-FBy3dfoFZwe1gA7Uf8TVG6ttW7bUeaT1jYwmJ4Mn-NPuEmkAMkDCOw6fDSiW10KXiKplKXeZDNLDQfsV5qnm97Mf5S2B6OESvdE6Ln_k8wFaHu8J2qTPNZsl4WM4ufKishCvTPgzqrBYu8gDMLnv1amJ3p-T8gMJY8SovPaVOJwByp9IVHWcaL4392yJmsBZb__OiBFEELn6TcbIz1meDmEgd4KG7AuHIU-iz_TtVAKZ_w4uHVRo3T_fMwrLzm6TdZ12MQIY-olHXBqURKAESVDx40Khl1UMect_IWOGbE9c8eP0crfemPoCFXAWQ8_qnKTJOyidWWAsmetY72QGcLuymfPDTH__SDm0-6epAGN00jxjj7GozlNxiC2kdzfVp6gwPXwgD35QfDb4SwjU8xsmLfkxTwSHTno_gbpvM7NaRIf0S67oAu3-oT6ZT29l-PZhxMUpVSzuZ8S2UIqaqsKjs70A-UmsGN0aCzbHpuAhNbsBMqV3zJi8Gke5jTrX4T0DIfVdJmkN67WuLVcOvqo8CYOjKjkFJVvA9ICZSzMHN9PLD_hpL28mTo3dHfbcbPaDzdz2DKBdYzduGUSrEJ-Z9GJ6yIlI8IvDEY8IYdTgHy0Ngu5pP8w2pU", "width": 4000}], "place_id": "ChIJN3OL3T2zQQ0RJS4V9EtaPQk", "plus_code": {"compound_code": "9M9M+J9 Pelayos de la Presa, Spain", "global_code": "8CGQ9M9M+J9"}, "rating": 3, "reference": "ChIJN3OL3T2zQQ0RJS4V9EtaPQk", "scope": "GOOGLE", "types": ["parking", "point_of_interest", "establishment"], "user_ratings_total": 7, "vicinity": "Diseminado Poblado Presa, 2, Pelayos de la Presa"}]