[{"geometry": {"location": {"lat": 40.2299319, "lng": -3.1093942}, "viewport": {"northeast": {"lat": 40.23265940451718, "lng": -3.105277910596933}, "southwest": {"lat": 40.22548689496404, "lng": -3.115830062883803}}}, "icon": "https://maps.gstatic.com/mapfiles/place_api/icons/v1/png_71/geocode-71.png", "icon_background_color": "#7B9EB0", "icon_mask_base_uri": "https://maps.gstatic.com/mapfiles/place_api/icons/v2/generic_pinlet", "name": "Brea de Tajo", "photos": [{"height": 3024, "html_attributions": ["<a href=\"https://maps.google.com/maps/contrib/112901356560039090122\">Fran Brale (granjefe7)</a>"], "photo_reference": "AWn5SU5hpe0X2OQd36LDNkW1G3ttyt2wIH2NOdD0ao7xlWNyFGlH4Kteg2wHKxw2heSDY7WU-w80QYW6r66pMh8c11np-_4dWXXpMAvM9WihE6WxwrvCI_M5dIlQD5PvxqrdogogEO8P9J_7UCvpJ9CfyLifE5x6JiTE5j_Dv3Y3-_6AQzUw42XUp-LA9lPNlX3XgvSwLUy_GOIVERfO1aVWWs7NP6V-7p_V_95mICsJwJyELCBiuKoCDfWSSQkvkecFTjxbEXpz7brlVuzBBCG3Kn90QKzfVbR5M3lm-ktIPcAtAbxut6pZJ9sh-Q9WJilLhUJJVdRtpkdaN-Z8hlJLdVZgltb-qnz0K8pW2rShk0TRxMA6ObxXuXa1jWcZvlWzIfrcCL1HKM2-tPl_iSf6A6X7gN220-j_iGXd0ujBqA9nTroxodnhasDcVsxOOKZ07hUk3v513D6wF-877Hs6ZzplMicD5XQPmnIb3MUuUnwWsQWSJA7EEkYienoYa8aw_s2g17ZRAjNHQyaUvml7KMAQOqpch1S_P_zYcVJKVEG5ncFuZw8oD52VLIJJDHucQuzP_mwwoDSbpiE4tQH8CHKMOY0iqGUdAk-OCdhg4XqPdpKczortoB3QHWj4TyEkvDEoNBpG", "width": 4032}], "place_id": "ChIJqwtTWzJgQg0RkeZVybGhomE", "reference": "ChIJqwtTWzJgQg0RkeZVybGhomE", "scope": "GOOGLE", "types": ["locality", "political"], "vicinity": "Brea de Tajo"}, {"business_status": "OPERATIONAL", "geometry": {"location": {"lat": 40.2285172, "lng": -3.1118373}, "viewport": {"northeast": {"lat": 40.2298936302915, "lng": -3.110516419708498}, "southwest": {"lat": 40.2271956697085, "lng": -3.113214380291502}}}, "icon": "https://maps.gstatic.com/mapfiles/place_api/icons/v1/png_71/school-71.png", "icon_background_color": "#7B9EB0", "icon_mask_base_uri": "https://maps.gstatic.com/mapfiles/place_api/icons/v2/school_pinlet", "international_phone_number": "+34 918 72 14 54", "name": "Colegio Rural Agrupado “Los Olivos” - Brea de Tajo", "opening_hours": {"open_now": false}, "photos": [{"height": 480, "html_attributions": ["<a href=\"https://maps.google.com/maps/contrib/100738069322932966635\">Colegio Rural Agrupado “Los Olivos”</a>"], "photo_reference": "AWn5SU4V1-X-ylzuxRKTedZ11z3Npf2riSLQvrVHGct26jGDx-UiHEfnFSKCufwRuy5410oACxleOugpRjhqBL9an8vfJJlE3Sk_8oTNFqer0tr1hceZdklqmHQjKd6vBu1KMxX_XtJJqgltiN0smuvJt6X3N464tN2lpvqPR2gWTXJYTO07mY-G3-hXz35oiV-gXdGxOjL2JmiuwgCCiFufCD1Y9mQgwicURtpbhCN5UNckC--5C8OJkvPTNuXBJlE3QekBNG6D-QML4NerZIJeJxCiNT7FQ8ww7kL7ypYrWcQCetPl_PaVrdsTU3QX284lEXSG3PUlHgk", "width": 640}], "place_id": "ChIJXz2sdjNgQg0RXh_H4_TV_XI", "plus_code": {"compound_code": "6VHQ+C7 Brea de Tajo, Spain", "global_code": "8CGR6VHQ+C7"}, "reference": "ChIJXz2sdjNgQg0RXh_H4_TV_XI", "scope": "GOOGLE", "types": ["point_of_interest", "school", "establishment"], "vicinity": "Calle Mayor, 29, Brea de Tajo"}, {"business_status": "OPERATIONAL", "geometry": {"location": {"lat": 40.2300289, "lng": -3.109556300000001}, "viewport": {"northeast": {"lat": 40.2313174802915, "lng": -3.108163669708499}, "southwest": {"lat": 40.2286195197085, "lng": -3.110861630291502}}}, "icon": "https://maps.gstatic.com/mapfiles/place_api/icons/v1/png_71/civic_building-71.png", "icon_background_color": "#7B9EB0", "icon_mask_base_uri": "https://maps.gstatic.com/mapfiles/place_api/icons/v2/civic-bldg_pinlet", "international_phone_number": "+34 918 72 10 13", "name": "Brea de Tajo Town Hall", "opening_hours": {"open_now": false}, "photos": [{"height": 1836, "html_attributions": ["<a href=\"https://maps.google.com/maps/contrib/116729661041830062132\">Pablo Blue</a>"], "photo_reference": "AWn5SU48nyscr1MGc6yTGYUGTQFuRCbT5swsTjfAsIy9EOT_pfd1cs8J9FqpZYsnb1_d4_SSaUF2VVNw7uG_Z81kQUGbXtNDjZIprVBvXhWpnGbZAFqSaH6GEdn-yCzxlQOkWR-tkvJezNOeaiLP2sXuXLvDDFZuiO0uSlwK5Ivkt28-tYxyzI-LCfhAyDurYCdWNUSiX1gCUJ25OT3djGwSLtwOI3BH3VPHE9A89XzpsPhm0vPcQgzHvNOeYN0Ure8ARASUHAswVVU_AgYvQCGD9OzBqnoPHdtrjbRqR9VWLeAGTR9eKgH-VeJt9QYEUv-M2QSFwOS59DlMJkIJogvpX6ropXk7z6WBcV6uR8FPYxziY1bAW7tslpwiZS_uD0jFpQ9mZpzxIYWXzHg7ud4Qa9_qLFyjyidKgMrxFYqefTnGlzw-nn1xTYXaw6YOT8wbewTOFccNrFuSoACZSPPmvO7ExI92OAhXQvSwUHEHJgowPaoUP3lTUexyVLjhLGPQGhjrfsD7GbXMCEBs4voeEMFW3wGfjEdozs00aN-aEED9bFCJT1b136RGp536H2gCh5l3BAkB5a4snenKtdv3AKjd5WO6Z7D_fcnRYNKjvmotGrySmRtfrmHCfuSz6xIT-_mFXFdP", "width": 3264}], "place_id": "ChIJn9ozRjJgQg0RIxGSrOhvjG8", "plus_code": {"compound_code": "6VJR+25 Brea de Tajo, Spain", "global_code": "8CGR6VJR+25"}, "rating": 4.6, "reference": "ChIJn9ozRjJgQg0RIxGSrOhvjG8", "scope": "GOOGLE", "types": ["city_hall", "local_government_office", "point_of_interest", "establishment"], "user_ratings_total": 65, "vicinity": "Plaza de Felipe VI, 1, Brea de Tajo"}, {"business_status": "OPERATIONAL", "geometry": {"location": {"lat": 40.2286625, "lng": -3.1125885}, "viewport": {"northeast": {"lat": 40.2299826802915, "lng": -3.111151919708499}, "southwest": {"lat": 40.2272847197085, "lng": -3.113849880291502}}}, "icon": "https://maps.gstatic.com/mapfiles/place_api/icons/v1/png_71/generic_business-71.png", "icon_background_color": "#7B9EB0", "icon_mask_base_uri": "https://maps.gstatic.com/mapfiles/place_api/icons/v2/generic_pinlet", "name": "Centro de Actividades Juan Carlos I", "photos": [{"height": 3000, "html_attributions": ["<a href=\"https://maps.google.com/maps/contrib/116098533032577855814\">Doncelador</a>"], "photo_reference": "AWn5SU5ca6qyiK1l3hN2b_Z2Stm0lFFfqL83fqP86HH060hC0hxqGWgnGzsyWh2kATtvanYRJE_vH9GTeHq5tMAL-ChcoB_Ets7FS9mF-aAXZom9r_NvLg-zibetJHYJmXEa3H4mt2j2CBbObHHbOXi7N_Z6-MvEJWhObrRMMJhlYircjYEMRRycsb22uwPz4l0MK9xRyY4kmd2cLEOFvi-dwjfNlyfs49_bV5VaouIS8AQQE-7ZUndpWPu-0G_UgC81rsFts7XlUYI8MNigpxoNHt_dwD23FdjU4_pdr1F0PwohJAdipjhg4E4-0Pa4RN2brcGAkDXPY_Pa6VbeJrCclWf59vUWyh7DdVk3DtAlFM6fJsB0aC44mYQ1SyzgfNUDqTURmpvfr9XCDkecCu7JWQfMRy2mlUC4xilDwthEVKYXrAw2IWwTX1X0rNZUt_6aeoRuQ1uEbtRFVoX2_6u1fhG3Kwp3f74431zqvUpRkqHmLEX2FUaMtKQo63AfnbiRK1adaAM0iXwAdDbTMLGVYoY595pY4X_tExUS8v5E3_ZqGOkzuwzQqSPVF4S7BguuwGHQ99-rd5tZFCnNVElpNs1zzJXnznbJ7hFOMp-BslfpcVbV7hcS_MC-_PQ5FK4rZ66uhw", "width": 4000}], "place_id": "ChIJrT5WfjNgQg0RBbxkIwqc5ps", "plus_code": {"compound_code": "6VHP+FX Brea de Tajo, Spain", "global_code": "8CGR6VHP+FX"}, "rating": 4, "reference": "ChIJrT5WfjNgQg0RBbxkIwqc5ps", "scope": "GOOGLE", "types": ["point_of_interest", "establishment"], "user_ratings_total": 16, "vicinity": "Calle de Julián Nicolás, 3, Brea de Tajo"}, {"business_status": "OPERATIONAL", "geometry": {"location": {"lat": 40.230118, "lng": -3.106705}, "viewport": {"northeast": {"lat": 40.2314862802915, "lng": -3.105283469708498}, "southwest": {"lat": 40.2287883197085, "lng": -3.107981430291502}}}, "icon": "https://maps.gstatic.com/mapfiles/place_api/icons/v1/png_71/generic_business-71.png", "icon_background_color": "#7B9EB0", "icon_mask_base_uri": "https://maps.gstatic.com/mapfiles/place_api/icons/v2/generic_pinlet", "international_phone_number": "+34 918 74 08 80", "name": "Asoc Para Gestión de la Integrac Social", "place_id": "ChIJwfbsJcRmQg0ReHqsFSs6QMM", "rating": 3.5, "reference": "ChIJwfbsJcRmQg0ReHqsFSs6QMM", "scope": "GOOGLE", "types": ["point_of_interest", "establishment"], "user_ratings_total": 2, "vicinity": "Carretera Comarcal M-221, 0, Brea de Tajo"}, {"business_status": "OPERATIONAL", "geometry": {"location": {"lat": 40.2304083, "lng": -3.1094322}, "viewport": {"northeast": {"lat": 40.2317438802915, "lng": -3.108010969708498}, "southwest": {"lat": 40.2290459197085, "lng": -3.110708930291502}}}, "icon": "https://maps.gstatic.com/mapfiles/place_api/icons/v1/png_71/lodging-71.png", "icon_background_color": "#909CE1", "icon_mask_base_uri": "https://maps.gstatic.com/mapfiles/place_api/icons/v2/hotel_pinlet", "international_phone_number": "+34 609 71 36 70", "name": "La Casa Del Polvorista", "photos": [{"height": 2160, "html_attributions": ["<a href=\"https://maps.google.com/maps/contrib/111080318332374363660\">ramon lopez garcia</a>"], "photo_reference": "AWn5SU5bg2UaCOCwaLsNAifBMMagrt36ASA43icDbQgGSplQsvsKFISHjhKCJ5hZQUHjf8l7No_CBKLEb1aZr9EHn9Jr5OPUiDz1gSCrBc8HG30lySDHPbtvx-X9u_pvatkOE5faD3Mjz2rGNt9np3mjlzU1iw7fln4SvfxckdmM-j8Qje5SM1BjmeSxaoD36RHqjbeJXdZ_M3-YgURx-yWdDgMXbbXntW2Cf-rEE9p5tSIuiloMwfQKexICw0keGFFij20jQK5BBXWV_wf3j4i8UlDzR8vLyYaQKEu4EPxmsVEq30IGfT_VNTA1ULizcbaU8HZ2OOfOLP5JT4R2zALuJhPE_VKREeXzDejdm6VY6I3IcAtCZW8kCf6asTtZKaHGroaqbPX7eps2gTU18W9RW_lXkXG_p_2zt2KuP9ho-XEEjngF7D6TGfrQURoJQi8_Nortj8Ro0X6pcKkIvO_uy54eXsvoJpEoJXfXsAV507WEpAV73sYF3D5IluCoj6HGBgMDsvm8xT-FU1P98MzkvsaRyvIa_NEA2Xo4M1geLW2AVjIW8IUpMaGe5bjO05uKLa6z7Z9GN_w1ZOyO90tV6iJa5Av1VcBTzRV0fkZzQshyhvISx-xgnOj-ocD3SBaNDUy7MC94", "width": 3840}], "place_id": "ChIJ8-qtODJgQg0Rgk-JVGPPcsE", "plus_code": {"compound_code": "6VJR+56 Brea de Tajo, Spain", "global_code": "8CGR6VJR+56"}, "rating": 4, "reference": "ChIJ8-qtODJgQg0Rgk-JVGPPcsE", "scope": "GOOGLE", "types": ["lodging", "point_of_interest", "establishment"], "user_ratings_total": 53, "vicinity": "Calle Cervantes, 9, Brea de Tajo"}, {"business_status": "OPERATIONAL", "geometry": {"location": {"lat": 40.230053, "lng": -3.10935}, "viewport": {"northeast": {"lat": 40.2314087802915, "lng": -3.108022319708498}, "southwest": {"lat": 40.2287108197085, "lng": -3.110720280291501}}}, "icon": "https://maps.gstatic.com/mapfiles/place_api/icons/v1/png_71/atm-71.png", "icon_background_color": "#909CE1", "icon_mask_base_uri": "https://maps.gstatic.com/mapfiles/place_api/icons/v2/atm_pinlet", "international_phone_number": "+34 900 404 090", "name": "ATM CaixaBank - Cajero", "opening_hours": {"open_now": true}, "photos": [{"height": 900, "html_attributions": ["<a href=\"https://maps.google.com/maps/contrib/110600201033109833884\">ATM CaixaBank - Cajero</a>"], "photo_reference": "AWn5SU5ArO82CCIUhPWPYdlmvR5WlW5I5-JYRzoTz7xx0Grf5uCyBjcTD2IN3eWqZHEBi4GxcUWCXUAePgaKkRfqnjxZEuehBfXCOBpMI0KnrmrgoyHgg8ZJKFb1_R_rhR9h-phiol-kxkfSgcoZFG6HqEUjf55Ep85708WBPd1snbofKr7-EKoTAoOWD1BjiuTcMgjgYUWC3BnGeJrvUtMfrA_fN08NGrCUY7EHqSh7GONDCPlBVFpKcAIQM6qSf17udxu1HaDWL3wQs_6jffmr1OMrUWgcu21MMTl0MxIiIuoQPRd-6EPKb_FF7H9oE4TJRNAD5YhF5dA", "width": 1600}], "place_id": "ChIJb-Y6eFZhQg0R3Vt_e5P-S_Y", "plus_code": {"compound_code": "6VJR+27 Brea de Tajo, Spain", "global_code": "8CGR6VJR+27"}, "reference": "ChIJb-Y6eFZhQg0R3Vt_e5P-S_Y", "scope": "GOOGLE", "types": ["atm", "finance", "point_of_interest", "establishment"], "vicinity": "Plaza De La Concepcion 1, Brea de Tajo"}, {"business_status": "OPERATIONAL", "geometry": {"location": {"lat": 40.2299614, "lng": -3.1095769}, "viewport": {"northeast": {"lat": 40.2312725302915, "lng": -3.108200569708498}, "southwest": {"lat": 40.2285745697085, "lng": -3.110898530291502}}}, "icon": "https://maps.gstatic.com/mapfiles/place_api/icons/v1/png_71/bus-71.png", "icon_background_color": "#10BDFF", "icon_mask_base_uri": "https://maps.gstatic.com/mapfiles/place_api/icons/v2/bus_share_taxi_pinlet", "name": "Pza.Felipe VI-Ayuntamiento", "place_id": "ChIJx5UaRjJgQg0REtvg4ehijTA", "plus_code": {"compound_code": "6VHR+X5 Brea de Tajo, Spain", "global_code": "8CGR6VHR+X5"}, "reference": "ChIJx5UaRjJgQg0REtvg4ehijTA", "scope": "GOOGLE", "types": ["bus_station", "transit_station", "point_of_interest", "establishment"], "vicinity": "Spain"}, {"business_status": "OPERATIONAL", "geometry": {"location": {"lat": 40.22998969999999, "lng": -3.1091446}, "viewport": {"northeast": {"lat": 40.2313298802915, "lng": -3.107788169708498}, "southwest": {"lat": 40.2286319197085, "lng": -3.110486130291501}}}, "icon": "https://maps.gstatic.com/mapfiles/place_api/icons/v1/png_71/generic_business-71.png", "icon_background_color": "#13B5C7", "icon_mask_base_uri": "https://maps.gstatic.com/mapfiles/place_api/icons/v2/generic_pinlet", "name": "Cruz del Horno", "place_id": "ChIJN0PtYwBhQg0RcecCdJwEvn0", "plus_code": {"compound_code": "6VHR+X8 Brea de Tajo, Spain", "global_code": "8CGR6VHR+X8"}, "reference": "ChIJN0PtYwBhQg0RcecCdJwEvn0", "scope": "GOOGLE", "types": ["point_of_interest", "establishment"], "vicinity": "Calle de Guadalajara, 8-6, Brea de Tajo"}, {"business_status": "OPERATIONAL", "geometry": {"location": {"lat": 40.2301558, "lng": -3.109117399999999}, "viewport": {"northeast": {"lat": 40.23152093029149, "lng": -3.107835819708498}, "southwest": {"lat": 40.2288229697085, "lng": -3.110533780291501}}}, "icon": "https://maps.gstatic.com/mapfiles/place_api/icons/v1/png_71/bar-71.png", "icon_background_color": "#FF9E67", "icon_mask_base_uri": "https://maps.gstatic.com/mapfiles/place_api/icons/v2/bar_pinlet", "international_phone_number": "+34 608 30 21 27", "name": "Plaza", "opening_hours": {"open_now": false}, "photos": [{"height": 3000, "html_attributions": ["<a href=\"https://maps.google.com/maps/contrib/108451492977097563978\">Daniel Izquierdo González</a>"], "photo_reference": "AWn5SU6EGg9aowxs1a1QUM168ZMf3bUx5xLXcn2HdU_SgKQC0kmxPkqzLHEEaNDv7KhfT1BKlzAbw48NV69znCXHxGrTmUWddzNrZClVYXdP7XH4ndCCSKdSGUEILTmUIJrObn8P0-iw0K86CmP9f-wQA_bsc94VOOmfUQ2H0ua4dTZuM0Lf0_4UAtkZUIcFjEDO77iWcYSZQbwUncdLd5zMQAlpUkAIEuLlLBXVeJlTf0bGEXvAdHEysCTu1iBsbU6JEpbnq2wVfoe0TJnXsPQXJur_BS3kLgcF6N4w69L7icXrC9che8LxBBjZ9HLPiJE2jQADkLbQBNzwZw1DeULPUO9nxmFqbbQl4jSzp1h-v1NffJ8kEDHvjXcbUldMZlRn7TtBrglNJTjuNhCmk1jYTzIoMgcZbT68VMucKajTWU3558dR9UrMSAn15awHtxsMqYN-Rwa-vI96Y1h0Z4QRTFlOapRpsHOE7JT7nJ6rw2N3IBvGkh3jpU8NabwjalFeTl0GSpYPUhp947ACOh7eFEyyPGga1SZvhge10SVpSoR5LuAIXsMLocQuP0KXtCKxHUQNpv9iSL3o3HTgbujXIiehV6zx3qq7lNCHbyxYPLmO-OZbRCNC90T6eaDXv73-skKsLQ", "width": 4000}], "place_id": "ChIJQarUQzJgQg0RAVs6lizDX3o", "plus_code": {"compound_code": "6VJR+39 Brea de Tajo, Spain", "global_code": "8CGR6VJR+39"}, "price_level": 1, "rating": 4, "reference": "ChIJQarUQzJgQg0RAVs6lizDX3o", "scope": "GOOGLE", "types": ["bar", "point_of_interest", "establishment"], "user_ratings_total": 69, "vicinity": "Plaza de Felipe VI, 8, Brea de Tajo"}, {"business_status": "OPERATIONAL", "geometry": {"location": {"lat": 40.2304083, "lng": -3.1094322}, "viewport": {"northeast": {"lat": 40.2317438802915, "lng": -3.108010969708498}, "southwest": {"lat": 40.2290459197085, "lng": -3.110708930291502}}}, "icon": "https://maps.gstatic.com/mapfiles/place_api/icons/v1/png_71/lodging-71.png", "icon_background_color": "#909CE1", "icon_mask_base_uri": "https://maps.gstatic.com/mapfiles/place_api/icons/v2/hotel_pinlet", "name": "Galax Family", "place_id": "ChIJMZWtODJgQg0RWEqfgTkr5Fw", "plus_code": {"compound_code": "6VJR+56 Brea de Tajo, Spain", "global_code": "8CGR6VJR+56"}, "reference": "ChIJMZWtODJgQg0RWEqfgTkr5Fw", "scope": "GOOGLE", "types": ["lodging", "point_of_interest", "establishment"], "vicinity": "Calle Cervantes, 9, Brea de Tajo"}, {"business_status": "OPERATIONAL", "geometry": {"location": {"lat": 40.2300551, "lng": -3.1100342}, "viewport": {"northeast": {"lat": 40.2314175802915, "lng": -3.108702069708498}, "southwest": {"lat": 40.2287196197085, "lng": -3.111400030291502}}}, "icon": "https://maps.gstatic.com/mapfiles/place_api/icons/v1/png_71/shopping-71.png", "icon_background_color": "#4B96F3", "icon_mask_base_uri": "https://maps.gstatic.com/mapfiles/place_api/icons/v2/shoppingcart_pinlet", "international_phone_number": "+34 918 72 10 71", "name": "Supermercado Papers Brea S.L", "opening_hours": {"open_now": false}, "photos": [{"height": 1965, "html_attributions": ["<a href=\"https://maps.google.com/maps/contrib/114296312856343376303\">Supermercado Papers Brea S.L</a>"], "photo_reference": "AWn5SU6NlZgkRr-c7mmO14mgf6qZ-Gyeipha-K4wE97-3v9em9bBhgord-faVOicphupoaDD34uNZUEMrUWsSTsNyIWhNOuAshHmqjTP1tHjg_Cmzjz7lWEwzv-YPSNBc4DpWHmJzBLIYPMx0AVoAa3OmrG990ND2XPj_RKhaOMGxQoL9SnjumawpvgT_P6r2-qFZHlcF_DjP9fsPGa5hy1M93TUJs4GmiMF9vwViIPw--NMtXovQ71sAjFX73YolTZiyNPmzBy-4kgu7olIoh5U1iU-G1vzroEnt2K4o3ObYD9pltJkxtLpj2SENHPa4v7whuHOveYWMBY", "width": 1965}], "place_id": "ChIJbRx0sS1gQg0RzeORzD-F1O4", "plus_code": {"compound_code": "6VJQ+2X Brea de Tajo, Spain", "global_code": "8CGR6VJQ+2X"}, "rating": 4.4, "reference": "ChIJbRx0sS1gQg0RzeORzD-F1O4", "scope": "GOOGLE", "types": ["supermarket", "grocery_or_supermarket", "food", "point_of_interest", "store", "establishment"], "user_ratings_total": 31, "vicinity": "Calle de Ramón y Cajal, 6, Brea de Tajo"}, {"business_status": "OPERATIONAL", "geometry": {"location": {"lat": 40.2297808, "lng": -3.1091829}, "viewport": {"northeast": {"lat": 40.2313210802915, "lng": -3.107449469708498}, "southwest": {"lat": 40.2286231197085, "lng": -3.110147430291502}}}, "icon": "https://maps.gstatic.com/mapfiles/place_api/icons/v1/png_71/restaurant-71.png", "icon_background_color": "#FF9E67", "icon_mask_base_uri": "https://maps.gstatic.com/mapfiles/place_api/icons/v2/restaurant_pinlet", "international_phone_number": "+34 643 06 36 83", "name": "Rest.El Campanario", "opening_hours": {"open_now": false}, "photos": [{"height": 1920, "html_attributions": ["<a href=\"https://maps.google.com/maps/contrib/101080846890873830381\">Rest.El Campanario</a>"], "photo_reference": "AWn5SU5A1TjI5H9P99rOsiF-PI9L4hmjqktpg-VdTDny2V9u3AGzAibwbvYf2BYO1I2LPjjN6YbqaNZAsf3B8XtZJ35LmvXo36YFA6QuIzEc8EuWd_08FPrKskmPsvYoeOIqqQBojJq1-Bn53xy4QpcEeLEVABa1I9mIrbPP_Y8khGBkNCRJp20c2vgRYkQXVCFUlyFV_gY8Zn-62VaijtujxmX4_8Zn36gAhSz3pHRYUHBtd_yGvMt_FihLqngbQFvOTV5v7B0mbuFizS9g-kSUZn3JyuNGvSVfxxpq3C-ZvuYReyZfevK7uHWFvqUhB6Bnz15YLKDsBz0", "width": 1440}], "place_id": "ChIJKbuZQzJgQg0RdPTmoPVA9Pc", "plus_code": {"compound_code": "6VHR+W8 Brea de Tajo, Spain", "global_code": "8CGR6VHR+W8"}, "rating": 4.4, "reference": "ChIJKbuZQzJgQg0RdPTmoPVA9Pc", "scope": "GOOGLE", "types": ["restaurant", "food", "point_of_interest", "establishment"], "user_ratings_total": 17, "vicinity": "Calle de Calvo Sotelo, Brea de Tajo"}, {"business_status": "OPERATIONAL", "geometry": {"location": {"lat": 40.2296944, "lng": -3.1097306}, "viewport": {"northeast": {"lat": 40.2310807302915, "lng": -3.108391569708498}, "southwest": {"lat": 40.2283827697085, "lng": -3.111089530291502}}}, "icon": "https://maps.gstatic.com/mapfiles/place_api/icons/v1/png_71/shopping-71.png", "icon_background_color": "#4B96F3", "icon_mask_base_uri": "https://maps.gstatic.com/mapfiles/place_api/icons/v2/shopping_pinlet", "name": "Tabacos", "place_id": "ChIJSVcATzJgQg0RO9aU0XuasMY", "plus_code": {"compound_code": "6VHR+V4 Brea de Tajo, Spain", "global_code": "8CGR6VHR+V4"}, "rating": 4, "reference": "ChIJSVcATzJgQg0RO9aU0XuasMY", "scope": "GOOGLE", "types": ["point_of_interest", "store", "establishment"], "user_ratings_total": 1, "vicinity": "Calle Mayor, 7, Brea de Tajo"}, {"business_status": "OPERATIONAL", "geometry": {"location": {"lat": 40.2300056, "lng": -3.1089032}, "viewport": {"northeast": {"lat": 40.2314229302915, "lng": -3.107281069708498}, "southwest": {"lat": 40.22872496970851, "lng": -3.109979030291502}}}, "icon": "https://maps.gstatic.com/mapfiles/place_api/icons/v1/png_71/pharmacy-71.png", "icon_background_color": "#F88181", "icon_mask_base_uri": "https://maps.gstatic.com/mapfiles/place_api/icons/v2/pharmacy_pinlet", "name": "FARMACIA", "place_id": "ChIJo0lqFwBhQg0RN_T5dtvG6z8", "plus_code": {"compound_code": "6VJR+2C Brea de Tajo, Spain", "global_code": "8CGR6VJR+2C"}, "reference": "ChIJo0lqFwBhQg0RN_T5dtvG6z8", "scope": "GOOGLE", "types": ["pharmacy", "point_of_interest", "health", "store", "establishment"], "vicinity": "Calle de Guadalajara, 2, Brea de Tajo"}, {"business_status": "OPERATIONAL", "geometry": {"location": {"lat": 40.22997239999999, "lng": -3.1088893}, "viewport": {"northeast": {"lat": 40.2314218802915, "lng": -3.107283969708498}, "southwest": {"lat": 40.2287239197085, "lng": -3.109981930291502}}}, "icon": "https://maps.gstatic.com/mapfiles/place_api/icons/v1/png_71/pharmacy-71.png", "icon_background_color": "#F88181", "icon_mask_base_uri": "https://maps.gstatic.com/mapfiles/place_api/icons/v2/pharmacy_pinlet", "international_phone_number": "+34 918 72 16 84", "name": "Viñaras Jiménez Teresa de Jesús", "opening_hours": {"open_now": false}, "photos": [{"height": 978, "html_attributions": ["<a href=\"https://maps.google.com/maps/contrib/105568059893408354789\">Viñaras Jiménez Teresa de Jesús</a>"], "photo_reference": "AWn5SU4PUCtWr8GzPhzq7aWzpzQDD2TaMuSCzu0Xp5rIZLrCTk7NcKYtEoAOWJQiU7WRHqGLr-0jnuVffHHDrXotVP-XssMv2rvhi5nYbgfUFmW5-yHgq466Fz-ncN5ZisE7zlHsAADHdTwtdqG_rVYbIXxe4iQyZZXOgMZAmSBcuh7gN9hzetMGmWI0PJNTxw_rImmV8Cn4IId2R20bptOmY37g1eC69gaI6V0SbQ6V-Y-8hI8IFURW7qyv_7hF4HSjxmiaWS0O7l6sLuiocgKQ6UoT6TocmpRn3EX-yG8HYyVU3uUTTnXW3yqYSyxsaWiF5INr7XYABJI", "width": 1246}], "place_id": "ChIJv2GRQTJgQg0RhIyZ3KZTyuk", "plus_code": {"compound_code": "6VHR+XC Brea de Tajo, Spain", "global_code": "8CGR6VHR+XC"}, "rating": 4.3, "reference": "ChIJv2GRQTJgQg0RhIyZ3KZTyuk", "scope": "GOOGLE", "types": ["pharmacy", "point_of_interest", "health", "store", "establishment"], "user_ratings_total": 4, "vicinity": "Calle de Guadalajara, 2, Brea de Tajo"}, {"business_status": "OPERATIONAL", "geometry": {"location": {"lat": 40.2295431, "lng": -3.109366799999999}, "viewport": {"northeast": {"lat": 40.2308611302915, "lng": -3.108010319708498}, "southwest": {"lat": 40.2281631697085, "lng": -3.110708280291501}}}, "icon": "https://maps.gstatic.com/mapfiles/place_api/icons/v1/png_71/generic_business-71.png", "icon_background_color": "#7B9EB0", "icon_mask_base_uri": "https://maps.gstatic.com/mapfiles/place_api/icons/v2/generic_pinlet", "international_phone_number": "+34 676 66 32 96", "name": "Museo Oleico \"La Almazara\"", "photos": [{"height": 1008, "html_attributions": ["<a href=\"https://maps.google.com/maps/contrib/101949739910762639933\">Museo Oleico &quot;La Almazara&quot;</a>"], "photo_reference": "AWn5SU5-VHNqzE8Qh6wUuN235TP-A4mMDZX-bAwrA65m0MMzwa_CJFQ3ZI0atLDYAV2F2zIqWN-HPtEeayAVXCNFk8joQ9JJ12AOIK6XxCmB_oQ6nWH-Lt6u7ZtYxoIbvpQ-ADV4mMS6kIhNY_OSN1ZYmBfJiIR51hXdtqE1te6kH1DTuXDQiR1a0Sk_Qj0N_3pdDqjUQgEyj52NpjBbqS0sn5DdWISmBF7qXTL66CZau4DXsRs0evRIeMFqTcV7rS4YHDGLow6F0rntDEyaIdiAXo5yCdaxJ-DgOFuFWokYtW9lk8zELMm5a41dQ79T8GAHLZ_m8hmNZ14", "width": 1512}], "place_id": "ChIJbWGAv1lhQg0RWKj5p2bcwa8", "plus_code": {"compound_code": "6VHR+R7 Brea de Tajo, Spain", "global_code": "8CGR6VHR+R7"}, "rating": 5, "reference": "ChIJbWGAv1lhQg0RWKj5p2bcwa8", "scope": "GOOGLE", "types": ["museum", "point_of_interest", "establishment"], "user_ratings_total": 2, "vicinity": "Plaza de la Solana, s/n, Brea de Tajo"}, {"business_status": "OPERATIONAL", "geometry": {"location": {"lat": 40.2301002, "lng": -3.1086285}, "viewport": {"northeast": {"lat": 40.23144738029149, "lng": -3.107278469708499}, "southwest": {"lat": 40.22874941970849, "lng": -3.109976430291502}}}, "icon": "https://maps.gstatic.com/mapfiles/place_api/icons/v1/png_71/bar-71.png", "icon_background_color": "#FF9E67", "icon_mask_base_uri": "https://maps.gstatic.com/mapfiles/place_api/icons/v2/bar_pinlet", "international_phone_number": "+34 669 96 48 14", "name": "Bar Ropero", "photos": [{"height": 2368, "html_attributions": ["<a href=\"https://maps.google.com/maps/contrib/109451736354079550158\">Deolinda Graciela Serrano Vergara</a>"], "photo_reference": "AWn5SU613qPCkpvLzHHtQaq4knp4ydLz7Doh9EJhfc0FTg7iuxmDfbKFcMEnkWsG93NTCnJYoTW9X0OGpDnIqttB5Iaru4kZSNO-Pzw3Am3zD7x-6FbOYo-Rs10cqPOS69j-RGaBkwN183imA8002AHWlR382QeWfmeFpcMkwo3LLCXZDsG0OiK1mRaRuFGq0Bd8lLRxtLV4YuZ-BNAX9J8cxnSzCh3m0QP8MRxhO5-k2KizJP8Ftwg5_q4Vo3DBpAK-z3Z8-r3ud3gJP5vsmqmDbF21FxrM7hrsPeJTi8yFdlRhNr9coWJRJ-S3AkLgh0hwQPcA2stGVVD9YrWFKoT-2exsrn7jJLO0AijGaEihVqDXIxxyZHi-jeJ7vNx6ay0WQfcBgicWZUgQ9fsfBmPmq2tAAJFSicL884_zrtJnQuObXD6DpfpxyDTnzAASC92qpIhKAMGCqfijBdEk7fP43CP7qzCsMqjahB6G53mbaJUdk3PmxEFN5w54QJGx0o3zla8zku7Ljc0wv_pkLlgiixWBFAlV64bhn5NgAXWAgMxvy139OJtafDIV7yT13X9iEu-7mSdIrMRZk89ME3gQ2jp_9ClO1HjJ4SweExHIb_RO2gSVihToNQbbePTvdNdFaCIXBWOQ", "width": 5120}], "place_id": "ChIJz9GabDJgQg0RE0x6nVFTQTw", "plus_code": {"compound_code": "6VJR+2G Brea de Tajo, Spain", "global_code": "8CGR6VJR+2G"}, "price_level": 1, "rating": 4.7, "reference": "ChIJz9GabDJgQg0RE0x6nVFTQTw", "scope": "GOOGLE", "types": ["bar", "point_of_interest", "establishment"], "user_ratings_total": 32, "vicinity": "Calle de Guadalajara, Brea de Tajo"}, {"business_status": "OPERATIONAL", "geometry": {"location": {"lat": 40.23063519999999, "lng": -3.108924999999999}, "viewport": {"northeast": {"lat": 40.2319929802915, "lng": -3.107585119708498}, "southwest": {"lat": 40.2292950197085, "lng": -3.110283080291501}}}, "icon": "https://maps.gstatic.com/mapfiles/place_api/icons/v1/png_71/bar-71.png", "icon_background_color": "#FF9E67", "icon_mask_base_uri": "https://maps.gstatic.com/mapfiles/place_api/icons/v2/bar_pinlet", "international_phone_number": "+34 660 86 45 46", "name": "Buda Bar", "opening_hours": {"open_now": false}, "photos": [{"height": 802, "html_attributions": ["<a href=\"https://maps.google.com/maps/contrib/101252724951531173773\">luisito Brea</a>"], "photo_reference": "AWn5SU6oYgW2qms_HKarT7jWyRx_ZCFcMasAwRtVpJ_8CmyP1NS3fvbPfYA0661ivDg8LRZlz-U1w789qQyceFTHib7Ef4qL1ddYmG3HaHpMN-i_rNXkitzitETw2MnIWgVl-YTMfkBqrJYYBZvMkGtbTxdJNVpgpvC79FG_q8bgAe-dA6ddtmLqhqgMN3QlwLcWSpiy2OPNblNFrllwDDLS_8gsW_QmMX-M0tId0Vd4yRULH3yUgvPHHERVn5IsWRdc5Bl_8d2naWIQNAuWrlYQo5nsr-SAIhdWHypnPzRoqkvwSc-F4BTmWeU9VB20JY5E6jJe7Ip9gfElJaxb5DVH-fm96uPzG54JD3YktN-iS4ndZJA1SQNbx13YHEUQ-eBNpMPDEySscYqBlR7iSDfLs2-B81JjwE_V3fslFort29h2lW40Ryo7Y9N-VjJVHZYJB-k-26Ti1zf8Y-hOemLVwLkV2h38BvZ5LKqL6fSruLxTp8zeropCSQUh_7xhNjqrgaaEUU_tAsbH9VN_GfSxkXPgrN2S-QKFekczR8mb1zT_wzsInijkiNVwV4jqcyjTIbdizC5E-al0fZgCszBbfZcbvY4h5g25Ktjf5QlJucLsiW75S2aIzffCm5ADDbsxPEhKPg4H", "width": 1080}], "place_id": "ChIJ_bin0PphQg0RbZhuXijg7L0", "plus_code": {"compound_code": "6VJR+7C Brea de Tajo, Spain", "global_code": "8CGR6VJR+7C"}, "rating": 4.8, "reference": "ChIJ_bin0PphQg0RbZhuXijg7L0", "scope": "GOOGLE", "types": ["bar", "point_of_interest", "establishment"], "user_ratings_total": 19, "vicinity": "Calle Cervantes, 8, Brea de Tajo"}, {"geometry": {"location": {"lat": 40.2280557, "lng": -3.114837099999999}, "viewport": {"northeast": {"lat": 40.23657406436359, "lng": -3.098829676228582}, "southwest": {"lat": 40.2195362642007, "lng": -3.130844523771417}}}, "icon": "https://maps.gstatic.com/mapfiles/place_api/icons/v1/png_71/geocode-71.png", "icon_background_color": "#7B9EB0", "icon_mask_base_uri": "https://maps.gstatic.com/mapfiles/place_api/icons/v2/generic_pinlet", "name": "Urbanización las Vegas del Tajo", "place_id": "ChIJYd_r5DRgQg0Rby1axHMsnZ0", "reference": "ChIJYd_r5DRgQg0Rby1axHMsnZ0", "scope": "GOOGLE", "types": ["neighborhood", "political"], "vicinity": "Brea de Tajo"}]