[{"business_status": "OPERATIONAL", "geometry": {"location": {"lat": 40.30069870000001, "lng": -4.444071399999999}, "viewport": {"northeast": {"lat": 40.30204088029149, "lng": -4.442846619708498}, "southwest": {"lat": 40.2993429197085, "lng": -4.445544580291503}}}, "icon": "https://maps.gstatic.com/mapfiles/place_api/icons/v1/png_71/gas_station-71.png", "icon_background_color": "#909CE1", "icon_mask_base_uri": "https://maps.gstatic.com/mapfiles/place_api/icons/v2/gas_pinlet", "international_phone_number": "+34 918 64 01 84", "name": "Estacion de Servicio Alpe SA", "opening_hours": {"open_now": false}, "photos": [{"height": 2690, "html_attributions": ["<a href=\"https://maps.google.com/maps/contrib/105929294975429101403\">Estacion de Servicio Alpe SA</a>"], "photo_reference": "AWn5SU5Bscp_9qpnMrSSH-D-R4GVxSissi8Bf8z2X8eF1ZEhufRjvpBeFPCMiOgt-wSeA1MGuB2k6tZFz5YRAYUJI4CvsopnIhaQ0upQ3B8LGCNKsm-ZlbKrg6CiSxWlZaNDL7RmyV4Tt89UuPDa1c3Eaye3no1GKNnCxP9RwO2QwyDgy9TSb4KDGwfLse-_xmcNaPxkfLZ7pca3Z5kq-vDcw4PZTyLcD__mCm5XYI8Nkmqiw3vjBkmw1_F6HmmzKHnxYAFM3nL63boobNE257Gp9sTal2uX33az4eJL8shvuId10z5BZxSXV1ymyCxrUMKmUopwpwBIsik", "width": 4057}], "place_id": "ChIJcWhs_oFLQA0RYTQjqnUe86M", "plus_code": {"compound_code": "8H24+79 Cadalso de los Vidrios, Spain", "global_code": "8CGQ8H24+79"}, "rating": 4, "reference": "ChIJcWhs_oFLQA0RYTQjqnUe86M", "scope": "GOOGLE", "types": ["gas_station", "point_of_interest", "establishment"], "user_ratings_total": 154, "vicinity": "Plaza Fuente de los Álamos, 12, Cadalso de los Vidrios"}, {"business_status": "OPERATIONAL", "geometry": {"location": {"lat": 40.2937982, "lng": -4.4217928}, "viewport": {"northeast": {"lat": 40.2951790302915, "lng": -4.420442569708498}, "southwest": {"lat": 40.29248106970851, "lng": -4.423140530291501}}}, "icon": "https://maps.gstatic.com/mapfiles/place_api/icons/v1/png_71/gas_station-71.png", "icon_background_color": "#909CE1", "icon_mask_base_uri": "https://maps.gstatic.com/mapfiles/place_api/icons/v2/gas_pinlet", "name": "Gasoleos Cadalso, S.L.", "place_id": "ChIJ1e6y5mhLQA0R7xAL8y3VwSg", "plus_code": {"compound_code": "7HVH+G7 Cadalso de los Vidrios, Spain", "global_code": "8CGQ7HVH+G7"}, "reference": "ChIJ1e6y5mhLQA0R7xAL8y3VwSg", "scope": "GOOGLE", "types": ["gas_station", "point_of_interest", "establishment"], "vicinity": "Spain"}, {"business_status": "OPERATIONAL", "geometry": {"location": {"lat": 40.2618349, "lng": -4.472413899999999}, "viewport": {"northeast": {"lat": 40.2632072802915, "lng": -4.470991169708498}, "southwest": {"lat": 40.2605093197085, "lng": -4.473689130291501}}}, "icon": "https://maps.gstatic.com/mapfiles/place_api/icons/v1/png_71/gas_station-71.png", "icon_background_color": "#909CE1", "icon_mask_base_uri": "https://maps.gstatic.com/mapfiles/place_api/icons/v2/gas_pinlet", "name": "Gasoleos F.Cenicientos S.L.", "place_id": "ChIJLzbL4yxKQA0RHgiD5etLw6A", "plus_code": {"compound_code": "7G6H+P2 Cenicientos, Spain", "global_code": "8CGQ7G6H+P2"}, "rating": 4, "reference": "ChIJLzbL4yxKQA0RHgiD5etLw6A", "scope": "GOOGLE", "types": ["gas_station", "point_of_interest", "establishment"], "user_ratings_total": 4, "vicinity": "Travesía de la Carretera de Escalona, Cenicientos"}, {"business_status": "OPERATIONAL", "geometry": {"location": {"lat": 40.26272869999999, "lng": -4.4761354}, "viewport": {"northeast": {"lat": 40.2640101802915, "lng": -4.474730419708497}, "southwest": {"lat": 40.2613122197085, "lng": -4.477428380291502}}}, "icon": "https://maps.gstatic.com/mapfiles/place_api/icons/v1/png_71/gas_station-71.png", "icon_background_color": "#909CE1", "icon_mask_base_uri": "https://maps.gstatic.com/mapfiles/place_api/icons/v2/gas_pinlet", "international_phone_number": "+34 918 64 24 42", "name": "Gasoleos Cenicientos", "opening_hours": {"open_now": false}, "photos": [{"height": 2304, "html_attributions": ["<a href=\"https://maps.google.com/maps/contrib/116909486497198960684\">Sergey Batalov</a>"], "photo_reference": "AWn5SU5k3Y5wPqauKXb34tBo7zzrb1jLvhUar2rFrbw3NZcPS4gcYFQMmAl-0WTnvnkQlKTgfW4419Xznkp6vWUNeIFHjIzaGmiFdh4AWRKBPBWkoW_ckREqN0GzRRIJxSW7iMcznJzYtW-pfKl4Xl3jLizAbSjAet_giQlKsgyUUSL4zboq2JTbbdQ4EXTj2oAdWaSJrJHFDYAfbAVAT6Rygt9SfmWUfS2XjQOL9Wk7u1N2_g3epuyamrameREe5eqG16EHPSlnSPAN1xU8pFGtASsiXfwevve_3dgRYQE0k-NJtoNzSNwU4pcrA1R2x4y13szGLGwdXCiPGsDqMlWExiBG_8WG5hf4eM0meQSHUOOA5O7Ta7T2XqP8HDVo6uCk3FHFWIChXys31dQXLeq0JHqgp9-u-VM6x0jCZtqgf5UHU5B5mGW36796hDI9Jp1geCnY2giB97B2fpesVOXqC52OhgsOlCLTUOz4szHjD4b5sS1maQ8K_WydxXsqERSCVlgFTpc6l2MlmBk_j0vnqCqiC6_zvWmJSQYZCHrstMM4iQVuoh15iQoNm8J5CtK89iylNEu4kJzenflOgFSC90Ec_GN_uITux6xNywt5xYQgeyGQlLmjBkAm3sSnxAm2QOIs4A", "width": 4096}], "place_id": "ChIJ3075NytKQA0RIf4qzj9Zrf4", "plus_code": {"compound_code": "7G7F+3G Cenicientos, Spain", "global_code": "8CGQ7G7F+3G"}, "rating": 4.1, "reference": "ChIJ3075NytKQA0RIf4qzj9Zrf4", "scope": "GOOGLE", "types": ["gas_station", "point_of_interest", "establishment"], "user_ratings_total": 38, "vicinity": "Calle de la de los Caños, 108, Cenicientos"}, {"business_status": "OPERATIONAL", "geometry": {"location": {"lat": 40.2626911, "lng": -4.476097000000001}, "viewport": {"northeast": {"lat": 40.2639926302915, "lng": -4.474708669708499}, "southwest": {"lat": 40.2612946697085, "lng": -4.477406630291504}}}, "icon": "https://maps.gstatic.com/mapfiles/place_api/icons/v1/png_71/gas_station-71.png", "icon_background_color": "#909CE1", "icon_mask_base_uri": "https://maps.gstatic.com/mapfiles/place_api/icons/v2/gas_pinlet", "name": "Gasoleos Sierra Oeste,SL", "opening_hours": {"open_now": false}, "place_id": "ChIJCQBKNitKQA0Rt8I34C0v6P4", "plus_code": {"compound_code": "7G7F+3H Cenicientos, Spain", "global_code": "8CGQ7G7F+3H"}, "rating": 1, "reference": "ChIJCQBKNitKQA0Rt8I34C0v6P4", "scope": "GOOGLE", "types": ["gas_station", "point_of_interest", "establishment"], "user_ratings_total": 2, "vicinity": "Avenida Claudio Sanchez Albornoz, 50, Cenicientos"}]