[{"business_status": "OPERATIONAL", "geometry": {"location": {"lat": 40.6220538, "lng": -3.9077054}, "viewport": {"northeast": {"lat": 40.6234010302915, "lng": -3.906365719708498}, "southwest": {"lat": 40.6207030697085, "lng": -3.909063680291503}}}, "icon": "https://maps.gstatic.com/mapfiles/place_api/icons/v1/png_71/generic_business-71.png", "icon_background_color": "#7B9EB0", "icon_mask_base_uri": "https://maps.gstatic.com/mapfiles/place_api/icons/v2/generic_pinlet", "name": "Pza.Nuestra Sra.Rosario-PºMayor", "photos": [{"height": 4032, "html_attributions": ["<a href=\"https://maps.google.com/maps/contrib/105109796970403779248\">Antonio Cruz</a>"], "photo_reference": "AWn5SU6L8y2Q5n-W3hmCbwjRUG2IBICnmf0Go5xUEm7vNrEuQFq8V242CMANOSoNw79XcPXwcDbiLIkiqlyr5l0tiiohKhZ2ljsCUQPqWk4TghLVixKnz8T_FIEGOrQBNoKKV6p4nrLoIpjeikD1m3tLbzTKAfVkyIyRDumyp49f0CKeFfqNrLnPnEqAYwfb7fSdziFBS3q6t1D0gc5gA-MVofC9o93skeosXSPwobrUEds6cYT5jVYNFiMVQbArw3IU2ywf5qwuV-htw1_Xww_ZgkaoLGT6HbNjJmbzdgOXD9GLAh-mDFDhqYJEupRSkeKMpZERwvmZhSmfSifhiCd7D9CWiacUM_rcspjibPVTN-1_VQKboTjfJj90RVUqPq8on-1RzujQa9Pqooq2P2inWmVLn_YENSLxj6bq5u_UkAi8-N-eGjDKRClSuCbV4I7wtW0jYO30GAj5iwa_vIByqabowpNkiFRTAzmX04ivf-EWbaqlmo-gPBBiDFs5X2aFFnTNtrjzF-AVGcaRtlru7Uy8osBoAxGTFDBAnY4D9A2zDmXTOval-FUmzPpGu5esgR-SmIuuK5_Ql8aVpvRgu2GZVPEOC-5KLNo9O4LSVg9EWGtDp56QC-OtnTBe2QIe6lZSIxqo", "width": 3024}], "place_id": "ChIJp5B89WJ3QQ0RVgLJpKbh4q0", "plus_code": {"compound_code": "J3CR+RW Hoyo de Manzanares, Spain", "global_code": "8CGRJ3CR+RW"}, "rating": 4.5, "reference": "ChIJp5B89WJ3QQ0RVgLJpKbh4q0", "scope": "GOOGLE", "types": ["transit_station", "point_of_interest", "establishment"], "user_ratings_total": 2, "vicinity": "Spain"}, {"business_status": "OPERATIONAL", "geometry": {"location": {"lat": 40.62187369999999, "lng": -3.907691100000001}, "viewport": {"northeast": {"lat": 40.6232132302915, "lng": -3.906384969708498}, "southwest": {"lat": 40.6205152697085, "lng": -3.909082930291503}}}, "icon": "https://maps.gstatic.com/mapfiles/place_api/icons/v1/png_71/generic_business-71.png", "icon_background_color": "#7B9EB0", "icon_mask_base_uri": "https://maps.gstatic.com/mapfiles/place_api/icons/v2/generic_pinlet", "name": "Pza.Nuestra Sra.Rosario-PºMayor", "photos": [{"height": 3456, "html_attributions": ["<a href=\"https://maps.google.com/maps/contrib/115812727027981322097\">Francisco Morales Fernandez</a>"], "photo_reference": "AWn5SU4oswXmLo1IfE2lfkSu1GIsfa91DDqF8QCsLxYNOOKL_AW1DFsJamFvckkw84fqtyOXSf-SA4BNaRx7XoATWfn4B50lkBgsyy-lhJmO4Nx6WYX7Vs_DIn2-26NVQYdN6Gpuv0trtYiSZb3mWJ8lp2HRMXgEvFu52PyiRhzL8_SIrkiOoSdg8LuHeQiBbZ8hn5NiDUNhRZFCHiEWX_rJ59bZmCmbY_PbaDkxu2Rfd3-bpsvWD_nol9G12e7j6_lUH_yxYnFIZD3jUYyZdX9J-Z4B8ifc-FalL8wm7Hvj5b6zwwoRcDevJegjkiGziOs0HYk6Ho9k2EsZrjKh2ro1KWT9rsEdRDz_jv5nUy9WLO9-GBmxUkFLo7RRPjDdEPK2GhKcNlpAjDnbGZWrZ9Y0S7CZQ9R9FYDoe7XIAeG1kJ4kzn04X4Sb__cdvEHs7XE4_3zxAr83H--IbtReV8ayqU-U1MT3DVm5iNUKmF4qjfD4hncFCT9GiWICYHgXGfiX3Gme0o1pSlLHaqfQxt1CWoMy9JfIBoWtWr6oT2AJ-dhMwDP4G3LOCzSPmVKeLAyDwRUjm2sCBqc__406xR8aOnB46A-9-gD-aqjSufm6dbTWQr9AWi0obhrAXbyznc8rzLWA1w", "width": 4608}], "place_id": "ChIJWWrT9GJ3QQ0RRWxnNFr8pCI", "plus_code": {"compound_code": "J3CR+PW Hoyo de Manzanares, Spain", "global_code": "8CGRJ3CR+PW"}, "rating": 5, "reference": "ChIJWWrT9GJ3QQ0RRWxnNFr8pCI", "scope": "GOOGLE", "types": ["transit_station", "point_of_interest", "establishment"], "user_ratings_total": 1, "vicinity": "Spain"}, {"business_status": "OPERATIONAL", "geometry": {"location": {"lat": 40.6217113, "lng": -3.9065776}, "viewport": {"northeast": {"lat": 40.6230305302915, "lng": -3.905237319708498}, "southwest": {"lat": 40.6203325697085, "lng": -3.907935280291502}}}, "icon": "https://maps.gstatic.com/mapfiles/place_api/icons/v1/png_71/bus-71.png", "icon_background_color": "#10BDFF", "icon_mask_base_uri": "https://maps.gstatic.com/mapfiles/place_api/icons/v2/bus_share_taxi_pinlet", "name": "Hurtada-Pza.Iglesia", "photos": [{"height": 4032, "html_attributions": ["<a href=\"https://maps.google.com/maps/contrib/103121358972064803233\">Héctor Torre</a>"], "photo_reference": "AWn5SU4jm0BPJCR6Z-EPhPjZCBBNsldrkcokSNfNOoJzKS5_jZitixD0E-PJz4YQK-hba7RYFk-onU0AuXLQDX14JrSjI-zQYNjNdaQ-rPZDQbmFVfrTJ2K-cMtSqRLgv-Smp5moCAybTnOddJU-JVAZUOZp83dVunwsGp-Pbp5GO5zq7cxT_e5MutUmRFaKZg7OvAFjzD1SGlMZZILn-jw1ghPH_cPZwuwkOwdgqeCsgm3txiCokqaGo2TBLXFdNd7VthVoidiySWSjTfDtzY3UgL-7wMDVvxeR2TdBru-wv2obGi2Fc9daSAjdCDI_JI0IijtlVIjb0-wJ1szgDozRBpyPMeE70VSd7TDo-Pvnvjwo_Wg9M99AlG4b8uOdyLDFCkomuiOW2wQhryt1EVcQXmGrwAmAdRg4WFPgZQpqx_M9cYSeQa_ebFQSt8zAB5W29eswKF7kfIp38VSmhBXzdWkzX4_Vp_6TStz4emfA59URPwE2Bgyf_q8zC23UpjquD9AxzigV47Zkq0pgup-aLhXIOONDiXPETxW8drOMoEf1ZQrv06Zpyc9REXoDQs65hJY8qdoutVxbL-A6-7HUP8hFC34kTjCr3Bz_TSDwyfnZ5yZrWQwrNmgM7hZnlCVDWw0Y2g", "width": 3024}], "place_id": "ChIJjwbeg2J3QQ0RvTunffUeYgg", "plus_code": {"compound_code": "J3CV+M9 Hoyo de Manzanares, Spain", "global_code": "8CGRJ3CV+M9"}, "reference": "ChIJjwbeg2J3QQ0RvTunffUeYgg", "scope": "GOOGLE", "types": ["bus_station", "transit_station", "point_of_interest", "establishment"], "vicinity": "Spain"}, {"business_status": "OPERATIONAL", "geometry": {"location": {"lat": 40.6214193, "lng": -3.9059116}, "viewport": {"northeast": {"lat": 40.6228129302915, "lng": -3.904543519708497}, "southwest": {"lat": 40.6201149697085, "lng": -3.907241480291502}}}, "icon": "https://maps.gstatic.com/mapfiles/place_api/icons/v1/png_71/generic_business-71.png", "icon_background_color": "#7B9EB0", "icon_mask_base_uri": "https://maps.gstatic.com/mapfiles/place_api/icons/v2/generic_pinlet", "name": "Hurtada-Pza.Iglesia", "photos": [{"height": 3000, "html_attributions": ["<a href=\"https://maps.google.com/maps/contrib/117376499940840720555\">Nestor Aparicio</a>"], "photo_reference": "AWn5SU6rKxnCVSl7MlcZM8U5dq9d9HFY3NGNdR2-cmQonjJHWtSQr8lx4jm0iIAntHoSELP2tL3w2JDedWXsKKesd6Nf2s9v0RyipqbEwHszsJuoNAWghP33utkbqdrph9SiS_NmZZaqPbGHEfdGymhOnTQtVlQGCef3PrxBzUulrHlYgFfXFh1Pj94SafhbafJDUKZrlbDs27XzOQXE9SkSJrVHGyQ5rm3jg1Qn17dhMZTDcVKC4wUPN4mh83OvbNpyraXTOAHaAy-VmS7MV2vU8dPr-9FGsOoZksRt6SvBc8FijpPLVVVNaIgO3GGEMFUQrH8k6xqtdyGwCw5RCMIF4EuUuYpkP7smLGsS5qSDQlddx6VzoELuCjvaL8x4GOuGGLT_GoAer2QPSNilGVE2CAQ_QQKGvh5oEcvB4pBtmtkh24ITepv862MtF1N81tKV_eNooChclPq0-xyHQs4J7f8f_KepXFkzA9CY4wfo75oGeGJC_jO_7ICBFiYgEFDl5SnBhw124c7cpsQOe6nyiytnl3vTAA1libnzFUonEHDADNF6WQ3yyoACXsBMVDRr3LuylKtZAvWp3xrJ5kjQkQ0pxgOVCL3Amhiv3klF5p1W_kErIdqiuMOFvKkeI5CN", "width": 4000}], "place_id": "ChIJuVS3cNh5QQ0RvyEYGMRH0ZQ", "plus_code": {"compound_code": "J3CV+HJ Hoyo de Manzanares, Spain", "global_code": "8CGRJ3CV+HJ"}, "reference": "ChIJuVS3cNh5QQ0RvyEYGMRH0ZQ", "scope": "GOOGLE", "types": ["transit_station", "point_of_interest", "establishment"], "vicinity": "Spain"}, {"business_status": "OPERATIONAL", "geometry": {"location": {"lat": 40.61921, "lng": -3.907300000000001}, "viewport": {"northeast": {"lat": 40.6205643802915, "lng": -3.905902819708498}, "southwest": {"lat": 40.61786641970851, "lng": -3.908600780291503}}}, "icon": "https://maps.gstatic.com/mapfiles/place_api/icons/v1/png_71/generic_business-71.png", "icon_background_color": "#7B9EB0", "icon_mask_base_uri": "https://maps.gstatic.com/mapfiles/place_api/icons/v2/generic_pinlet", "name": "Av.Madrid-El Cerrillo", "place_id": "ChIJgYlotmJ3QQ0RgV4RYOJfQws", "plus_code": {"compound_code": "J39V+M3 Hoyo de Manzanares, Spain", "global_code": "8CGRJ39V+M3"}, "rating": 1, "reference": "ChIJgYlotmJ3QQ0RgV4RYOJfQws", "scope": "GOOGLE", "types": ["transit_station", "point_of_interest", "establishment"], "user_ratings_total": 1, "vicinity": "Spain"}, {"business_status": "OPERATIONAL", "geometry": {"location": {"lat": 40.62300269999999, "lng": -3.902481899999999}, "viewport": {"northeast": {"lat": 40.62433358029151, "lng": -3.901096619708498}, "southwest": {"lat": 40.62163561970851, "lng": -3.903794580291502}}}, "icon": "https://maps.gstatic.com/mapfiles/place_api/icons/v1/png_71/generic_business-71.png", "icon_background_color": "#7B9EB0", "icon_mask_base_uri": "https://maps.gstatic.com/mapfiles/place_api/icons/v2/generic_pinlet", "name": "Hurtada-Urb.Los Enebrales", "place_id": "ChIJX7PFQtl5QQ0RPPpu3OAtJv0", "plus_code": {"compound_code": "J3FX+62 Hoyo de Manzanares, Spain", "global_code": "8CGRJ3FX+62"}, "reference": "ChIJX7PFQtl5QQ0RPPpu3OAtJv0", "scope": "GOOGLE", "types": ["transit_station", "point_of_interest", "establishment"], "vicinity": "Spain"}, {"business_status": "OPERATIONAL", "geometry": {"location": {"lat": 40.6214908, "lng": -3.911705599999999}, "viewport": {"northeast": {"lat": 40.6228446302915, "lng": -3.910359419708497}, "southwest": {"lat": 40.6201466697085, "lng": -3.913057380291502}}}, "icon": "https://maps.gstatic.com/mapfiles/place_api/icons/v1/png_71/generic_business-71.png", "icon_background_color": "#7B9EB0", "icon_mask_base_uri": "https://maps.gstatic.com/mapfiles/place_api/icons/v2/generic_pinlet", "name": "Av.Paloma-Plaza de Toros", "place_id": "ChIJBxUchWR3QQ0RZu8RPq-GTFo", "plus_code": {"compound_code": "J3CQ+H8 Hoyo de Manzanares, Spain", "global_code": "8CGRJ3CQ+H8"}, "reference": "ChIJBxUchWR3QQ0RZu8RPq-GTFo", "scope": "GOOGLE", "types": ["transit_station", "point_of_interest", "establishment"], "vicinity": "Spain"}, {"business_status": "OPERATIONAL", "geometry": {"location": {"lat": 40.62323, "lng": -3.902069999999999}, "viewport": {"northeast": {"lat": 40.62459648029149, "lng": -3.900747519708498}, "southwest": {"lat": 40.62189851970849, "lng": -3.903445480291503}}}, "icon": "https://maps.gstatic.com/mapfiles/place_api/icons/v1/png_71/generic_business-71.png", "icon_background_color": "#7B9EB0", "icon_mask_base_uri": "https://maps.gstatic.com/mapfiles/place_api/icons/v2/generic_pinlet", "name": "Hurtada-Urb.Los Enebrales", "place_id": "ChIJyYcLXdl5QQ0RESQPw6zT_Ks", "plus_code": {"compound_code": "J3FX+75 Hoyo de Manzanares, Spain", "global_code": "8CGRJ3FX+75"}, "reference": "ChIJyYcLXdl5QQ0RESQPw6zT_Ks", "scope": "GOOGLE", "types": ["transit_station", "point_of_interest", "establishment"], "vicinity": "Spain"}, {"business_status": "OPERATIONAL", "geometry": {"location": {"lat": 40.6213967, "lng": -3.9122127}, "viewport": {"northeast": {"lat": 40.6227583302915, "lng": -3.910870219708498}, "southwest": {"lat": 40.6200603697085, "lng": -3.913568180291502}}}, "icon": "https://maps.gstatic.com/mapfiles/place_api/icons/v1/png_71/generic_business-71.png", "icon_background_color": "#7B9EB0", "icon_mask_base_uri": "https://maps.gstatic.com/mapfiles/place_api/icons/v2/generic_pinlet", "name": "Av.Paloma-Plaza de Toros", "photos": [{"height": 4128, "html_attributions": ["<a href=\"https://maps.google.com/maps/contrib/118214037710698012871\">FLORENVELEZ71@GMAIL.COM Velez Romero</a>"], "photo_reference": "AWn5SU5R-hBG8HcKR6-PpWa73dYoTv9mlNGH-aPvwAxBX7D34jgHyfoPCG3sB9cq0l3Rm8-4jA69twAE_7qXct78IRv50Mi3XSTldVmoqFApGUwUUpC4eRHGXYLRLiuq_eNyL6FINGRt01u_jT1M8CuxzVcHOg0jOWxJjCq6dLpMocL4EJsJdfSzfWENONJuRo6H2CVYoLR5z7GZzHyNbUCqVRlxk9YTToel15bN3cJEOzrnt0AkNcIq1yev1mjvF02YES2TKKT6aFFC27-I1eLs8WhVnwKEAl-umlRtoRs5Col0uTNzulCmRuNq3Op4s5T1R4-rBLEPTW9i-1_5qa4C-9Rxo6yIglzJAOIeYUBTbM6lEtRiFKbUR7g6lRm5fBVcDuciC35ZtzVDIjVHHZv3N_RH_i0tIZxw9lucJo3Ay13zKgwrAFcGcDhtKepGA1Hh8IpIpGQ_p2Uhrfh26wUv2ZOimOJ-W7XsZr7uVyuuLyeNBIZ3edG03Ud7XIJ-W2BTlU0bjdUCPi6F3E0t1gzXZMHR9kBpvj3CW1oO_YYFANNxnHvyCc4_wC7dGqKF3h-biOQNCpdO2-Xqe6QnkbFd9fb1EMi5C-wBLKeE1BMFuCTFoZkBsfR2Y3t3M8rLBUCgkDozfA", "width": 2322}], "place_id": "ChIJTz-YjmR3QQ0R-1BRWnAHbEQ", "plus_code": {"compound_code": "J3CQ+H4 Hoyo de Manzanares, Spain", "global_code": "8CGRJ3CQ+H4"}, "reference": "ChIJTz-YjmR3QQ0R-1BRWnAHbEQ", "scope": "GOOGLE", "types": ["transit_station", "point_of_interest", "establishment"], "vicinity": "Spain"}, {"business_status": "OPERATIONAL", "geometry": {"location": {"lat": 40.61852819999999, "lng": -3.906972}, "viewport": {"northeast": {"lat": 40.6198716802915, "lng": -3.905667919708498}, "southwest": {"lat": 40.6171737197085, "lng": -3.908365880291502}}}, "icon": "https://maps.gstatic.com/mapfiles/place_api/icons/v1/png_71/generic_business-71.png", "icon_background_color": "#7B9EB0", "icon_mask_base_uri": "https://maps.gstatic.com/mapfiles/place_api/icons/v2/generic_pinlet", "name": "Av.Madrid-Residencial El Pozo", "place_id": "ChIJ8W5BQ313QQ0REWFpH4rdroY", "plus_code": {"compound_code": "J39V+C6 Hoyo de Manzanares, Spain", "global_code": "8CGRJ39V+C6"}, "reference": "ChIJ8W5BQ313QQ0REWFpH4rdroY", "scope": "GOOGLE", "types": ["transit_station", "point_of_interest", "establishment"], "vicinity": "Spain"}, {"business_status": "OPERATIONAL", "geometry": {"location": {"lat": 40.6170961, "lng": -3.9046473}, "viewport": {"northeast": {"lat": 40.6184357802915, "lng": -3.903309319708498}, "southwest": {"lat": 40.6157378197085, "lng": -3.906007280291502}}}, "icon": "https://maps.gstatic.com/mapfiles/place_api/icons/v1/png_71/generic_business-71.png", "icon_background_color": "#7B9EB0", "icon_mask_base_uri": "https://maps.gstatic.com/mapfiles/place_api/icons/v2/generic_pinlet", "name": "Av.Madrid-Tejera", "place_id": "ChIJJ5AYU9Z5QQ0RWAZqKa46qsU", "plus_code": {"compound_code": "J38W+R4 Hoyo de Manzanares, Spain", "global_code": "8CGRJ38W+R4"}, "reference": "ChIJJ5AYU9Z5QQ0RWAZqKa46qsU", "scope": "GOOGLE", "types": ["transit_station", "point_of_interest", "establishment"], "vicinity": "Spain"}, {"business_status": "OPERATIONAL", "geometry": {"location": {"lat": 40.6170334, "lng": -3.9045992}, "viewport": {"northeast": {"lat": 40.6183894802915, "lng": -3.903241719708498}, "southwest": {"lat": 40.61569151970851, "lng": -3.905939680291502}}}, "icon": "https://maps.gstatic.com/mapfiles/place_api/icons/v1/png_71/generic_business-71.png", "icon_background_color": "#7B9EB0", "icon_mask_base_uri": "https://maps.gstatic.com/mapfiles/place_api/icons/v2/generic_pinlet", "name": "Av.Madrid-Tejera", "place_id": "ChIJE6-TTNZ5QQ0R_CqKn_mCKlU", "plus_code": {"compound_code": "J38W+R5 Hoyo de Manzanares, Spain", "global_code": "8CGRJ38W+R5"}, "reference": "ChIJE6-TTNZ5QQ0R_CqKn_mCKlU", "scope": "GOOGLE", "types": ["transit_station", "point_of_interest", "establishment"], "vicinity": "Spain"}, {"business_status": "OPERATIONAL", "geometry": {"location": {"lat": 40.6190984, "lng": -3.9157636}, "viewport": {"northeast": {"lat": 40.6204666802915, "lng": -3.914438019708498}, "southwest": {"lat": 40.61776871970851, "lng": -3.917135980291503}}}, "icon": "https://maps.gstatic.com/mapfiles/place_api/icons/v1/png_71/generic_business-71.png", "icon_background_color": "#7B9EB0", "icon_mask_base_uri": "https://maps.gstatic.com/mapfiles/place_api/icons/v2/generic_pinlet", "name": "Av.Paloma-Fausto Martín", "place_id": "ChIJ3wjDrXp3QQ0R74hIC6-W_pA", "plus_code": {"compound_code": "J39M+JM Hoyo de Manzanares, Spain", "global_code": "8CGRJ39M+JM"}, "rating": 1, "reference": "ChIJ3wjDrXp3QQ0R74hIC6-W_pA", "scope": "GOOGLE", "types": ["transit_station", "point_of_interest", "establishment"], "user_ratings_total": 1, "vicinity": "Spain"}, {"business_status": "OPERATIONAL", "geometry": {"location": {"lat": 40.619088, "lng": -3.9159408}, "viewport": {"northeast": {"lat": 40.6204348302915, "lng": -3.914588619708498}, "southwest": {"lat": 40.6177368697085, "lng": -3.917286580291502}}}, "icon": "https://maps.gstatic.com/mapfiles/place_api/icons/v1/png_71/generic_business-71.png", "icon_background_color": "#7B9EB0", "icon_mask_base_uri": "https://maps.gstatic.com/mapfiles/place_api/icons/v2/generic_pinlet", "name": "Av.Paloma-Fausto Martín", "place_id": "ChIJabT_rHp3QQ0RG-FXP5D0aiU", "plus_code": {"compound_code": "J39M+JJ Hoyo de Manzanares, Spain", "global_code": "8CGRJ39M+JJ"}, "reference": "ChIJabT_rHp3QQ0RG-FXP5D0aiU", "scope": "GOOGLE", "types": ["transit_station", "point_of_interest", "establishment"], "vicinity": "Spain"}, {"business_status": "OPERATIONAL", "geometry": {"location": {"lat": 40.60539579999999, "lng": -3.9044068}, "viewport": {"northeast": {"lat": 40.60675443029149, "lng": -3.903061169708498}, "southwest": {"lat": 40.60405646970849, "lng": -3.905759130291502}}}, "icon": "https://maps.gstatic.com/mapfiles/place_api/icons/v1/png_71/generic_business-71.png", "icon_background_color": "#7B9EB0", "icon_mask_base_uri": "https://maps.gstatic.com/mapfiles/place_api/icons/v2/generic_pinlet", "name": "Urb.Parque Las Colinas", "place_id": "ChIJE7UfOip4QQ0RTMyMc-uVZC8", "plus_code": {"compound_code": "J34W+56 Parque de las Colinas, Spain", "global_code": "8CGRJ34W+56"}, "rating": 5, "reference": "ChIJE7UfOip4QQ0RTMyMc-uVZC8", "scope": "GOOGLE", "types": ["transit_station", "point_of_interest", "establishment"], "user_ratings_total": 1, "vicinity": "Spain"}, {"business_status": "OPERATIONAL", "geometry": {"location": {"lat": 40.6147452, "lng": -3.9295589}, "viewport": {"northeast": {"lat": 40.61607698029149, "lng": -3.928204669708497}, "southwest": {"lat": 40.6133790197085, "lng": -3.930902630291502}}}, "icon": "https://maps.gstatic.com/mapfiles/place_api/icons/v1/png_71/generic_business-71.png", "icon_background_color": "#7B9EB0", "icon_mask_base_uri": "https://maps.gstatic.com/mapfiles/place_api/icons/v2/generic_pinlet", "name": "Av.Berzosa-Arra", "place_id": "ChIJkSjJZgx3QQ0R4aTpFJr1G1Q", "plus_code": {"compound_code": "J37C+V5 La Berzosa, Spain", "global_code": "8CGRJ37C+V5"}, "reference": "ChIJkSjJZgx3QQ0R4aTpFJr1G1Q", "scope": "GOOGLE", "types": ["transit_station", "point_of_interest", "establishment"], "vicinity": "Spain"}, {"business_status": "OPERATIONAL", "geometry": {"location": {"lat": 40.6146372, "lng": -3.9295456}, "viewport": {"northeast": {"lat": 40.61601228029149, "lng": -3.928204569708498}, "southwest": {"lat": 40.61331431970849, "lng": -3.930902530291502}}}, "icon": "https://maps.gstatic.com/mapfiles/place_api/icons/v1/png_71/generic_business-71.png", "icon_background_color": "#7B9EB0", "icon_mask_base_uri": "https://maps.gstatic.com/mapfiles/place_api/icons/v2/generic_pinlet", "name": "Av.Berzosa-Arra", "place_id": "ChIJyeAfZAx3QQ0RvteGFqCN2fM", "plus_code": {"compound_code": "J37C+V5 La Berzosa, Spain", "global_code": "8CGRJ37C+V5"}, "rating": 5, "reference": "ChIJyeAfZAx3QQ0RvteGFqCN2fM", "scope": "GOOGLE", "types": ["transit_station", "point_of_interest", "establishment"], "user_ratings_total": 1, "vicinity": "Spain"}, {"business_status": "OPERATIONAL", "geometry": {"location": {"lat": 40.62444010000001, "lng": -3.8822588}, "viewport": {"northeast": {"lat": 40.6257916302915, "lng": -3.880913819708498}, "southwest": {"lat": 40.6230936697085, "lng": -3.883611780291502}}}, "icon": "https://maps.gstatic.com/mapfiles/place_api/icons/v1/png_71/generic_business-71.png", "icon_background_color": "#7B9EB0", "icon_mask_base_uri": "https://maps.gstatic.com/mapfiles/place_api/icons/v2/generic_pinlet", "name": "Ctra.M618-Puerta 2 Campamento", "place_id": "ChIJVwBFPLl5QQ0RchIv5w5ZT7c", "plus_code": {"compound_code": "J4F9+Q3 Hoyo de Manzanares, Spain", "global_code": "8CGRJ4F9+Q3"}, "reference": "ChIJVwBFPLl5QQ0RchIv5w5ZT7c", "scope": "GOOGLE", "types": ["transit_station", "point_of_interest", "establishment"], "vicinity": "Spain"}, {"business_status": "OPERATIONAL", "geometry": {"location": {"lat": 40.6243598, "lng": -3.882151299999999}, "viewport": {"northeast": {"lat": 40.6257365802915, "lng": -3.880846019708498}, "southwest": {"lat": 40.6230386197085, "lng": -3.883543980291502}}}, "icon": "https://maps.gstatic.com/mapfiles/place_api/icons/v1/png_71/generic_business-71.png", "icon_background_color": "#7B9EB0", "icon_mask_base_uri": "https://maps.gstatic.com/mapfiles/place_api/icons/v2/generic_pinlet", "name": "Ctra.M618-Puerta 2 Campamento", "place_id": "ChIJLSkyPrl5QQ0RcfKQoJdNBiw", "plus_code": {"compound_code": "J4F9+P4 Hoyo de Manzanares, Spain", "global_code": "8CGRJ4F9+P4"}, "reference": "ChIJLSkyPrl5QQ0RcfKQoJdNBiw", "scope": "GOOGLE", "types": ["transit_station", "point_of_interest", "establishment"], "vicinity": "Spain"}]