[{"business_status": "OPERATIONAL", "geometry": {"location": {"lat": 40.8128907, "lng": -3.7708516}, "viewport": {"northeast": {"lat": 40.81426363029149, "lng": -3.769529619708498}, "southwest": {"lat": 40.81156566970849, "lng": -3.772227580291502}}}, "icon": "https://maps.gstatic.com/mapfiles/place_api/icons/v1/png_71/parking-71.png", "icon_background_color": "#7B9EB0", "icon_mask_base_uri": "https://maps.gstatic.com/mapfiles/place_api/icons/v2/parking_pinlet", "name": "Aparcamiento Reina Victoria", "place_id": "ChIJXzEbfABjQQ0RSNbFILzhU7Q", "plus_code": {"compound_code": "R67H+5M Miraflores de la Sierra, Spain", "global_code": "8CGRR67H+5M"}, "rating": 5, "reference": "ChIJXzEbfABjQQ0RSNbFILzhU7Q", "scope": "GOOGLE", "types": ["parking", "point_of_interest", "establishment"], "user_ratings_total": 1, "vicinity": "Calle Reina Victoria, 4-10, Miraflores de la Sierra"}, {"business_status": "OPERATIONAL", "geometry": {"location": {"lat": 40.81075669999999, "lng": -3.769021299999999}, "viewport": {"northeast": {"lat": 40.8121052802915, "lng": -3.767672819708498}, "southwest": {"lat": 40.8094073197085, "lng": -3.770370780291502}}}, "icon": "https://maps.gstatic.com/mapfiles/place_api/icons/v1/png_71/parking-71.png", "icon_background_color": "#7B9EB0", "icon_mask_base_uri": "https://maps.gstatic.com/mapfiles/place_api/icons/v2/parking_pinlet", "name": "Parking Carrefour Market", "place_id": "ChIJr8z0G45jQQ0RG9fgxvVjMsc", "plus_code": {"compound_code": "R66J+89 Miraflores de la Sierra, Spain", "global_code": "8CGRR66J+89"}, "rating": 5, "reference": "ChIJr8z0G45jQQ0RG9fgxvVjMsc", "scope": "GOOGLE", "types": ["parking", "point_of_interest", "establishment"], "user_ratings_total": 2, "vicinity": "Miraflores de la Sierra"}, {"business_status": "OPERATIONAL", "geometry": {"location": {"lat": 40.8147409, "lng": -3.784269}, "viewport": {"northeast": {"lat": 40.8161131802915, "lng": -3.782892019708497}, "southwest": {"lat": 40.8134152197085, "lng": -3.785589980291502}}}, "icon": "https://maps.gstatic.com/mapfiles/place_api/icons/v1/png_71/parking-71.png", "icon_background_color": "#7B9EB0", "icon_mask_base_uri": "https://maps.gstatic.com/mapfiles/place_api/icons/v2/parking_pinlet", "name": "Aparcamientos de La Fuente del Cura", "photos": [{"height": 3000, "html_attributions": ["<a href=\"https://maps.google.com/maps/contrib/116781791001773865261\">Francisco José Bartolomé</a>"], "photo_reference": "AWn5SU5e3A1Ap39q2DcoVJmFW_Gmnbo5F7PIVsLWOuvVdENUFXw8c1E1R0vOZCxC9_mW4txeIpIRUZr0zs5zEMsdHSK9Y4K1_Wek1s_R2aekTtXSOqa6hppxaC4xmFVLzOiZ-Yoy7hpPIK9XldWIukfCnGG80Stc6NuUTk7h8YIPYEQQ6CGUThMvV-Q81TD-WR_suJjNBudhYqrLwFl2A4U22IfSMSpcdd7KAdONlwi0aOl9_8oAghlJ3M5yWur_uLLA0HUo03VWgXlTjoBwmpPM-LP2FYaeOEi2IHlYHI1e2rxBLCnTPxWPJwk4WcYnaH9r9M21phhLJ0OV-Ma8ZgTJ6McOYgVkc0_12eRMeDYU3e7HjExhbAyHaF1bso3c6AUWqRcNhc7M09KcfLTCuWemT_HW3vd0-RdW7HLDb-zwYDakHr72b0_OIkdRBnCJJe40gFQbetvOXJMvqenOGWiiFPz6KbpKYCVNpbc372p-kT5LcHV0xt7de1dmlgBPJw1cJs2ZOXraBXzvgXLTYxr4ReM6QMZkkLjC32jDCOKmRMZQtZwzOecpXr_cJbe9Ffmd_j-fz1esSFaIGbXUR58MoZa31d1fM7M9UCcF-8Oute1tRuoz1cw8hfeUA-xbxul31l0b2qBBms9mCORvM30vWVkVrJ8", "width": 4000}], "place_id": "ChIJFU_jGgBjQQ0RJrXxHfrOFDQ", "plus_code": {"compound_code": "R678+V7 Miraflores de la Sierra, Spain", "global_code": "8CGRR678+V7"}, "rating": 4.5, "reference": "ChIJFU_jGgBjQQ0RJrXxHfrOFDQ", "scope": "GOOGLE", "types": ["parking", "point_of_interest", "establishment"], "user_ratings_total": 8, "vicinity": "Camino de la Fuente del Cura al Monte Aguirre, Miraflores de la Sierra"}]