[{"geometry": {"location": {"lat": 40.2520811, "lng": -3.8292478}, "viewport": {"northeast": {"lat": 40.28019503474984, "lng": -3.806866354258086}, "southwest": {"lat": 40.24149395329403, "lng": -3.844199754382859}}}, "icon": "https://maps.gstatic.com/mapfiles/place_api/icons/v1/png_71/geocode-71.png", "icon_background_color": "#7B9EB0", "icon_mask_base_uri": "https://maps.gstatic.com/mapfiles/place_api/icons/v2/generic_pinlet", "name": "Humanes de Madrid", "photos": [{"height": 2268, "html_attributions": ["<a href=\"https://maps.google.com/maps/contrib/112702808116081800302\">Gustavo Martin</a>"], "photo_reference": "AWn5SU4ddn963Q8KOZi4Cts-JcnK23924aM0xfI04R2uBBvExkFVBGsB6zTBno-Widp9wGeTNWKYPitSdr3_v0cQ2_-abD6F-UDnfPKrmyFXA1blKGIhbSnPZ-Dy8fJxsRSHXiOcGHk_4DBodBgjddxBikB2XRjSFQYvV1zfGJAiadk5Lk0P0hCjBuqf5oWi3lW4MyXReHewdwGE7YzFHs_Qr0eU-yqjL4pSnZ1F1Hjq1gVzPcfL4a8yl3ziWscwOKwHv6a55qWs8DlI1woO-JrdPZ95hM8PF_7OEismVhNgqGhChFhvOfX8TK4LmbTdhnXIlHy6lkFwGQX2s_07ntoBihiFmCVhfaf9PDLZbYwovW1opL8DKADhPjIxqRThWUXcoizIa-JYc5aiCLvECC_bXm3oNYLpTrWeX5GCVktQxKSh2JRA7MiEkKSQBa9Mb7p53BGKbf80VEAbvRYCmOrkwW0xoUiM6Ln-5YMOSx3iszr3nQHKCrJWUn1rapxPt9OWl3jlAfP96S83K7u99u8zAdVNvdSJR3uu2aYpSpJKDScyTYJcgeBUa3-XPSJTXTlFB9AFIN3xFE4Io4kRqJ1lVYlWYMakDrh8d1i3w3R2k7ox8V8yQAkzAPQzqaJurca54j0Le4uJ", "width": 4032}], "place_id": "ChIJFYlEOaiMQQ0RfiliGWNFLoo", "reference": "ChIJFYlEOaiMQQ0RfiliGWNFLoo", "scope": "GOOGLE", "types": ["locality", "political"], "vicinity": "Humanes de Madrid"}, {"business_status": "OPERATIONAL", "geometry": {"location": {"lat": 40.2654556, "lng": -3.8404861}, "viewport": {"northeast": {"lat": 40.26662983029149, "lng": -3.839214919708497}, "southwest": {"lat": 40.2639318697085, "lng": -3.841912880291502}}}, "icon": "https://maps.gstatic.com/mapfiles/place_api/icons/v1/png_71/bar-71.png", "icon_background_color": "#FF9E67", "icon_mask_base_uri": "https://maps.gstatic.com/mapfiles/place_api/icons/v2/bar_pinlet", "international_phone_number": "+34 916 15 64 02", "name": "Fabrik", "opening_hours": {"open_now": false}, "photos": [{"height": 2667, "html_attributions": ["<a href=\"https://maps.google.com/maps/contrib/109085295506406398386\">FABRIK</a>"], "photo_reference": "AWn5SU7dO6Y6arRevLwf1c5Usf4w28rE3hzXVZS3h4olZUKBYu35_XePtuMPzpDtaiQoMXWvObsmTGhgcB-BSTs34TFNX1kLeWIClWLbu29DUJYqi6d4ihXb22VNXj_vuENViiE5i5WYRbnfTaXHxMge0v6h7PEXXSHhne7klLI6QSaOREjdm2TaITPYtmfKhvwRfqmrcs7ondIx7JUwcKRNcaiOKGoeluPjLNS0AAFrwBL8B15RQKHuLpYi7eBAJ0lsXleXE3mInOeN040cA3O7gTlFkjYQdOpr6tM4-ac5kTEAWVs26GjdEUM3vT6KifuA7ESBr9QhSPk", "width": 4000}], "place_id": "ChIJQ4_eEb6MQQ0RJS-Nguh0T9A", "plus_code": {"compound_code": "7585+5R Humanes de Madrid, Spain", "global_code": "8CGR7585+5R"}, "price_level": 3, "rating": 4.4, "reference": "ChIJQ4_eEb6MQQ0RJS-Nguh0T9A", "scope": "GOOGLE", "types": ["night_club", "point_of_interest", "establishment"], "user_ratings_total": 11743, "vicinity": "Avenida de la Industria, 82, Humanes de Madrid"}, {"business_status": "OPERATIONAL", "geometry": {"location": {"lat": 40.2662134, "lng": -3.846233899999999}, "viewport": {"northeast": {"lat": 40.2675576302915, "lng": -3.844994119708497}, "southwest": {"lat": 40.2648596697085, "lng": -3.847692080291501}}}, "icon": "https://maps.gstatic.com/mapfiles/place_api/icons/v1/png_71/generic_business-71.png", "icon_background_color": "#7B9EB0", "icon_mask_base_uri": "https://maps.gstatic.com/mapfiles/place_api/icons/v2/generic_pinlet", "international_phone_number": "+34 916 09 40 01", "name": "RESHOIN", "place_id": "ChIJRc88R8CMQQ0R2wVGae4Mxu4", "plus_code": {"compound_code": "7583+FG Moraleja de Enmedio, Spain", "global_code": "8CGR7583+FG"}, "reference": "ChIJRc88R8CMQQ0R2wVGae4Mxu4", "scope": "GOOGLE", "types": ["car_repair", "point_of_interest", "establishment"], "vicinity": "Poligono Industrial De La Mora, nave, 15, Moraleja de Enmedio"}, {"business_status": "OPERATIONAL", "geometry": {"location": {"lat": 40.2623136, "lng": -3.8557289}, "viewport": {"northeast": {"lat": 40.26361028029149, "lng": -3.854345219708497}, "southwest": {"lat": 40.2609123197085, "lng": -3.857043180291502}}}, "icon": "https://maps.gstatic.com/mapfiles/place_api/icons/v1/png_71/generic_business-71.png", "icon_background_color": "#7B9EB0", "icon_mask_base_uri": "https://maps.gstatic.com/mapfiles/place_api/icons/v2/generic_pinlet", "international_phone_number": "+34 916 09 28 44", "name": "Sports and Aquatic Center \"El Galeón\"", "opening_hours": {"open_now": false}, "photos": [{"height": 1200, "html_attributions": ["<a href=\"https://maps.google.com/maps/contrib/107187233867964419513\">Centro acuático y deportivo El Galeón</a>"], "photo_reference": "AWn5SU5ac9W4oUU5lPZAkmBKgLxn_9YXXaopwnNY7zxJGW30vpO-g0E63aEMdVi9nvmywelq2NziQnN_drUahIpzxAN6-VrZnNjfmFR-iW4n1CZvVEb9YzQexg263rvUtSeWHAH1em5rV7eI4tBCYkKrD1dsvkTa_r-cDXPL1ZQtFKp1-8XPhKZsHlK6oh4G73U08C7kQTL2dsvFJ5SdTgUMIv1t8WXnG4nJA9-XKbWl88xdGMDYAWdK8bIhhsDvHGLeXphKFLoqd3Fleb7echoD1RtdNJ7NKOpzqMAIwymv5FtcSz1uiTogZCT_YBv-XtCJ03DQvYf7GSs", "width": 1600}], "place_id": "ChIJvfvd09yMQQ0RWCy02vYPTEU", "plus_code": {"compound_code": "746V+WP Moraleja de Enmedio, Spain", "global_code": "8CGR746V+WP"}, "rating": 3.9, "reference": "ChIJvfvd09yMQQ0RWCy02vYPTEU", "scope": "GOOGLE", "types": ["gym", "point_of_interest", "health", "establishment"], "user_ratings_total": 576, "vicinity": "Calle Mirasierra, 57, Moraleja de Enmedio"}, {"business_status": "OPERATIONAL", "geometry": {"location": {"lat": 40.2599296, "lng": -3.8501325}, "viewport": {"northeast": {"lat": 40.2612591802915, "lng": -3.848729319708498}, "southwest": {"lat": 40.2585612197085, "lng": -3.851427280291503}}}, "icon": "https://maps.gstatic.com/mapfiles/place_api/icons/v1/png_71/bar-71.png", "icon_background_color": "#FF9E67", "icon_mask_base_uri": "https://maps.gstatic.com/mapfiles/place_api/icons/v2/bar_pinlet", "international_phone_number": "+34 650 42 66 25", "name": "Restaurante los Olivos", "opening_hours": {"open_now": false}, "photos": [{"height": 2336, "html_attributions": ["<a href=\"https://maps.google.com/maps/contrib/117865047887610069987\">Luis Diaz</a>"], "photo_reference": "AWn5SU6Vvdpt_KEQcHu6qtaUjcHu5UCZluAG5Cz0KdAlarF6llKYUHWk5-m5W70Y5PCftzgJkUn_dbO9CjXr37AmbKNH2IzI6sNEm9X_VTCvC9yz61P4-ZdjcWa_Y4ibtMSxVcWoOVi-CJ2bWBTCQEX6sTcHECLD_eseXP5Daq0ictp6t8Tt82l_TmNsQkQMrIaJJNWDyQf9yUcrCYoDyuvq9JREv8Ca5860srZtHUjHKaC1zUaVZRwZy3EewrJ-Xhlt2LG63nQqcTGP0EKpk054-8GwWe8idgzfwjvN2IrEW1rNZE7uBYkLk1XsuKMWNzBw1aKJOaEDZ1TtIt2wy0o7fVjikOLu4k2km7rctalJ8utaLRTWvIxe9yzjM-pqn82GlwJlTbU7qS9Hp8xGaTem9FkQzCOvhB8JJPtVEYCpD-tZ6oi2W9vursKoruFLxaz_tGyjpRP_KhO1dM2dw35FoKVnT3ujX_evO9Uj1jaNaabtQY52D2TTdYXohjkQaTSxSrEUXfnd5wR7TWvaFPF8cHhRibEf_QI3cv6eG9HAVTT-TeWrqkxrcdV-wQ4AGwBD_5DAFNQ98hB6uKLGPO7i1zTGlTc5MqFTJvXQu0G8fW1pkWqaEsvSzDfavyQs0L-D_85E62mv", "width": 4160}], "place_id": "ChIJKwKNq8aMQQ0R_L4WywSxMV0", "plus_code": {"compound_code": "745X+XW Moraleja de Enmedio, Spain", "global_code": "8CGR745X+XW"}, "price_level": 1, "rating": 4.5, "reference": "ChIJKwKNq8aMQQ0R_L4WywSxMV0", "scope": "GOOGLE", "types": ["bar", "restaurant", "point_of_interest", "food", "establishment"], "user_ratings_total": 359, "vicinity": "Polig San Sebastian, Calle Roble, 20, Moraleja de Enmedio"}, {"business_status": "OPERATIONAL", "geometry": {"location": {"lat": 40.2620032, "lng": -3.8496135}, "viewport": {"northeast": {"lat": 40.2634600302915, "lng": -3.848519769708497}, "southwest": {"lat": 40.2607620697085, "lng": -3.851217730291502}}}, "icon": "https://maps.gstatic.com/mapfiles/place_api/icons/v1/png_71/atm-71.png", "icon_background_color": "#909CE1", "icon_mask_base_uri": "https://maps.gstatic.com/mapfiles/place_api/icons/v2/atm_pinlet", "international_phone_number": "+34 902 32 30 00", "name": "Sabadell Bank", "opening_hours": {"open_now": true}, "photos": [{"height": 900, "html_attributions": ["<a href=\"https://maps.google.com/maps/contrib/104519814729179215909\">Cajero Banco Sabadell</a>"], "photo_reference": "AWn5SU6j-z1fHqt-4PeepXO3Y5cN1fpz1QnF8NvzS3RZ76CRd6uR36m11pLT09oPx0v_y1UqaVWPXA7TZXuJWu76Vm2343oTsWFnWV3rn_YmqE_Vsk0ccwG1Lm5flH-mKiAWFx-T8BNayHgKROwcuPz7TIjba_UsMzA5hVyQ4OQDwSnkVnXpXoPK-w6AAYrA1afhNTejex9gtJTxIWu4xgn2oKCMz5EK12dcO5J4Acc8vZtn2pjjZML59NLkqi9cI9lnVPULT0tsJOWZ-Pb3yWAMllEZ2KXNiqOqVeE1KGAcAt3v6Mwen8H_Dc9l_YAiMQeYVVd16x8xtHs", "width": 1600}], "place_id": "ChIJR7psENKONg0R4KuITOY4-54", "plus_code": {"compound_code": "7562+R5 Moraleja de Enmedio, Spain", "global_code": "8CGR7562+R5"}, "rating": 1, "reference": "ChIJR7psENKONg0R4KuITOY4-54", "scope": "GOOGLE", "types": ["atm", "finance", "point_of_interest", "establishment"], "user_ratings_total": 4, "vicinity": "Calle Norte, 1, Moraleja de Enmedio"}, {"business_status": "OPERATIONAL", "geometry": {"location": {"lat": 40.2649195, "lng": -3.8498419}, "viewport": {"northeast": {"lat": 40.26625973029149, "lng": -3.848462469708497}, "southwest": {"lat": 40.2635617697085, "lng": -3.851160430291502}}}, "icon": "https://maps.gstatic.com/mapfiles/place_api/icons/v1/png_71/generic_business-71.png", "icon_background_color": "#7B9EB0", "icon_mask_base_uri": "https://maps.gstatic.com/mapfiles/place_api/icons/v2/generic_pinlet", "international_phone_number": "+34 605 05 33 58", "name": "INSTALATUCALDERA", "photos": [{"height": 1131, "html_attributions": ["<a href=\"https://maps.google.com/maps/contrib/104580637713440704873\">INSTALATUCALDERA</a>"], "photo_reference": "AWn5SU4UaWrRIGHjuNRvSwcrWZIYV8MD6EuREiz9kenUmQ8aOWEDQQfsUq3TRDgnuRDzvU361ge6NLlfp38r_s6fru_5R31S_znH2VzAljtbFECDLHqdt_pI9Zbr7wpA05-Te7JZFCnNXNG1T3dZbcIQkTf1Ot2ds922ZPW421CFokdKU2dnHGsFQFQJLD_WOgsenv_Mmv9samZacdsXnz9eBbzSOZhzpowbT5t7mgVCMvNcmMcIXbc-i_P67rCU2mSQRj1qJxinH8x5xT9qwv45gzYEHMjKuljyckL3p6W9m1_x26gAPrLcMjSTGiwodRuWVF0jdyBTk20", "width": 800}], "place_id": "ChIJu15G-sGMQQ0RgjDuyaVV05Y", "plus_code": {"compound_code": "7572+X3 Moraleja de Enmedio, Spain", "global_code": "8CGR7572+X3"}, "rating": 5, "reference": "ChIJu15G-sGMQQ0RgjDuyaVV05Y", "scope": "GOOGLE", "types": ["point_of_interest", "store", "establishment"], "user_ratings_total": 1, "vicinity": "Calle Aluminio, 47, Moraleja de Enmedio"}, {"business_status": "OPERATIONAL", "geometry": {"location": {"lat": 40.26391309999999, "lng": -3.8493073}, "viewport": {"northeast": {"lat": 40.2652817302915, "lng": -3.848029869708498}, "southwest": {"lat": 40.2625837697085, "lng": -3.850727830291502}}}, "icon": "https://maps.gstatic.com/mapfiles/place_api/icons/v1/png_71/generic_business-71.png", "icon_background_color": "#7B9EB0", "icon_mask_base_uri": "https://maps.gstatic.com/mapfiles/place_api/icons/v2/generic_pinlet", "international_phone_number": "+34 916 09 47 32", "name": "TRAMAINOX MOBILIARIO HOSTELERIA SL", "opening_hours": {"open_now": false}, "photos": [{"height": 1536, "html_attributions": ["<a href=\"https://maps.google.com/maps/contrib/107581947097415149740\">Jesus Sánchez Martín</a>"], "photo_reference": "AWn5SU6JggGdAM8qtEN20N9PeQEB-H4lIUOSLe3lAFZs5bRWOaHRwpyiGCerR-0GPlTr5cLuf-EeDGWkPwYj0KQ8cK348NuS0PN9BPv2ZPFIutrZDtRbARBxp6_vd5loJC1yYhUqxH1cSWR_0kPSt5lu81GReeyz-fxmgT3eF5f5qzW-ESO9Bq7tZI6m6rO1GlWEhZr5nZu224TVftb7RwyPUsqqTsPcmtCYiHJ8y0DGNgU4pR3_JT5TYTdIw0DgTYQ_sU1UZ0hAnTkhJTRiz26XqkNbgQ-MuV6bzW25RGmysFIsgOsfsP1Bt30_cjMYTkwgYd-n-aZqTrLiCo_7txgd38g0kY3MVhFpZFoSfoMmZbC9HEsLs4smonj9sgpsf_haZhFv2-RFZ2a0XBgIxgCdTDeRxEC-LR6dKJrQuVkfiS2D-4uz4YuDm6525aVglSwHjGZhQGfv-H6418cbYksE0mB0xOALLyvP_FvDygtKlt_j_sCaRt8BNBFxVVueCRsYO7DXGbAMVnKNoh0cL_6Fux57xwYbP7qcEHoWEz1VWFi6778hQYsL-54HEk0OFl0RsEn_eisdph9nK12WRg7fOZt8zCUgAr7_8QBW-2smt_wKtXpIBvwzn3KpYLPj8bKV5grWyA", "width": 2560}], "place_id": "ChIJAWkrksGMQQ0R0a5yFNmKAAg", "plus_code": {"compound_code": "7572+H7 Moraleja de Enmedio, Spain", "global_code": "8CGR7572+H7"}, "rating": 3.9, "reference": "ChIJAWkrksGMQQ0R0a5yFNmKAAg", "scope": "GOOGLE", "types": ["point_of_interest", "store", "establishment"], "user_ratings_total": 7, "vicinity": "Calle Bronce, 36, Moraleja de Enmedio"}, {"business_status": "OPERATIONAL", "geometry": {"location": {"lat": 40.2637667, "lng": -3.8492308}, "viewport": {"northeast": {"lat": 40.2651535302915, "lng": -3.848017869708498}, "southwest": {"lat": 40.2624555697085, "lng": -3.850715830291502}}}, "icon": "https://maps.gstatic.com/mapfiles/place_api/icons/v1/png_71/generic_business-71.png", "icon_background_color": "#7B9EB0", "icon_mask_base_uri": "https://maps.gstatic.com/mapfiles/place_api/icons/v2/generic_pinlet", "international_phone_number": "+34 916 09 48 48", "name": "Elevasistem", "opening_hours": {"open_now": false}, "photos": [{"height": 801, "html_attributions": ["<a href=\"https://maps.google.com/maps/contrib/116142068753023309261\">Elevasistem</a>"], "photo_reference": "AWn5SU79kG27AO3dlWgYsQ2JPcIK7agHSMVuaiXubhgcNAGz4Zy1xkIq3Jvx1-fEd9s6FklbCiomusRpKSNyfpj3iWKNkOS4vE92DY6A5uaSVRBq2kqdidlmd5RE6YBeuF_NCC-4CVRRETx1CjXUj3XNxiNMMrif0UuwQDZ27xhNE2F8tWR3F-JKs34bLUDOIXSGiDxMQxqicwEUdLDT7eoVD9KFZCug4knMgmfTbJKSeV5lLgUUUl1P2OntSTbTffRStBr7Qoyaqf7GRCa0EHMC1t51J6c612_7hJUfYFj5EZesLCsq0yzdzKnQtZq2NDTBeFJS5mye1KU", "width": 1424}], "place_id": "ChIJyyDLk8GMQQ0RdA5ptSvW5JU", "plus_code": {"compound_code": "7572+G8 Moraleja de Enmedio, Spain", "global_code": "8CGR7572+G8"}, "rating": 4.6, "reference": "ChIJyyDLk8GMQQ0RdA5ptSvW5JU", "scope": "GOOGLE", "types": ["point_of_interest", "establishment"], "user_ratings_total": 5, "vicinity": "Pol. Ind. San Millán, Calle Bronce, 32, Moraleja de Enmedio"}, {"business_status": "OPERATIONAL", "geometry": {"location": {"lat": 40.25932, "lng": -3.85046}, "viewport": {"northeast": {"lat": 40.2606825302915, "lng": -3.849116019708498}, "southwest": {"lat": 40.2579845697085, "lng": -3.851813980291503}}}, "icon": "https://maps.gstatic.com/mapfiles/place_api/icons/v1/png_71/generic_business-71.png", "icon_background_color": "#7B9EB0", "icon_mask_base_uri": "https://maps.gstatic.com/mapfiles/place_api/icons/v2/generic_pinlet", "international_phone_number": "+34 916 42 12 54", "name": "Proinmetal s.l.u.", "opening_hours": {"open_now": false}, "photos": [{"height": 523, "html_attributions": ["<a href=\"https://maps.google.com/maps/contrib/113224848629325388733\">Proinmetal s.l.u.</a>"], "photo_reference": "AWn5SU4HwTEK13KhSIOM7x8zqoqVzaSip5NmPRJTkWeJbcPTx4KM28Ozh4YyApiVbkhr20WD14BIEFPV-P0ClhKUdUgz3DEPwA3HawFy14kmLjBCX0UpTC1joC8jTfxnS8LggQH4kCyoN7vtRr8LFJ2kQ5OILbS9JrOaMTO8U0JXJ1u6SNSh2QaBazd4ECN2j6eHNUzyieOdPQlrlpEVA3GvofShVvhkRt-oaUhb23xxwQ9jsxkFS_hLTA8ckjVLVrQPK0Z8K8ZjtiIldKMFfi1G_eAZHJvhPAZLxly7Mr0VqNQvNrhHw9po8vVI5elbolgDcQL-R8ol_z0", "width": 421}], "place_id": "ChIJyR_AGqSKQQ0RlXkwRWgO6_k", "plus_code": {"compound_code": "745X+PR Moraleja de Enmedio, Spain", "global_code": "8CGR745X+PR"}, "reference": "ChIJyR_AGqSKQQ0RlXkwRWgO6_k", "scope": "GOOGLE", "types": ["point_of_interest", "store", "establishment"], "vicinity": "Calle Abeto, 12, Moraleja de Enmedio"}, {"business_status": "OPERATIONAL", "geometry": {"location": {"lat": 40.2661639, "lng": -3.846712999999999}, "viewport": {"northeast": {"lat": 40.26756313029149, "lng": -3.845330719708498}, "southwest": {"lat": 40.2648651697085, "lng": -3.848028680291502}}}, "icon": "https://maps.gstatic.com/mapfiles/place_api/icons/v1/png_71/generic_business-71.png", "icon_background_color": "#7B9EB0", "icon_mask_base_uri": "https://maps.gstatic.com/mapfiles/place_api/icons/v2/generic_pinlet", "international_phone_number": "+34 916 09 45 13", "name": "Tecnología de la Matricería Heymol S.L.", "opening_hours": {"open_now": false}, "place_id": "ChIJgylh68GMQQ0RA_zaYgd_vI8", "plus_code": {"compound_code": "7583+F8 Moraleja de Enmedio, Spain", "global_code": "8CGR7583+F8"}, "rating": 3.5, "reference": "ChIJgylh68GMQQ0RA_zaYgd_vI8", "scope": "GOOGLE", "types": ["point_of_interest", "establishment"], "user_ratings_total": 2, "vicinity": "Polígono la Mora, 19, 20, Moraleja de Enmedio"}, {"business_status": "OPERATIONAL", "geometry": {"location": {"lat": 40.2591641, "lng": -3.858330099999999}, "viewport": {"northeast": {"lat": 40.2605255802915, "lng": -3.856965469708499}, "southwest": {"lat": 40.2578276197085, "lng": -3.859663430291503}}}, "icon": "https://maps.gstatic.com/mapfiles/place_api/icons/v1/png_71/generic_business-71.png", "icon_background_color": "#7B9EB0", "icon_mask_base_uri": "https://maps.gstatic.com/mapfiles/place_api/icons/v2/generic_pinlet", "international_phone_number": "+34 690 64 27 77", "name": "Retratos Foto Estudio. Juan José Orejuela", "place_id": "ChIJkarmm9uMQQ0RWL0qilcRPgs", "plus_code": {"compound_code": "745R+MM Moraleja de Enmedio, Spain", "global_code": "8CGR745R+MM"}, "rating": 4.8, "reference": "ChIJkarmm9uMQQ0RWL0qilcRPgs", "scope": "GOOGLE", "types": ["point_of_interest", "establishment"], "user_ratings_total": 6, "vicinity": "Camino Humanes, 1, Moraleja de Enmedio"}, {"business_status": "OPERATIONAL", "geometry": {"location": {"lat": 40.2666822, "lng": -3.847112800000001}, "viewport": {"northeast": {"lat": 40.26793628029149, "lng": -3.845826519708498}, "southwest": {"lat": 40.2652383197085, "lng": -3.848524480291502}}}, "icon": "https://maps.gstatic.com/mapfiles/place_api/icons/v1/png_71/generic_business-71.png", "icon_background_color": "#7B9EB0", "icon_mask_base_uri": "https://maps.gstatic.com/mapfiles/place_api/icons/v2/generic_pinlet", "international_phone_number": "+34 913 52 07 27", "name": "GRUPO A5", "opening_hours": {"open_now": false}, "photos": [{"height": 1152, "html_attributions": ["<a href=\"https://maps.google.com/maps/contrib/114034947558994365089\">A5 PROJECT GROUP INGENIERIA Y SISTEMAS S.L.</a>"], "photo_reference": "AWn5SU6uILax1v4jTUYrIzAeqw5d2QSIcRGembUk2zTBkRYcFekE1atFtnOlCwzn0GrSQGZEMrnTxgKc7PVq6vOwlk1JwArF-WViKecRqusDIjgm1YEf4vXjvgpK_77hnTYqbBkXPcaGl2qJjN6UvqpBUkSLMdlbSmgV8MC_X9AGcmmAkrruHl0TWUKEhpCYTpTpBmCdie74jOJfuQstDgc31dJiTAHvSbZiz_Nctw4jbZSKuO5LYHNmMMegqRkwVK4KsQpprgAXl5R6ktttPykp59HTE99ayIOR7TUMQOCSRwtoZ9Y6Fv92MxmETc0C_So5CxZK5VQuuHE", "width": 1920}], "place_id": "ChIJQ-ydOLuKQQ0RQdZxdZ2ZM0w", "plus_code": {"compound_code": "7583+M5 Moraleja de Enmedio, Spain", "global_code": "8CGR7583+M5"}, "rating": 5, "reference": "ChIJQ-ydOLuKQQ0RQdZxdZ2ZM0w", "scope": "GOOGLE", "types": ["point_of_interest", "establishment"], "user_ratings_total": 5, "vicinity": "Polígono la Mora, 22, Moraleja de Enmedio"}, {"business_status": "OPERATIONAL", "geometry": {"location": {"lat": 40.26282399999999, "lng": -3.849087}, "viewport": {"northeast": {"lat": 40.2641499302915, "lng": -3.847689019708498}, "southwest": {"lat": 40.2614519697085, "lng": -3.850386980291503}}}, "icon": "https://maps.gstatic.com/mapfiles/place_api/icons/v1/png_71/generic_business-71.png", "icon_background_color": "#7B9EB0", "icon_mask_base_uri": "https://maps.gstatic.com/mapfiles/place_api/icons/v2/generic_pinlet", "international_phone_number": "+34 916 09 41 44", "name": "Recreativos Lider SA", "opening_hours": {"open_now": false}, "photos": [{"height": 4032, "html_attributions": ["<a href=\"https://maps.google.com/maps/contrib/114343976667067082722\">yoryojf</a>"], "photo_reference": "AWn5SU49GcL32caSvhjIZFILlE2kUv746ttmIdYhCiwRTS3F48Yaeqka7EgR7e2F5ej9DMI5YrWYgY727HsuiOmropP2t7Z_eqOOXj4X8ZOvrELSOS8XynJTkO0sWlWT-U4mNDHFTW-hQn2VtbD7Hxzd-68QG8gPWuoJpUMYpOzWZsDXUeYI98Rce5uNSCkf4bHy8ictfYHQQmcSwx35qXBFlpF1ijSX6Mh7LuSX7vNWQSKi2t2cUezNXINY6EBwA-Uyr1Z5NsY-bQTrn7-37o0CRQN8g_A94s8woTIFaPqA7llxF7vevZplCKc95YVwAwarySXMleO9aTWQb4ko7Q_lrztM8Sbqa2cLgIxW1pua72ZXx6uqr5_OqeztIg8Ki_97LhISRGKUw82QAMiYbg9kha295J0yNItnDnGooBxdTXQwpB10PlQY_zvnyIH9Z2_n1q7YpB5dKXRgK5iWw6-dILDmry5LvQeaav0J4_oC0H-6Lmnr2MVifijb30qjUj-US77jUbPHHCi_0MK84qJNmpQeil8xzwgDgVitTj1kiIrM4AIhhDVlTNfmsJyn3gPngVt_c3ReVavHWF7jVkuenQE8wcPAOgg0ybchaHFy7xbnrSra9mNJhUf3uwsXlbNPaUcnABBb", "width": 2268}], "place_id": "ChIJ33wRdcGMQQ0RhwM6yntQAoU", "plus_code": {"compound_code": "7572+49 Moraleja de Enmedio, Spain", "global_code": "8CGR7572+49"}, "rating": 4.7, "reference": "ChIJ33wRdcGMQQ0RhwM6yntQAoU", "scope": "GOOGLE", "types": ["point_of_interest", "establishment"], "user_ratings_total": 13, "vicinity": "Calle Plata, 13, Moraleja de Enmedio"}, {"business_status": "OPERATIONAL", "geometry": {"location": {"lat": 40.2636167, "lng": -3.851796999999999}, "viewport": {"northeast": {"lat": 40.2649492802915, "lng": -3.850390419708497}, "southwest": {"lat": 40.2622513197085, "lng": -3.853088380291501}}}, "icon": "https://maps.gstatic.com/mapfiles/place_api/icons/v1/png_71/generic_business-71.png", "icon_background_color": "#7B9EB0", "icon_mask_base_uri": "https://maps.gstatic.com/mapfiles/place_api/icons/v2/generic_pinlet", "international_phone_number": "+34 618 02 41 75", "name": "DELUXEGRASS CESPED ARTIFICIAL", "opening_hours": {"open_now": true}, "photos": [{"height": 1064, "html_attributions": ["<a href=\"https://maps.google.com/maps/contrib/104775775384294227900\">DELUXEGRASS CESPED ARTIFICIAL</a>"], "photo_reference": "AWn5SU7KeoCqplJFe7T3XySnHvX239ohgIh7NCcEnrTttP9uIUSsMocbyLW9It09sAaGHYhDSJdnPaMCuV8mESxpS6JZMT89FcF_cwmSQDjygNZvWs8CmSkKEL-camc9OpwJJ_47LaenwWN6h4ll49JJChEwzwNSJekNbfwrah7cLnJwWG5OLQvYHgFL2v9I4HY80kqjTA_qw213EEmiMfZHLjj3NP7ZTLxuKh0kYObYsFc1LSz_KrQojMhLXSt2n0zt7cpwUldclkezSQmQzjVrlQkFxYRKm5IHBlqVWD9z9ub9WUFeeFjV6NiYT_ZHXQxVzH2yylNZwPk", "width": 1600}], "place_id": "ChIJWR-oR8KMQQ0RTLLXuAF59BU", "plus_code": {"compound_code": "747X+C7 Moraleja de Enmedio, Spain", "global_code": "8CGR747X+C7"}, "rating": 5, "reference": "ChIJWR-oR8KMQQ0RTLLXuAF59BU", "scope": "GOOGLE", "types": ["point_of_interest", "general_contractor", "establishment"], "user_ratings_total": 1, "vicinity": "Calle el Escorial, Moraleja de Enmedio"}, {"business_status": "OPERATIONAL", "geometry": {"location": {"lat": 40.2615689, "lng": -3.8493723}, "viewport": {"northeast": {"lat": 40.2629344802915, "lng": -3.848033869708498}, "southwest": {"lat": 40.2602365197085, "lng": -3.850731830291502}}}, "icon": "https://maps.gstatic.com/mapfiles/place_api/icons/v1/png_71/gas_station-71.png", "icon_background_color": "#909CE1", "icon_mask_base_uri": "https://maps.gstatic.com/mapfiles/place_api/icons/v2/gas_pinlet", "international_phone_number": "+34 910 09 34 58", "name": "GASOLINERA CEPSA", "opening_hours": {"open_now": false}, "photos": [{"height": 1840, "html_attributions": ["<a href=\"https://maps.google.com/maps/contrib/110746515402195870736\">Daniel Navarro Olmo</a>"], "photo_reference": "AWn5SU6z8_aY9gECZaa9kadomBkAD-NnNxMWt-ZoV2YcMqBacIEqgclFHEptGNTEp8afTYDsM5m8goVLpaFAuqxbU-AjP4em9lnXQp5guLk58MIJ5Myy8AJ56ZSudSmkVRCGJo4ijTkzuaEMuiY-PwPuVL9JxSzhlWwIcIrle_2esCBlDmTw-5k9h9GDchjKenEjf6QS39k7T3AinWjFEIKnQweifsipvwzJHvveqvuIRGFuCjyUiUlZYjIrwXmA6lWTIN1TrTZkP5YQ5ljgQlYubilhnKTqh_7e5Ej0eApG4zeONZDK8ZWDZM96-zz7TDq-jv7cJtvSlttiC_PhwC1w3VVjVub-TuGCc8GxyGOyoXRJeuX8HPPIYjnYGlssBAvyEsknKYcqDsqRSMoQMiPuEdCzPwNorFPmFVOaJDnSCKU5ei-V2GzYtTRg7VUnwZlOXaegeFzZqFlFIdrDbl89ixlwDCPk6zRoXYhWzgwqL9xICSF3oFCc-8wu4CjDAC1jFUQ0pgzFvZN4o7xdM3P-eOgnuSnTyYNr69zCNijuqUacvOc5xkimhpdwYQejUMc6GLWWeOUYtHPLldp-iNJ7LvYYGCicxjDFKhGl2gBdbgV7GXf3HMx0FdaJ8VCkYVlfLM65zA", "width": 4080}], "place_id": "ChIJAWXyR8GMQQ0RoqJrVhRtfKk", "plus_code": {"compound_code": "7562+J7 Moraleja de Enmedio, Spain", "global_code": "8CGR7562+J7"}, "rating": 4.1, "reference": "ChIJAWXyR8GMQQ0RoqJrVhRtfKk", "scope": "GOOGLE", "types": ["gas_station", "point_of_interest", "establishment"], "user_ratings_total": 152, "vicinity": "Carretera M-413, Avenida Fuenlabrada, 32, Moraleja de Enmedio"}, {"business_status": "OPERATIONAL", "geometry": {"location": {"lat": 40.260038, "lng": -3.8626219}, "viewport": {"northeast": {"lat": 40.2612961802915, "lng": -3.861355869708498}, "southwest": {"lat": 40.2585982197085, "lng": -3.864053830291502}}}, "icon": "https://maps.gstatic.com/mapfiles/place_api/icons/v1/png_71/civic_building-71.png", "icon_background_color": "#7B9EB0", "icon_mask_base_uri": "https://maps.gstatic.com/mapfiles/place_api/icons/v2/civic-bldg_pinlet", "international_phone_number": "+34 916 09 30 81", "name": "Oficina de Correos", "opening_hours": {"open_now": false}, "photos": [{"height": 900, "html_attributions": ["<a href=\"https://maps.google.com/maps/contrib/100063973396891994298\">Oficina de Correos</a>"], "photo_reference": "AWn5SU5meKsIIOEcMUt19Bd2p0h-7azKaawJ2KRA_RSa9R8KAiUDIrJcQ3ZL0KuZP5V7pSsSIUhcVEk3j5ltFoYXywgVsFPQKERV5lVFzEX1G0R8Ss7EY9tjy-HkDYPklbAUlqQQpp-aL3l3s_Qzjk8Z6cb1KdBSGHzAWrS4FZoRGyUqLn0V9mztq0naoNKKq4v8VhEHPavjsYXBHHofYaMErixusuukWfsV7NFq3TKlS6vWck--N4Kmo1bdA0rtDCLVk7hJHoCOo0h26ILsbpUDmk0xwfAMcr8NPHVvMstKvebMnR_RsbQWk4OicqjvCPYBonQ6aUcZIiI", "width": 1600}], "place_id": "ChIJjxyYxt6MQQ0RwJKD4-VK6Yw", "plus_code": {"compound_code": "746P+2X Moraleja de Enmedio, Spain", "global_code": "8CGR746P+2X"}, "rating": 2.7, "reference": "ChIJjxyYxt6MQQ0RwJKD4-VK6Yw", "scope": "GOOGLE", "types": ["post_office", "finance", "point_of_interest", "establishment"], "user_ratings_total": 30, "vicinity": "C/V, Calle SAN ISIDRO LABRADOR, Calle las Huertas, 1 BIS, Moraleja de Enmedio"}, {"business_status": "OPERATIONAL", "geometry": {"location": {"lat": 40.2662108, "lng": -3.8479559}, "viewport": {"northeast": {"lat": 40.2674734802915, "lng": -3.846709369708497}, "southwest": {"lat": 40.2647755197085, "lng": -3.849407330291502}}}, "icon": "https://maps.gstatic.com/mapfiles/place_api/icons/v1/png_71/generic_business-71.png", "icon_background_color": "#7B9EB0", "icon_mask_base_uri": "https://maps.gstatic.com/mapfiles/place_api/icons/v2/generic_pinlet", "international_phone_number": "+34 916 09 40 16", "name": "GRUPO VATISA", "opening_hours": {"open_now": false}, "photos": [{"height": 3000, "html_attributions": ["<a href=\"https://maps.google.com/maps/contrib/110261593910162300232\">VATISA</a>"], "photo_reference": "AWn5SU4veTdxUSytSTqWBXRNgF0XetCxW6P--pvGUFy_gRuXKz8K_4lTq3e1Jojdox_nGXDqU_NlaAnfeNU8Cyf_Ucnjol8ZWDtiECnBMAacTN-2mdVUxB7txo_UdV7qODfXqaAnEGUus1heDPROdiAJ_2SpkSS2u8QuN3Uaae2cnxKHYsP1T3JP4JfuZdAaWKtmh8PbThGCMDF4crIip6ML8NfzzEKOSMsEEhaa_tpctOgzdobQA7EMVx2FyoQMWdUZHnFEEChSuK6xQCTzrdLDFBraH7HAwpY9-9l8T3hpm4VlTVleyGUlnPltLQWNK53kLRnLp77xuPY", "width": 4000}], "place_id": "ChIJbVOufOqMQQ0RXNI52g3QLQ4", "plus_code": {"compound_code": "7582+FR Moraleja de Enmedio, Spain", "global_code": "8CGR7582+FR"}, "rating": 5, "reference": "ChIJbVOufOqMQQ0RXNI52g3QLQ4", "scope": "GOOGLE", "types": ["point_of_interest", "establishment"], "user_ratings_total": 2, "vicinity": "La Mora, Polígono Industrial, naves (5, 6, 12, 26 y 27, Moraleja de Enmedio"}, {"business_status": "OPERATIONAL", "geometry": {"location": {"lat": 40.26073, "lng": -3.85019}, "viewport": {"northeast": {"lat": 40.2620311302915, "lng": -3.848617619708497}, "southwest": {"lat": 40.2593331697085, "lng": -3.851315580291502}}}, "icon": "https://maps.gstatic.com/mapfiles/place_api/icons/v1/png_71/generic_business-71.png", "icon_background_color": "#7B9EB0", "icon_mask_base_uri": "https://maps.gstatic.com/mapfiles/place_api/icons/v2/generic_pinlet", "international_phone_number": "+34 916 09 35 48", "name": "ENGRASES SOBA S. L.", "opening_hours": {"open_now": false}, "place_id": "ChIJl-02UMGMQQ0RY7eytYsBUFg", "plus_code": {"compound_code": "746X+7W Moraleja de Enmedio, Spain", "global_code": "8CGR746X+7W"}, "rating": 2.8, "reference": "ChIJl-02UMGMQQ0RY7eytYsBUFg", "scope": "GOOGLE", "types": ["point_of_interest", "establishment"], "user_ratings_total": 5, "vicinity": "Calle Roble, 6, Moraleja de Enmedio"}, {"geometry": {"location": {"lat": 40.2596189, "lng": -3.8606776}, "viewport": {"northeast": {"lat": 40.26811746231891, "lng": -3.844651772947687}, "southwest": {"lat": 40.25728126237271, "lng": -3.867807106110093}}}, "icon": "https://maps.gstatic.com/mapfiles/place_api/icons/v1/png_71/geocode-71.png", "icon_background_color": "#7B9EB0", "icon_mask_base_uri": "https://maps.gstatic.com/mapfiles/place_api/icons/v2/generic_pinlet", "name": "Moraleja de Enmedio", "photos": [{"height": 800, "html_attributions": ["<a href=\"https://maps.google.com/maps/contrib/103042428113119124879\">Arcadio Morillo</a>"], "photo_reference": "AWn5SU6T1xEX8tDaCrL39IL4l7Nn8DLZf5rh_eEqtR_koOxo1AYiFwi4O63s8wGxsPHS-XI5z_i__R2SOUd3Rdazg4mfKcmbbH2rxGdVl1suotrUoLOQ9NO9GrY0-PWklUGr7zHIXfBQvAJJEsEHF3R1lZn7U88BdtT20fNERXC8CvDZ1dLsqVYTwl1Wq5A9lkE0M9oR1PXKt5_DhtkYi197I8OgiIb5c-N3bU2CdcgNPD0pNEYhdl5IqMstRyCgfFI76XUCt0tES0VVm0l84X-es-OTddOJAP8Ozii5qFb8zjiU2Philg80eehJ2gnYGRwV0NY01mXCJl6boYctCkMj7CemwB-ALY1EImkg6P_Z26F7EfYulALfPEqJonk3PYx_vLQIJVEt-JtQ8H-_ylPEokQ3J3ioCuamWMgKP-0p2xzxU34R7mM6KcgctX6-RLFHeDhGk-nFG_nTe5Rone6CzHnToBpq2-xT-8A-PZz2wKqEKDnBXeeL3fbbJnDlZAZG0MwxyOTeMt55NYx7ylxs-z2l0wk2tjmcA4tIlxDIgIYo-YdB52Gsunz4gihVuX2BDexf1v5ZkgIke5eGLnBZAx3cqMsbRlfFE5E_hApIRQv5_zWL47trnb10jIGHqUtpecfxIokk", "width": 378}], "place_id": "ChIJAX5aN9yMQQ0RqiN5GcqLh5w", "reference": "ChIJAX5aN9yMQQ0RqiN5GcqLh5w", "scope": "GOOGLE", "types": ["locality", "political"], "vicinity": "Moraleja de Enmedio"}]