[{"business_status": "OPERATIONAL", "geometry": {"location": {"lat": 40.2574601, "lng": -3.2360382}, "viewport": {"northeast": {"lat": 40.25879403029149, "lng": -3.234711169708498}, "southwest": {"lat": 40.2560960697085, "lng": -3.237409130291502}}}, "icon": "https://maps.gstatic.com/mapfiles/place_api/icons/v1/png_71/parking-71.png", "icon_background_color": "#7B9EB0", "icon_mask_base_uri": "https://maps.gstatic.com/mapfiles/place_api/icons/v2/parking_pinlet", "name": "Parking", "place_id": "ChIJN1MpfepnQg0RwCGfSYvzn5c", "plus_code": {"compound_code": "7Q47+XH Carabaña, Spain", "global_code": "8CGR7Q47+XH"}, "rating": 1, "reference": "ChIJN1MpfepnQg0RwCGfSYvzn5c", "scope": "GOOGLE", "types": ["parking", "point_of_interest", "establishment"], "user_ratings_total": 1, "vicinity": "Calle Chávarri, 3, Carabaña"}, {"business_status": "OPERATIONAL", "geometry": {"location": {"lat": 40.25752069999999, "lng": -3.232341799999999}, "viewport": {"northeast": {"lat": 40.2588729302915, "lng": -3.231025669708499}, "southwest": {"lat": 40.2561749697085, "lng": -3.233723630291502}}}, "icon": "https://maps.gstatic.com/mapfiles/place_api/icons/v1/png_71/parking-71.png", "icon_background_color": "#7B9EB0", "icon_mask_base_uri": "https://maps.gstatic.com/mapfiles/place_api/icons/v2/parking_pinlet", "name": "Carabaña Aparcamiento", "place_id": "ChIJB1b7A0hnQg0RyJ6Q7KYibp4", "plus_code": {"compound_code": "7Q59+23 Carabaña, Spain", "global_code": "8CGR7Q59+23"}, "reference": "ChIJB1b7A0hnQg0RyJ6Q7KYibp4", "scope": "GOOGLE", "types": ["parking", "point_of_interest", "establishment"], "vicinity": "Camino de Orusco, 16, Carabaña"}, {"business_status": "OPERATIONAL", "geometry": {"location": {"lat": 40.2587888, "lng": -3.2386748}, "viewport": {"northeast": {"lat": 40.26021238029151, "lng": -3.237357969708498}, "southwest": {"lat": 40.25751441970851, "lng": -3.240055930291502}}}, "icon": "https://maps.gstatic.com/mapfiles/place_api/icons/v1/png_71/parking-71.png", "icon_background_color": "#7B9EB0", "icon_mask_base_uri": "https://maps.gstatic.com/mapfiles/place_api/icons/v2/parking_pinlet", "name": "Parking privado", "place_id": "ChIJzacs3ZVnQg0RbI51Rs-nFhA", "plus_code": {"compound_code": "7Q56+GG Carabaña, Spain", "global_code": "8CGR7Q56+GG"}, "rating": 5, "reference": "ChIJzacs3ZVnQg0RbI51Rs-nFhA", "scope": "GOOGLE", "types": ["parking", "point_of_interest", "establishment"], "user_ratings_total": 1, "vicinity": "Calle San Isidro, 21, Carabaña"}, {"business_status": "OPERATIONAL", "geometry": {"location": {"lat": 40.2612031, "lng": -3.2301199}, "viewport": {"northeast": {"lat": 40.2626185802915, "lng": -3.228736519708498}, "southwest": {"lat": 40.2599206197085, "lng": -3.231434480291502}}}, "icon": "https://maps.gstatic.com/mapfiles/place_api/icons/v1/png_71/parking-71.png", "icon_background_color": "#7B9EB0", "icon_mask_base_uri": "https://maps.gstatic.com/mapfiles/place_api/icons/v2/parking_pinlet", "name": "Aparcamiento", "opening_hours": {"open_now": true}, "place_id": "ChIJXRv8ugJnQg0RPR6NhBUvEAw", "plus_code": {"compound_code": "7Q69+FX Carabaña, Spain", "global_code": "8CGR7Q69+FX"}, "reference": "ChIJXRv8ugJnQg0RPR6NhBUvEAw", "scope": "GOOGLE", "types": ["parking", "point_of_interest", "establishment"], "vicinity": "Camino de Valhondo, 34, Carabaña"}, {"business_status": "OPERATIONAL", "geometry": {"location": {"lat": 40.255702, "lng": -3.2427464}, "viewport": {"northeast": {"lat": 40.25710138029149, "lng": -3.241364969708498}, "southwest": {"lat": 40.2544034197085, "lng": -3.244062930291502}}}, "icon": "https://maps.gstatic.com/mapfiles/place_api/icons/v1/png_71/parking-71.png", "icon_background_color": "#7B9EB0", "icon_mask_base_uri": "https://maps.gstatic.com/mapfiles/place_api/icons/v2/parking_pinlet", "name": "Parking escalada Peñaprieta", "opening_hours": {"open_now": true}, "place_id": "ChIJTdEDLQBnQg0RcNBWa6VQMMw", "plus_code": {"compound_code": "7Q44+7W Carabaña, Spain", "global_code": "8CGR7Q44+7W"}, "reference": "ChIJTdEDLQBnQg0RcNBWa6VQMMw", "scope": "GOOGLE", "types": ["parking", "point_of_interest", "establishment"], "vicinity": "Calle Tejera, 42, Carabaña"}]