[{"business_status": "OPERATIONAL", "geometry": {"location": {"lat": 40.4071468, "lng": -3.9988384}, "viewport": {"northeast": {"lat": 40.4085044302915, "lng": -3.997436719708498}, "southwest": {"lat": 40.4058064697085, "lng": -4.000134680291502}}}, "icon": "https://maps.gstatic.com/mapfiles/place_api/icons/v1/png_71/shopping-71.png", "icon_background_color": "#4B96F3", "icon_mask_base_uri": "https://maps.gstatic.com/mapfiles/place_api/icons/v2/shoppingcart_pinlet", "international_phone_number": "+34 912 17 04 53", "name": "Supermercados Dia", "opening_hours": {"open_now": false}, "photos": [{"height": 856, "html_attributions": ["<a href=\"https://maps.google.com/maps/contrib/103972474463793902283\">Supermercados Dia</a>"], "photo_reference": "AWn5SU7PYSFtAP7PHEEtt6-E3yuBrQWYmmHNmQKkEOag4Mfdauhj1BxzXHgRCy4sytYzen78fUSIYmtQfFhSCkAx2_GSQGF8npBjH-T2iSHbTTWt3DzfdCZDBYJut04OyK3ZnUwb19RCOaR3MEf8K6N5F5dK3wKygJYtwzMJFYHrQPMaqfSkCbBIONBveUlcetmNTdHcHL9LwLWhHEqBjyU2g4wXQV8oimIJopgLG78DAEnfidMtEWUUNhpOeF_BEgwz65kyLwLgOZmPslZ7pl7gW-9sZmc9vVhTuQDME66rE5FnPxRqX4CIqri2xwgyfEMs8QiUYGjdN5w", "width": 882}], "place_id": "ChIJE0OGRuOZQQ0Ru0B-ek1dlG4", "plus_code": {"compound_code": "C242+VF Brunete, Spain", "global_code": "8CGRC242+VF"}, "rating": 3.9, "reference": "ChIJE0OGRuOZQQ0Ru0B-ek1dlG4", "scope": "GOOGLE", "types": ["supermarket", "bakery", "convenience_store", "grocery_or_supermarket", "store", "point_of_interest", "food", "establishment"], "user_ratings_total": 329, "vicinity": "Plaza Altozano, 4, Brunete"}, {"business_status": "OPERATIONAL", "geometry": {"location": {"lat": 40.40437679999999, "lng": -3.9992962}, "viewport": {"northeast": {"lat": 40.4057179802915, "lng": -3.997915919708498}, "southwest": {"lat": 40.4030200197085, "lng": -4.000613880291502}}}, "icon": "https://maps.gstatic.com/mapfiles/place_api/icons/v1/png_71/shopping-71.png", "icon_background_color": "#4B96F3", "icon_mask_base_uri": "https://maps.gstatic.com/mapfiles/place_api/icons/v2/shopping_pinlet", "international_phone_number": "+34 605 71 73 87", "name": "Alimentacion y Bazar", "opening_hours": {"open_now": false}, "place_id": "ChIJAdh1wOKZQQ0RLYK0drQ4nR0", "plus_code": {"compound_code": "C232+Q7 Brunete, Spain", "global_code": "8CGRC232+Q7"}, "reference": "ChIJAdh1wOKZQQ0RLYK0drQ4nR0", "scope": "GOOGLE", "types": ["supermarket", "grocery_or_supermarket", "store", "point_of_interest", "food", "establishment"], "vicinity": "Calle la Esperanza, 3, Brunete"}, {"business_status": "OPERATIONAL", "geometry": {"location": {"lat": 40.4034878, "lng": -4.0008574}, "viewport": {"northeast": {"lat": 40.4048296802915, "lng": -3.999611919708499}, "southwest": {"lat": 40.4021317197085, "lng": -4.002309880291503}}}, "icon": "https://maps.gstatic.com/mapfiles/place_api/icons/v1/png_71/shopping-71.png", "icon_background_color": "#4B96F3", "icon_mask_base_uri": "https://maps.gstatic.com/mapfiles/place_api/icons/v2/shoppingcart_pinlet", "international_phone_number": "+34 918 16 52 95", "name": "Supermercado Brunete", "opening_hours": {"open_now": false}, "photos": [{"height": 4032, "html_attributions": ["<a href=\"https://maps.google.com/maps/contrib/105776261958421222714\">Luis Miguel Soto</a>"], "photo_reference": "AWn5SU6ptHG2citC7CS0I_tWLGZ01hCYvwtqyLkVR43dg0mhc91kdhNIlS35reaG2n8TtcGIaU-O8UqesuG83L9QRn_9u-h7mZpC1wRP-tqlS1eoeC-F-24rt9czWaBT5qbtkZzxcSJIzOMbVqBiqel3ALzr9AH8K61p8aZBMPIdTwybHHXc-nzFK30Uk1YPIvxCHGd0qERbYwi1HwcTW5h_9JyyYX1KoNIRl5T5oSU5ZOqH-Rabz9JarT9XIfaT2AFn8p2WU-dKXukruM9dpGGGXqNwxHjCO4J8zDM3dX9WZ_wtYAzKs7yDIp-sen7OueZ_Y3QmrgLOdHmSbTC6U8WWd_GVZ6hDviHggBG8Xmf-R8d5FhVctc5-rcyEoBAY1NBvSI38lmWsmKp4UTgHg0M7_uLj87X3kyuWUGqWS0pDHFFdtDOUmUpSDPxd4biTPerJpTnKoNXLoOJ5EdQ8JY5bHHPz-ncBSywLsYp22E9rmC_1MVNF5xWBbr8taQ2NAH8sVzWuJCDjyKaCzwottnbFj1SrrORMRapukv2OGIS7lmtEmaA7fISy-45jlA1C2Y29NY3GizWDSs7fAD1UhwA-MWk09SOrK5th_f8VphbFscqbUqyzxonlOvA1MSUfqt57CM2Xjg", "width": 3024}], "place_id": "ChIJx3CQDr2ZQQ0R3j8ALFvHups", "plus_code": {"compound_code": "CX3X+9M Brunete, Spain", "global_code": "8CGQCX3X+9M"}, "rating": 4.6, "reference": "ChIJx3CQDr2ZQQ0R3j8ALFvHups", "scope": "GOOGLE", "types": ["supermarket", "grocery_or_supermarket", "store", "point_of_interest", "food", "establishment"], "user_ratings_total": 30, "vicinity": "Calle Escorial, 22, Brunete"}, {"business_status": "OPERATIONAL", "geometry": {"location": {"lat": 40.3979414, "lng": -3.994515600000001}, "viewport": {"northeast": {"lat": 40.3993462802915, "lng": -3.993151269708499}, "southwest": {"lat": 40.3966483197085, "lng": -3.995849230291503}}}, "icon": "https://maps.gstatic.com/mapfiles/place_api/icons/v1/png_71/shopping-71.png", "icon_background_color": "#4B96F3", "icon_mask_base_uri": "https://maps.gstatic.com/mapfiles/place_api/icons/v2/shoppingcart_pinlet", "international_phone_number": "+34 918 27 57 73", "name": "Hiper Usera", "opening_hours": {"open_now": false}, "photos": [{"height": 2080, "html_attributions": ["<a href=\"https://maps.google.com/maps/contrib/115303276744738539660\">Hiper Usera</a>"], "photo_reference": "AWn5SU7C6_al2hINC1kuETo2p41QDARhEU4XDKYzKyswlVuhlC4zGFkaxvu6iSUekFtuuslBFUYqdPbxMYT3KC_YA1WDMtStid-yIb8e2ZHlx-dX3OIIhJKMn91JW23p0_PtdkhO20oAr4BPltZOfXyaaE8wBlNhyflvibWmFngttavttkpdZbKLXqQ3nAaFk1YtLr04ihED5kssiygCgJmzzRHSRWCm2iMA__qWUKwcGmTeF-wYjhwgAx5Q8VwuHW2KE6cVJ2H4EX5TVMCNPCaydD-4QaVr2_HFGFH93H6IRwH-oZv2ECATxcvbEEatZU9LGbIVc1PRgv4", "width": 1560}], "place_id": "ChIJdQoKml6XQQ0RBU0tGR8OMVY", "plus_code": {"compound_code": "92X4+55 Brunete, Spain", "global_code": "8CGR92X4+55"}, "rating": 4.2, "reference": "ChIJdQoKml6XQQ0RBU0tGR8OMVY", "scope": "GOOGLE", "types": ["supermarket", "grocery_or_supermarket", "store", "point_of_interest", "food", "establishment"], "user_ratings_total": 297, "vicinity": "Pºr.DE SAN SEBASTIÁN, s/n-C, Calle Río Alberche, Brunete"}, {"business_status": "OPERATIONAL", "geometry": {"location": {"lat": 40.3973008, "lng": -3.9941572}, "viewport": {"northeast": {"lat": 40.39867418029149, "lng": -3.992708569708498}, "southwest": {"lat": 40.3959762197085, "lng": -3.995406530291503}}}, "icon": "https://maps.gstatic.com/mapfiles/place_api/icons/v1/png_71/shopping-71.png", "icon_background_color": "#4B96F3", "icon_mask_base_uri": "https://maps.gstatic.com/mapfiles/place_api/icons/v2/shoppingcart_pinlet", "international_phone_number": "+34 635 80 95 81", "name": "Hiper Euroling", "opening_hours": {"open_now": false}, "photos": [{"height": 727, "html_attributions": ["<a href=\"https://maps.google.com/maps/contrib/105815251988371134048\">Hiper Euroling</a>"], "photo_reference": "AWn5SU5669e3a1R6XB4ZBz4ZVD1338iiCHzaoQDcWYAnmmtiibf_ks6GKHafFq6XtS1POnpINzyjZdc7KQFQFVEFJZY9TB-lvPHqlBrmw6xbCfsHhN4pC9_7P4G_G9Kwb6v8RnGQmJpCIImyxuRmjIZZQk8T6PK5hwhKzvqQPMYpfnVuDpsJv4--r9A0LauxArOd-AuNdRQVxopzseGGCyvEJP8ke6zGyTfeH3j3Tw5PVTuKDy4yhjojdqmjLnk7r9gFGx5__E2T-LlM3Y-xUFhjvUuxyjDz7RlcRCvA3LcanRW63a1LcuKPKJpTmZXcYezesIpTzpr2WhY", "width": 1291}], "place_id": "ChIJ5QCOR1GXQQ0RPpES6irLjpU", "plus_code": {"compound_code": "92W4+W8 Brunete, Spain", "global_code": "8CGR92W4+W8"}, "rating": 4.1, "reference": "ChIJ5QCOR1GXQQ0RPpES6irLjpU", "scope": "GOOGLE", "types": ["supermarket", "grocery_or_supermarket", "store", "point_of_interest", "food", "establishment"], "user_ratings_total": 124, "vicinity": "Calle Real de San Sebastián, 48, Brunete"}, {"business_status": "OPERATIONAL", "geometry": {"location": {"lat": 40.3948068, "lng": -3.9925041}, "viewport": {"northeast": {"lat": 40.39627928029149, "lng": -3.991263769708497}, "southwest": {"lat": 40.3935813197085, "lng": -3.993961730291502}}}, "icon": "https://maps.gstatic.com/mapfiles/place_api/icons/v1/png_71/shopping-71.png", "icon_background_color": "#4B96F3", "icon_mask_base_uri": "https://maps.gstatic.com/mapfiles/place_api/icons/v2/shopping_pinlet", "international_phone_number": "+34 900 902 466", "name": "Aldi", "opening_hours": {"open_now": false}, "photos": [{"height": 608, "html_attributions": ["<a href=\"https://maps.google.com/maps/contrib/117619392983848236366\">ALDI</a>"], "photo_reference": "AWn5SU4prDbCcaoAQzK2XgRZwB8X9vO18C7CAJv1gku9KFqMQmlekY0uy3PjnjcQYtlz683yWEd8Zs6g2TFrJlWRtELsRVPyyYZhmqUbxUXkV99i3hie3X807UX9VgebEKZ_7NOUpjpe6xG-bhvG2_nH3w9C11wL3XJQ55wxo65Y8SI3XK-4xI7lUhyluQdXuqPBiz2DbhNGtCs8AnEc7qSRIuFZD3vbk0N5Ur08fM5Q8noi9YXts6H31VM_6g_DmNTMMBD444zY37n_Qfw6j1riLPhfv-xuIkWg0NlSDDmX-JzOeEMgmy2cICpphVT4VVjjfairDM88nY8", "width": 1080}], "place_id": "ChIJkTP9JVKXQQ0RZo0yjsVEPMU", "plus_code": {"compound_code": "92V4+WX Brunete, Spain", "global_code": "8CGR92V4+WX"}, "price_level": 1, "rating": 4.1, "reference": "ChIJkTP9JVKXQQ0RZo0yjsVEPMU", "scope": "GOOGLE", "types": ["supermarket", "grocery_or_supermarket", "store", "point_of_interest", "food", "establishment"], "user_ratings_total": 1811, "vicinity": "Carretera San Martin, 1, Brunete"}]