[{"business_status": "OPERATIONAL", "geometry": {"location": {"lat": 40.35385969999999, "lng": -3.272616799999999}, "viewport": {"northeast": {"lat": 40.35520298029149, "lng": -3.271271419708498}, "southwest": {"lat": 40.3525050197085, "lng": -3.273969380291502}}}, "icon": "https://maps.gstatic.com/mapfiles/place_api/icons/v1/png_71/school-71.png", "icon_background_color": "#7B9EB0", "icon_mask_base_uri": "https://maps.gstatic.com/mapfiles/place_api/icons/v2/school_pinlet", "international_phone_number": "+34 918 73 52 82", "name": "Colegio Internacional Eurovillas", "opening_hours": {"open_now": false}, "photos": [{"height": 697, "html_attributions": ["<a href=\"https://maps.google.com/maps/contrib/113197476186002045841\">Colegio Internacional Eurovillas</a>"], "photo_reference": "AWn5SU4E4ctU9QLdhuqAmYIFOwQ65UTfmfnnijrXhwTY8W2WYR1KhTBcU7xuTrXYd5Nu13PRVcfYFVkfil_TVQcuql6mrkdVU-7Zy1qW9MM53FjxP_11NkVttzmAJ3Jk6wqpmnywHD824vw9aLP6l-vuu7xHiYV3SL5H-M1VDApEWmnHENlE1eaDZy-B5sTUdkja8piuhDgAcxq52h3hzmUg7YTHrD1UXxaTycBT70v89pM73wflSlZ8A-Wjc9DPR2u6LvV_R2gzsIiMBqWKg1mGkA9EaDJwTY3Ma4ieCQM32_VxQYqeiBYodzeeuubaOh0tomJMXs93", "width": 1600}], "place_id": "ChIJ2UR47qREQg0RIR8QFxsmjRk", "plus_code": {"compound_code": "9P3G+GX Nuevo Baztán, Spain", "global_code": "8CGR9P3G+GX"}, "reference": "ChIJ2UR47qREQg0RIR8QFxsmjRk", "scope": "GOOGLE", "types": ["school", "point_of_interest", "establishment"], "vicinity": "Posada de Castilla b, 107, Nuevo Baztán"}, {"business_status": "OPERATIONAL", "geometry": {"location": {"lat": 40.3651232, "lng": -3.2420986}, "viewport": {"northeast": {"lat": 40.36651158029151, "lng": -3.240817819708498}, "southwest": {"lat": 40.36381361970851, "lng": -3.243515780291502}}}, "icon": "https://maps.gstatic.com/mapfiles/place_api/icons/v1/png_71/school-71.png", "icon_background_color": "#7B9EB0", "icon_mask_base_uri": "https://maps.gstatic.com/mapfiles/place_api/icons/v2/school_pinlet", "international_phone_number": "+34 660 00 99 10", "name": "POCHOLINES", "opening_hours": {"open_now": false}, "photos": [{"height": 2000, "html_attributions": ["<a href=\"https://maps.google.com/maps/contrib/114931075098500987454\">JUAN MARTIN</a>"], "photo_reference": "AWn5SU6h47YF1A_wu4nQsxbi2m-DhtiG5qOj-b0LyPrmpCHkj5IhgfGMdZ7qnF854XvVykSV0lnkDruPqD38VF5Kp7xfczZQnnNyx4eRlhKRLdDDg0FriuGccIKZLacil1nJgptFspGtbcLC4aZ1tQ2rJvJsPhZ9BVjzIe9Vyl0wD9PENDCofQ8q_huxBtw-2DL0jeXNUBnIcajdumUosePDdzAYOFb8GlAGvPZvMJaq6qeUghtuI4jTYrDu3-Wx4vKckHqdvT7klI-uBz_pl1EIjhEQe0bkhUHMtCUmajUM_5pbHQNGlwmD_mMr_AH0yoG2XfMMt54ZDI8a21MQRL6xXnhh2ucbrnUbycLWT7rzzSR-yeMKHD6t19G0DpGxSGjO9ETOR5Z_zImFQjvVQSxIPl37qOm0Yo44F8bam6AHxXuMbQTeNI5jLMOA8gwnDQM1ZseR7nF-9aJHNSwXzVNRa-5tRCwp5EMuj_qD8DcwHJUyTZSyi1cQeR028Z2JBaX7k9mdCiF7owR9BbH_1OfPS78-RdB6t6cybT7g5aYw3O82BbkF-E5FB9Uw1g4vaZwDpxE3TdOu1UcQZE0M0F6JuKCaD9OTh_bwqi0gKtiOwXTdBX-pb0QxxgEoSR9gwWnCfWzCqw", "width": 4000}], "place_id": "ChIJZ8YSo0BbQg0R9o0br_n_FM0", "plus_code": {"compound_code": "9Q85+25 Nuevo Baztán, Spain", "global_code": "8CGR9Q85+25"}, "rating": 4.5, "reference": "ChIJZ8YSo0BbQg0R9o0br_n_FM0", "scope": "GOOGLE", "types": ["school", "point_of_interest", "establishment"], "user_ratings_total": 16, "vicinity": "Calle de los Jardines, 20, Nuevo Baztán"}, {"business_status": "OPERATIONAL", "geometry": {"location": {"lat": 40.36067329999999, "lng": -3.2434422}, "viewport": {"northeast": {"lat": 40.36195963029149, "lng": -3.242070469708499}, "southwest": {"lat": 40.35926166970849, "lng": -3.244768430291503}}}, "icon": "https://maps.gstatic.com/mapfiles/place_api/icons/v1/png_71/school-71.png", "icon_background_color": "#7B9EB0", "icon_mask_base_uri": "https://maps.gstatic.com/mapfiles/place_api/icons/v2/school_pinlet", "international_phone_number": "+34 918 73 40 57", "name": "Escuela de Educación Infantil Casa de Niños", "place_id": "ChIJmVPwVkFbQg0RIoeNduRcqYE", "plus_code": {"compound_code": "9Q64+7J Nuevo Baztán, Spain", "global_code": "8CGR9Q64+7J"}, "reference": "ChIJmVPwVkFbQg0RIoeNduRcqYE", "scope": "GOOGLE", "types": ["school", "point_of_interest", "establishment"], "vicinity": "Avenida Glasgow, 0, Nuevo Baztán"}, {"business_status": "OPERATIONAL", "geometry": {"location": {"lat": 40.3690325, "lng": -3.220146}, "viewport": {"northeast": {"lat": 40.37042033029149, "lng": -3.218739819708498}, "southwest": {"lat": 40.3677223697085, "lng": -3.221437780291502}}}, "icon": "https://maps.gstatic.com/mapfiles/place_api/icons/v1/png_71/school-71.png", "icon_background_color": "#7B9EB0", "icon_mask_base_uri": "https://maps.gstatic.com/mapfiles/place_api/icons/v2/school_pinlet", "international_phone_number": "+34 918 73 65 16", "name": "Escuela de Educación Infantil Casa de Niños la Encina", "photos": [{"height": 3024, "html_attributions": ["<a href=\"https://maps.google.com/maps/contrib/114278459179602537566\">Xu Cai</a>"], "photo_reference": "AWn5SU493CKd5Et5SbcGWwYsPtb7G3lRYVDvBqRTQbXXD8c35qo_p8Mj8_auekqTtCzLFGi5MDCHmo7jMVGUA4rkIPSrmhYdP_ndlIKijgOgfYKBh4gLBjqWz0TymlhER_YZ4xbiB1Tdr8U2a2IDZbiqlNbmfijfuM28zuR1yaRn7hAV-fCSsra-4QOnW_A8ZHzcH5WJCDeK7-Do-futSqNg6xThPD3Aclpn-YjWx5tEt2EHXPoN7n8lgnttms0zCqWqWbbGmfpskrIQJHth_lzBmScekXyOPa1OeXzxo74nMlm0a882pdjScF_6mLIbB83oQTl7STSmDGXPffKFA5I4kj0iN4jFQ6d6gjbNJvjsBbKDllxMamoubkT_KjpyeY2d54N-xTCL6VOn_-E0eso00JPTmzzJkMG5qB4mjAzEkdyoXGLo7MX3GHbxcPwBkemHLpHseGCru7tQxZSjqppDuu_LuBaCB8qvZTSRqKWS8dVHymUUCtMb4X-k_MsXZ6sT3WftdUjJRdhGj2nV6VKrRStHUe4cZoXYGZI_Mw0GU2-x6y3VAyjuF2Y4rOBf7kN3GM_3dHi0-Ou9gtdrEqcnC5r4ypMktHVQL4q2qGygBBEiYIhd2ISTHzRov4znLPi2HsKt0fq1", "width": 4032}], "place_id": "ChIJ7YwDUQpbQg0Rw8HcSAZVHDs", "plus_code": {"compound_code": "9Q9H+JW Olmeda de las Fuentes, Spain", "global_code": "8CGR9Q9H+JW"}, "reference": "ChIJ7YwDUQpbQg0Rw8HcSAZVHDs", "scope": "GOOGLE", "types": ["school", "point_of_interest", "establishment"], "vicinity": "Calle del Pintor Álvaro Delgado, 4, Olmeda de las Fuentes"}, {"business_status": "OPERATIONAL", "geometry": {"location": {"lat": 40.3603349, "lng": -3.243965499999999}, "viewport": {"northeast": {"lat": 40.3614221802915, "lng": -3.242479519708499}, "southwest": {"lat": 40.3587242197085, "lng": -3.245177480291503}}}, "icon": "https://maps.gstatic.com/mapfiles/place_api/icons/v1/png_71/school-71.png", "icon_background_color": "#7B9EB0", "icon_mask_base_uri": "https://maps.gstatic.com/mapfiles/place_api/icons/v2/school_pinlet", "international_phone_number": "+34 918 73 50 70", "name": "CEIP Juan de Goyeneche", "opening_hours": {"open_now": false}, "place_id": "ChIJa2NXHURbQg0R3juClP_IqbM", "plus_code": {"compound_code": "9Q64+4C Nuevo Baztán, Spain", "global_code": "8CGR9Q64+4C"}, "reference": "ChIJa2NXHURbQg0R3juClP_IqbM", "scope": "GOOGLE", "types": ["school", "point_of_interest", "establishment"], "vicinity": "Avenida Glasgow, 1, 3, Nuevo Baztán"}, {"business_status": "CLOSED_TEMPORARILY", "geometry": {"location": {"lat": 40.3498399, "lng": -3.257979499999999}, "viewport": {"northeast": {"lat": 40.35114443029151, "lng": -3.256612719708498}, "southwest": {"lat": 40.34844646970851, "lng": -3.259310680291502}}}, "icon": "https://maps.gstatic.com/mapfiles/place_api/icons/v1/png_71/school-71.png", "icon_background_color": "#7B9EB0", "icon_mask_base_uri": "https://maps.gstatic.com/mapfiles/place_api/icons/v2/school_pinlet", "international_phone_number": "+34 685 71 28 66", "name": "Resolviendo mis incognitas", "permanently_closed": true, "place_id": "ChIJWXmY5aFbQg0RwmkSoVj6ZRI", "plus_code": {"compound_code": "8PXR+WR Nuevo Baztán, Spain", "global_code": "8CGR8PXR+WR"}, "reference": "ChIJWXmY5aFbQg0RwmkSoVj6ZRI", "scope": "GOOGLE", "types": ["school", "health", "point_of_interest", "establishment"], "vicinity": "Avenida Quintanar, 76, Nuevo Baztán"}, {"business_status": "OPERATIONAL", "geometry": {"location": {"lat": 40.33686529999999, "lng": -3.235443}, "viewport": {"northeast": {"lat": 40.33818573029149, "lng": -3.234068569708498}, "southwest": {"lat": 40.33548776970849, "lng": -3.236766530291502}}}, "icon": "https://maps.gstatic.com/mapfiles/place_api/icons/v1/png_71/school-71.png", "icon_background_color": "#7B9EB0", "icon_mask_base_uri": "https://maps.gstatic.com/mapfiles/place_api/icons/v2/school_pinlet", "international_phone_number": "+34 918 73 21 79", "name": "Escuela de Educación Infantil Casa de Niños El Olmo", "place_id": "ChIJMb5YsZlcQg0RUYQ-tmskosc", "plus_code": {"compound_code": "8QP7+PR Villar del Olmo, Spain", "global_code": "8CGR8QP7+PR"}, "reference": "ChIJMb5YsZlcQg0RUYQ-tmskosc", "scope": "GOOGLE", "types": ["school", "point_of_interest", "establishment"], "vicinity": "Calle Carlos Ruiz, 13, Villar del Olmo"}, {"business_status": "OPERATIONAL", "geometry": {"location": {"lat": 40.3365011, "lng": -3.234956}, "viewport": {"northeast": {"lat": 40.3378079302915, "lng": -3.233533719708498}, "southwest": {"lat": 40.3351099697085, "lng": -3.236231680291501}}}, "icon": "https://maps.gstatic.com/mapfiles/place_api/icons/v1/png_71/school-71.png", "icon_background_color": "#7B9EB0", "icon_mask_base_uri": "https://maps.gstatic.com/mapfiles/place_api/icons/v2/school_pinlet", "name": "Colegio Ntra. Sra. de la Antigua de Villar del Olmo", "photos": [{"height": 576, "html_attributions": ["<a href=\"https://maps.google.com/maps/contrib/113849122525580470613\">Mariano RIVERA VÁZQUEZ</a>"], "photo_reference": "AWn5SU6Y5-6qfuipVLzkyF7DrNklRfB0fMPbA-HyVEyeXqZ1jiyL1KUexbtbM5pxeqKH_MiH-eNtLne6Sk-y6eJPpdT5NxW6qEx5ZUfsed0rYYZfBm_Clr5XuF78yKsNsxwSgKGtt6zFHTjN2JimMlCdQEu_B0ZW_edRRfHU7e_JDTTyl2sb1QIjroEsNi_M68JP0rDdxLpoZ16rVuZHINFRnBTyoO2hvOMk_tJLNk8A7yGEZnIysIRP60fVL5oSNjrD8u_yzKdYIe6hid_T7DRp6V32fb6hyC9rHPJJ--49YrTMDCyjwbIEGOOXjl4D5ah76STuqOAsboCdI8aU3ou9t3RySrXBSKUSH5Mr6ceh8hCZu3Lw3tVFIUOpLtTW14onGOaNzQA4ft7tiaTzuI9CcKjApNfIO3EQtlNGVZiIV2GbcgRm2CoGShtxxBqhMIg0AwjCxH7Ys4vyWQuJS1epMXG5Gz3vSHG_mdIt1l1i11eYpxBhKh42f4T11-Zy8tt_33xhkL8eU3NKizB2MeE_N1BJPwsJGEOKGQ8p4g8HyrjpCmtbgGV5XEE7ekAnjaL0F1bT2c8roJw4wEotBkRxTK-WNGTL_sdK0im04WkYAaqMAYZuavQ3iELlFP_aagFDmOgraQ", "width": 960}], "place_id": "ChIJO2J5uJlcQg0R1qcWnndSBAI", "plus_code": {"compound_code": "8QP8+J2 Villar del Olmo, Spain", "global_code": "8CGR8QP8+J2"}, "reference": "ChIJO2J5uJlcQg0R1qcWnndSBAI", "scope": "GOOGLE", "types": ["school", "point_of_interest", "establishment"], "vicinity": "Plaza Abdullah II de Jordania, Villar del Olmo"}, {"business_status": "OPERATIONAL", "geometry": {"location": {"lat": 40.32755100000001, "lng": -3.1830472}, "viewport": {"northeast": {"lat": 40.3288832302915, "lng": -3.181649469708498}, "southwest": {"lat": 40.3261852697085, "lng": -3.184347430291502}}}, "icon": "https://maps.gstatic.com/mapfiles/place_api/icons/v1/png_71/school-71.png", "icon_background_color": "#7B9EB0", "icon_mask_base_uri": "https://maps.gstatic.com/mapfiles/place_api/icons/v2/school_pinlet", "international_phone_number": "+34 918 72 20 93", "name": "Casa De Niños Rio Tajuña", "opening_hours": {"open_now": false}, "place_id": "ChIJWWAcyCFcQg0RiwfMI44yzw8", "plus_code": {"compound_code": "8RH8+2Q Ambite, Spain", "global_code": "8CGR8RH8+2Q"}, "rating": 5, "reference": "ChIJWWAcyCFcQg0RiwfMI44yzw8", "scope": "GOOGLE", "types": ["school", "point_of_interest", "establishment"], "user_ratings_total": 2, "vicinity": "Calle Benito Torres, 8, Ambite"}, {"business_status": "OPERATIONAL", "geometry": {"location": {"lat": 40.32736389999999, "lng": -3.1831719}, "viewport": {"northeast": {"lat": 40.3286857302915, "lng": -3.181773319708498}, "southwest": {"lat": 40.3259877697085, "lng": -3.184471280291501}}}, "icon": "https://maps.gstatic.com/mapfiles/place_api/icons/v1/png_71/school-71.png", "icon_background_color": "#7B9EB0", "icon_mask_base_uri": "https://maps.gstatic.com/mapfiles/place_api/icons/v2/school_pinlet", "name": "Colegio 3 De Mayo", "photos": [{"height": 3264, "html_attributions": ["<a href=\"https://maps.google.com/maps/contrib/107302130115293216373\">Isabel Dominguez Sanz</a>"], "photo_reference": "AWn5SU6pD2CCZ4GcZ_brNB72yl5jC-9I6S8iJYFrnoev6Uho0HosgOnaPiHtzrYZymuVNMKWzUyds_6NpeoxTfR3wO_FRPNxF5dkD3DYzs4qytNNzu1314GEoWSBYnMV44kru4ll-gK089ZEwNlit82ZLT-sEiLdoPlCw7u10QapZoyRZJZEG3iMwhspSMyqiJCXAluu3ihkN5S8Crkmw7-sDKYTFauQtkrXerO71CsectSp7rjYiajJ-xxOIWT-OqkvnfvRvF__TSxwocmkRM5UgZq83tAkBLufh95rlPTckCduwTZvlKKpVTjMpqNznrljSpJ6kkO-25LfMxJEuVKHv1eDbnoBlfe_trXrp9jaIO-PMXna_86dDPY2ASEfXcFVuinN7xRXNWzr7lKsyvu1ia6xF78xeporvrOv2uihQ_WCOZvrbfxNF2FnO3PwiuGItBQtXJaIZdqQHYyaHiRlb_YC7ZEUAILUIy5kYJnzLO8Kbw93Z3r3eCdAnv1bTqKWbm1mNnooJlLq497XYuOIJOjbauRnJL2dAOzOeigclp3nqpCvts7sv1-1iCqF7-Y7AOSjqsf3ZaJ3z51tPkHPBxvAJXDijqqIishPF-gleeCxziRIJp88sCmDd2h5nFyJANgH6Q", "width": 2448}], "place_id": "ChIJwwaEtBhcQg0RjV7G88SAuEw", "plus_code": {"compound_code": "8RG8+WP Ambite, Spain", "global_code": "8CGR8RG8+WP"}, "reference": "ChIJwwaEtBhcQg0RjV7G88SAuEw", "scope": "GOOGLE", "types": ["school", "point_of_interest", "establishment"], "vicinity": "Calle Benito Torres, 10, Ambite"}, {"business_status": "OPERATIONAL", "geometry": {"location": {"lat": 40.4190057, "lng": -3.1793564}, "viewport": {"northeast": {"lat": 40.4203276802915, "lng": -3.178010219708499}, "southwest": {"lat": 40.4176297197085, "lng": -3.180708180291502}}}, "icon": "https://maps.gstatic.com/mapfiles/place_api/icons/v1/png_71/school-71.png", "icon_background_color": "#7B9EB0", "icon_mask_base_uri": "https://maps.gstatic.com/mapfiles/place_api/icons/v2/school_pinlet", "international_phone_number": "+34 918 85 96 39", "name": "Colegio Rural Agrupado Amigos de la Paz", "place_id": "ChIJLSUJAYNFQg0RQjERcah5Ufg", "plus_code": {"compound_code": "CR9C+J7 Pezuela de las Torres, Spain", "global_code": "8CGRCR9C+J7"}, "reference": "ChIJLSUJAYNFQg0RQjERcah5Ufg", "scope": "GOOGLE", "types": ["school", "point_of_interest", "establishment"], "vicinity": "Calle de Santa Ana, Pezuela de las Torres"}, {"business_status": "OPERATIONAL", "geometry": {"location": {"lat": 40.4189928, "lng": -3.1766351}, "viewport": {"northeast": {"lat": 40.4202349802915, "lng": -3.175624669708498}, "southwest": {"lat": 40.4175370197085, "lng": -3.178322630291502}}}, "icon": "https://maps.gstatic.com/mapfiles/place_api/icons/v1/png_71/school-71.png", "icon_background_color": "#7B9EB0", "icon_mask_base_uri": "https://maps.gstatic.com/mapfiles/place_api/icons/v2/school_pinlet", "international_phone_number": "+34 918 86 94 18", "name": "Escuela De Educación Infantil Casa De Niños Galopines", "opening_hours": {"open_now": false}, "photos": [{"height": 1512, "html_attributions": ["<a href=\"https://maps.google.com/maps/contrib/106784221330250259163\">Escuela De Educación Infantil Casa De Niños Galopines</a>"], "photo_reference": "AWn5SU40nJnc_2dfhaY--n3QV8CDysf6ojBNz1i8KF3DcurlhvqUhK3shbubaRbYhsmm6kGON_H-ukcRpyH7hBp3X0FMdlVtlwi5fxYat15_-LOkPuWSNT8Sa2w_IAZZQLhNz7KpWgZPJu2-bRMn9fL9Vn4iNzAmlYdo3ty6kFfcNwFAXjNCfzJi-OkCb-BfiOgBzJaKDR1eTRB1ylReDzw-_CBnsc6AfQXJ-lNXu38GmDZxaq5frdiuZUeje4pYSf0o8oucXoYCHptBxtskBy2fOXLLatvtTneMV3oQpZaYS_DTRxKem9N_filO_zkheI8fUKxrvVwVYWQ", "width": 2016}], "place_id": "ChIJ4_o4PfhZQg0RNtGXjNRXUwE", "plus_code": {"compound_code": "CR9F+H8 Pezuela de las Torres, Spain", "global_code": "8CGRCR9F+H8"}, "rating": 5, "reference": "ChIJ4_o4PfhZQg0RNtGXjNRXUwE", "scope": "GOOGLE", "types": ["school", "point_of_interest", "establishment"], "user_ratings_total": 11, "vicinity": "Calle de Sergio Caballero, 14, Pezuela de las Torres"}]