[{"business_status": "OPERATIONAL", "geometry": {"location": {"lat": 40.5434203, "lng": -3.4584458}, "viewport": {"northeast": {"lat": 40.5447694802915, "lng": -3.456998369708498}, "southwest": {"lat": 40.5420715197085, "lng": -3.459696330291502}}}, "icon": "https://maps.gstatic.com/mapfiles/place_api/icons/v1/png_71/bank-71.png", "icon_background_color": "#909CE1", "icon_mask_base_uri": "https://maps.gstatic.com/mapfiles/place_api/icons/v2/bank-intl_pinlet", "international_phone_number": "+34 918 78 23 00", "name": "BBVA", "opening_hours": {"open_now": false}, "photos": [{"height": 720, "html_attributions": ["<a href=\"https://maps.google.com/maps/contrib/112837948615594447003\">BBVA</a>"], "photo_reference": "AWn5SU5SILWW5j4wWs5KI6RZJ2dCQAf4qNC3ftP5angN6FHpaGdC7zuvwFuw27G2BAMCQ5ryWP0O02sXuFvJuBov1sfGD0o7_IFQDXoD-k808hnPdk8J-mTSqGP20nsSsCBdLFMSVoAsPWelFYKkdEisFN-iLNp69EO0zXFU0PNN7CQ49BHeNwQb-OJHloUbm-3TUaLQzr8_hTZPEca666YnEzBOi2Dc3X9XVprerqfWz-w6Ag_JUnplIbKlQlFYP1CrRrXHyvYX_HdX_g34HMZkGCS4AAZt8zEpYyfLWzrDwLp2mFj2cKXiPoS65C4qB_Wavr0OFYlO", "width": 1280}], "place_id": "ChIJBa3ScQA1Qg0RmEjiQiOpbi4", "plus_code": {"compound_code": "GGVR+9J Daganzo de Arriba, Spain", "global_code": "8CGRGGVR+9J"}, "rating": 3.2, "reference": "ChIJBa3ScQA1Qg0RmEjiQiOpbi4", "scope": "GOOGLE", "types": ["bank", "atm", "accounting", "finance", "point_of_interest", "establishment"], "user_ratings_total": 23, "vicinity": "Glorieta de Alcala, 2, Daganzo de Arriba"}, {"business_status": "OPERATIONAL", "geometry": {"location": {"lat": 40.53378799999999, "lng": -3.4789378}, "viewport": {"northeast": {"lat": 40.5351686802915, "lng": -3.477620769708498}, "southwest": {"lat": 40.5324707197085, "lng": -3.480318730291502}}}, "icon": "https://maps.gstatic.com/mapfiles/place_api/icons/v1/png_71/bank-71.png", "icon_background_color": "#909CE1", "icon_mask_base_uri": "https://maps.gstatic.com/mapfiles/place_api/icons/v2/bank-intl_pinlet", "international_phone_number": "+34 918 84 30 56", "name": "Banco Sabadell", "opening_hours": {"open_now": false}, "photos": [{"height": 1080, "html_attributions": ["<a href=\"https://maps.google.com/maps/contrib/102532124654482654371\">Banco Sabadell</a>"], "photo_reference": "AWn5SU5JAfwwSNt3Gy75lbdNqqRqObW5N4RpFtvqGb744Ek_G73X1Fn_LFa6iZiVNbodl9S2Tq0_sAAHQ2NP7_G1CckHojIJ3HWEttzjvE5qpGKb5_DKhnXDyM5FCzsS3E2L9Xe4xploPyPvPrXNHEfiv3QsElOkf0ix94gGf2TCMENp_pii9XwRQvQBa6hKZJa-JQLY8fyibo-ccG-fGTkeFyBzgkh_y119SdrrJfgb6oX4witl5AEGEcT3FkojcPqjaXg3AeKAIhik8TkXVTnxepTK0y0_UcmmBfL1q0jJktD6C-Opjr8df-Kfd5UVk1pK0JO-EvvaMKs", "width": 1920}], "place_id": "ChIJH76BdF00Qg0RwJkLS5oV9ao", "plus_code": {"compound_code": "GGMC+GC Ajalvir, Spain", "global_code": "8CGRGGMC+GC"}, "rating": 1.9, "reference": "ChIJH76BdF00Qg0RwJkLS5oV9ao", "scope": "GOOGLE", "types": ["bank", "atm", "accounting", "finance", "point_of_interest", "establishment"], "user_ratings_total": 29, "vicinity": "Calle Carlos Ruiz, 27, Ajalvir"}, {"business_status": "OPERATIONAL", "geometry": {"location": {"lat": 40.5435861, "lng": -3.457146299999999}, "viewport": {"northeast": {"lat": 40.5449103802915, "lng": -3.455735619708498}, "southwest": {"lat": 40.5422124197085, "lng": -3.458433580291501}}}, "icon": "https://maps.gstatic.com/mapfiles/place_api/icons/v1/png_71/bank-71.png", "icon_background_color": "#909CE1", "icon_mask_base_uri": "https://maps.gstatic.com/mapfiles/place_api/icons/v2/bank-intl_pinlet", "international_phone_number": "+34 918 84 50 77", "name": "Banco Santander", "opening_hours": {"open_now": false}, "photos": [{"height": 720, "html_attributions": ["<a href=\"https://maps.google.com/maps/contrib/111156841888383096025\">Banco Santander</a>"], "photo_reference": "AWn5SU7nR3-yPrmkfuI84vKxbrKbI_UdqcMF7xpjtaSgEka6VSfrangHC3wdubjE2AiaXqxGrYixL3VmUQ_iO4Q0edimokZweW_Y_es2fabPwmMYSXGapfU6Pb2dqCgAoln0NvJceSAnEZVa7rsX2jWS5N52tMWIn8mY9PdBKkIkOUELVtKS33kYtrsNhsRi7uuItHK7_nAQBP1mgPVWseloUW-p28xU00wB34FwSS-unPZD4S_m3ivG6CpOx1RAsMemSiVOXV-tucJtj5l6cLbATOD6nJCFNYE3M1XVJ_0RxxpELSyD4itp4Ub0yL-y5DAy52-g2HFH", "width": 1280}], "place_id": "ChIJpdANjAA1Qg0R9Elbav7drqE", "plus_code": {"compound_code": "GGVV+C4 Daganzo de Arriba, Spain", "global_code": "8CGRGGVV+C4"}, "rating": 2.6, "reference": "ChIJpdANjAA1Qg0R9Elbav7drqE", "scope": "GOOGLE", "types": ["bank", "atm", "finance", "point_of_interest", "establishment"], "user_ratings_total": 39, "vicinity": "Calle Pintor Velazquez, 2, Daganzo de Arriba"}, {"business_status": "OPERATIONAL", "geometry": {"location": {"lat": 40.5342856, "lng": -3.481108299999999}, "viewport": {"northeast": {"lat": 40.53564453029149, "lng": -3.479720169708498}, "southwest": {"lat": 40.53294656970849, "lng": -3.482418130291502}}}, "icon": "https://maps.gstatic.com/mapfiles/place_api/icons/v1/png_71/bank-71.png", "icon_background_color": "#909CE1", "icon_mask_base_uri": "https://maps.gstatic.com/mapfiles/place_api/icons/v2/bank-intl_pinlet", "international_phone_number": "+34 918 84 34 17", "name": "Banco Santander", "opening_hours": {"open_now": false}, "photos": [{"height": 720, "html_attributions": ["<a href=\"https://maps.google.com/maps/contrib/101586826544564224067\">Banco Santander</a>"], "photo_reference": "AWn5SU7cGkQVSJeQSZyVoc8cJythEdqdbPLR124N0_gWVZ2Ryi7DSwlVFv0i7GG-dy8rK7QEQ47vj5Ngry2h8ZUIyRsCpDc2hRlHSRDXCRwv7q_94m5zG7vZG-hWKWGVl1L7I1nrUvUgyEHP8MbcZ3JjONubd2suQklV-kGZzsN_3w2lGBPQ9CVOraTSfX9UFyGsFL7nO5RooPlEIaV3Fridv80hFIIizEszSTE1qx1mdj1zUxAr_SwA1732QgK5BuLfvbrc3BIT4zDCv_Vmey5wawh0E4cNNSLF_pl4-gtoVeCgV7G0PYtzHP_0G8i9QcoE409eq4L3y2o", "width": 1280}], "place_id": "ChIJJQozdGc0Qg0RfafmJMHzMmM", "plus_code": {"compound_code": "GGM9+PH Ajalvir, Spain", "global_code": "8CGRGGM9+PH"}, "rating": 3.9, "reference": "ChIJJQozdGc0Qg0RfafmJMHzMmM", "scope": "GOOGLE", "types": ["bank", "atm", "finance", "point_of_interest", "establishment"], "user_ratings_total": 26, "vicinity": "Calle Fragua, 2, Ajalvir"}, {"business_status": "OPERATIONAL", "geometry": {"location": {"lat": 40.53428660000001, "lng": -3.481113699999999}, "viewport": {"northeast": {"lat": 40.53564503029151, "lng": -3.479722169708498}, "southwest": {"lat": 40.53294706970851, "lng": -3.482420130291502}}}, "icon": "https://maps.gstatic.com/mapfiles/place_api/icons/v1/png_71/atm-71.png", "icon_background_color": "#909CE1", "icon_mask_base_uri": "https://maps.gstatic.com/mapfiles/place_api/icons/v2/atm_pinlet", "international_phone_number": "+34 902 24 24 24", "name": "Cajero automático Banco Santander", "opening_hours": {"open_now": true}, "photos": [{"height": 1080, "html_attributions": ["<a href=\"https://maps.google.com/maps/contrib/116449534231873984214\">JOSE JUAN LOPEZ FERNANDEZ</a>"], "photo_reference": "AWn5SU4jiNKn77Z3XBd5phhXcfY4lKtUKHSX1anYhjdQBI3JRAR-6e2ARKpp-dGtpWxorBl4Y5e2_cOvLvMmbhAY953wpjElBo8R5UVuXceyGGv--ztzOLKn7tRvbuG4wdaT0Kju-3t0lg4Q0BoBYzxKWktGEp1qTF1GvUK1f8ue6H7MNLZHvLhUcaB4LAdZTk5knQOJFhDf3JBSWg_QGD-3lL0frKwqu53Z55K0rbTc8QNw17Pp1Zb8MvVk7rD-5a1dVDEfZEcDSxwj2J6JTPAxvu4r_o_haYOmHIgwcMC6GofM-cKv2Yicqx2axUxF41Z6mrcw7W7RA2_sUjjp14OJbxhS3TSMk7GeAcyGLptBBkSIGcR6XY9xalHGofWnE1SMdk7pPQ7A5uN7agQZhLJx7wEdic_KuzjStzYR3DNoVw8PEA1_aXlAKsoG9n898vBq8uSWSFleJjeknTM5QE3FwrC21QdCgeFm-k4MpKk5BJr1yPoVqjrVQpln3BgPD8QfED-ut_zdsdxPynhYHDaxb_yLVzOyZjupm594eeyPuYzAqAgQXHy0Lzv8wlaXKEmAY-EKP1lRX7fvfpxo_sddx1Y6EVWlbupJDYDVs3pwO6W9zmANDsVJwzEuuymBAErQnhkTvUPQ", "width": 1080}], "place_id": "ChIJ11RalF41Qg0Rc3kLc-PM_f4", "plus_code": {"compound_code": "GGM9+PH Ajalvir, Spain", "global_code": "8CGRGGM9+PH"}, "reference": "ChIJ11RalF41Qg0Rc3kLc-PM_f4", "scope": "GOOGLE", "types": ["atm", "finance", "point_of_interest", "establishment"], "vicinity": "Calle Fragua, 2, Ajalvir"}, {"business_status": "OPERATIONAL", "geometry": {"location": {"lat": 40.534085, "lng": -3.479700799999999}, "viewport": {"northeast": {"lat": 40.5354807802915, "lng": -3.478311119708497}, "southwest": {"lat": 40.5327828197085, "lng": -3.481009080291501}}}, "icon": "https://maps.gstatic.com/mapfiles/place_api/icons/v1/png_71/atm-71.png", "icon_background_color": "#909CE1", "icon_mask_base_uri": "https://maps.gstatic.com/mapfiles/place_api/icons/v2/atm_pinlet", "name": "Punto Nickel", "place_id": "ChIJDTEnj_w1Qg0R1HEFM1PZghA", "plus_code": {"compound_code": "GGMC+J4 La Cabrera, Spain", "global_code": "8CGRGGMC+J4"}, "reference": "ChIJDTEnj_w1Qg0R1HEFM1PZghA", "scope": "GOOGLE", "types": ["atm", "bank", "finance", "point_of_interest", "establishment"], "vicinity": "Calle Carlos Ruiz, 16, La Cabrera"}, {"business_status": "OPERATIONAL", "geometry": {"location": {"lat": 40.534, "lng": -3.4795117}, "viewport": {"northeast": {"lat": 40.53538538029151, "lng": -3.478127669708498}, "southwest": {"lat": 40.53268741970851, "lng": -3.480825630291502}}}, "icon": "https://maps.gstatic.com/mapfiles/place_api/icons/v1/png_71/atm-71.png", "icon_background_color": "#909CE1", "icon_mask_base_uri": "https://maps.gstatic.com/mapfiles/place_api/icons/v2/atm_pinlet", "international_phone_number": "+34 900 404 090", "name": "ATM CaixaBank - Cajero", "opening_hours": {"open_now": true}, "photos": [{"height": 681, "html_attributions": ["<a href=\"https://maps.google.com/maps/contrib/113639283885685591996\">ATM CaixaBank - Cajero</a>"], "photo_reference": "AWn5SU4LrAzw7H1G6idDDkIvI_oKwTC0FbCEiG3F5zMSWLNUomYAj33wGbSH7nKTnpzvXhaPYu0Ej2qSm4CyoFdTmPsYdcXEqXRpmp-P0ERR89SUDIQ6U0a4_vbpPDFcUvduwMA25_HXB__RBfFq2xChb3_0LDpG0hJasa08foBTsfWm5Tu8ji1umN6ptgAlcrssfxfKMOiZ2IVLMJEXaPxdEh_SOWRrQJcURX5krXwZM3XEISEa_MqenKmWyQ55Yct78mf_OsUz5hzvhjJN3caVlUu44kKL4mzLD-Vbfkz5IKkxZFKhf6dSYypk6QZM960gdyoiHiEp3cM", "width": 1024}], "place_id": "ChIJ-bxrCz01Qg0Roa7gZNzf9r8", "plus_code": {"compound_code": "GGMC+H5 Ajalvir, Spain", "global_code": "8CGRGGMC+H5"}, "reference": "ChIJ-bxrCz01Qg0Roa7gZNzf9r8", "scope": "GOOGLE", "types": ["atm", "finance", "point_of_interest", "establishment"], "vicinity": "Calle Carlos Ruiz, 16, Ajalvir"}, {"business_status": "OPERATIONAL", "geometry": {"location": {"lat": 40.533874, "lng": -3.478880699999999}, "viewport": {"northeast": {"lat": 40.5353265302915, "lng": -3.477465069708499}, "southwest": {"lat": 40.5326285697085, "lng": -3.480163030291502}}}, "icon": "https://maps.gstatic.com/mapfiles/place_api/icons/v1/png_71/atm-71.png", "icon_background_color": "#909CE1", "icon_mask_base_uri": "https://maps.gstatic.com/mapfiles/place_api/icons/v2/atm_pinlet", "international_phone_number": "+34 963 08 50 00", "name": "Cajero Banco Sabadell", "place_id": "ChIJAYZSc100Qg0R3mK8r-TUbjE", "plus_code": {"compound_code": "GGMC+GC Ajalvir, Spain", "global_code": "8CGRGGMC+GC"}, "reference": "ChIJAYZSc100Qg0R3mK8r-TUbjE", "scope": "GOOGLE", "types": ["atm", "finance", "point_of_interest", "establishment"], "vicinity": "Calle Carlos Ruiz, 27, Ajalvir"}, {"business_status": "OPERATIONAL", "geometry": {"location": {"lat": 40.5429, "lng": -3.45865}, "viewport": {"northeast": {"lat": 40.5443065802915, "lng": -3.457278419708499}, "southwest": {"lat": 40.54160861970851, "lng": -3.459976380291502}}}, "icon": "https://maps.gstatic.com/mapfiles/place_api/icons/v1/png_71/atm-71.png", "icon_background_color": "#909CE1", "icon_mask_base_uri": "https://maps.gstatic.com/mapfiles/place_api/icons/v2/atm_pinlet", "international_phone_number": "+34 900 404 090", "name": "ATM CaixaBank - Cajero", "opening_hours": {"open_now": true}, "photos": [{"height": 681, "html_attributions": ["<a href=\"https://maps.google.com/maps/contrib/116049875870974507476\">ATM CaixaBank - Cajero</a>"], "photo_reference": "AWn5SU5l5X8Zkxp2y-9jeTaPpq5sbponwHpF_VIeZeSew9b52iJtTMXUA1VRVyKP9Psy_t2ATMLrwF6Bwb2y8g0BpG-rwmhURhUx3D6WQrosQv4L07ss7zIwsGQHDkT072QZeUpWwlRqsazsFdo39xLvhCgLg_GxSsO9rL2UKGg_YVKtA9K1pK4Z2UqInIl4O0_CwvD6Km0AjalU5cRDch2hkKgGhWyZqVSYiZ8Fdke6m5v1DDrH75bA0zk913pUUgCBQyWVQAdkASMcn_vwD7PyMF7npU5ZQLQ0DNHMOQjXtUl67iGjEgLmouHg-iKXTHTBnPtGpmbZqfI", "width": 1024}], "place_id": "ChIJmSgI6pU1Qg0RLOn1tgTGDzU", "plus_code": {"compound_code": "GGVR+5G Daganzo de Arriba, Spain", "global_code": "8CGRGGVR+5G"}, "reference": "ChIJmSgI6pU1Qg0RLOn1tgTGDzU", "scope": "GOOGLE", "types": ["atm", "finance", "point_of_interest", "establishment"], "vicinity": "Glorieta De Alcala, 10, Daganzo de Arriba"}, {"business_status": "OPERATIONAL", "geometry": {"location": {"lat": 40.54379659999999, "lng": -3.458177199999999}, "viewport": {"northeast": {"lat": 40.5451291302915, "lng": -3.456776169708498}, "southwest": {"lat": 40.5424311697085, "lng": -3.459474130291502}}}, "icon": "https://maps.gstatic.com/mapfiles/place_api/icons/v1/png_71/atm-71.png", "icon_background_color": "#909CE1", "icon_mask_base_uri": "https://maps.gstatic.com/mapfiles/place_api/icons/v2/atm_pinlet", "name": "Punto Nickel", "place_id": "ChIJkcwhxQU1Qg0RU-xCrgvtnVg", "plus_code": {"compound_code": "GGVR+GP Daganzo de Arriba, Spain", "global_code": "8CGRGGVR+GP"}, "reference": "ChIJkcwhxQU1Qg0RU-xCrgvtnVg", "scope": "GOOGLE", "types": ["atm", "bank", "finance", "point_of_interest", "establishment"], "vicinity": "Calle del Príncipe Felipe, 22, Daganzo de Arriba"}, {"business_status": "OPERATIONAL", "geometry": {"location": {"lat": 40.5435042, "lng": -3.4571273}, "viewport": {"northeast": {"lat": 40.5448712802915, "lng": -3.455726119708498}, "southwest": {"lat": 40.5421733197085, "lng": -3.458424080291501}}}, "icon": "https://maps.gstatic.com/mapfiles/place_api/icons/v1/png_71/atm-71.png", "icon_background_color": "#909CE1", "icon_mask_base_uri": "https://maps.gstatic.com/mapfiles/place_api/icons/v2/atm_pinlet", "international_phone_number": "+34 918 84 50 77", "name": "Santander ATM", "opening_hours": {"open_now": true}, "place_id": "ChIJ9VOSiwA1Qg0Rbps0nvXv1Ok", "plus_code": {"compound_code": "GGVV+C4 Daganzo de Arriba, Spain", "global_code": "8CGRGGVV+C4"}, "rating": 4, "reference": "ChIJ9VOSiwA1Qg0Rbps0nvXv1Ok", "scope": "GOOGLE", "types": ["atm", "finance", "point_of_interest", "establishment"], "user_ratings_total": 1, "vicinity": "Calle Pintor Velazquez, 2, Daganzo de Arriba"}]