[{"business_status": "OPERATIONAL", "geometry": {"location": {"lat": 40.7540165, "lng": -3.7829236}, "viewport": {"northeast": {"lat": 40.75537258029149, "lng": -3.781579919708498}, "southwest": {"lat": 40.75267461970849, "lng": -3.784277880291502}}}, "icon": "https://maps.gstatic.com/mapfiles/place_api/icons/v1/png_71/school-71.png", "icon_background_color": "#7B9EB0", "icon_mask_base_uri": "https://maps.gstatic.com/mapfiles/place_api/icons/v2/school_pinlet", "international_phone_number": "+34 918 47 93 53", "name": "Centro de Educación Infantil y Primaria Virgen del Rosario", "opening_hours": {"open_now": false}, "place_id": "ChIJcZB7gCBjQQ0R5sxTsP28JFk", "plus_code": {"compound_code": "Q638+JR Soto del Real, Spain", "global_code": "8CGRQ638+JR"}, "reference": "ChIJcZB7gCBjQQ0R5sxTsP28JFk", "scope": "GOOGLE", "types": ["school", "point_of_interest", "establishment"], "vicinity": "Calle del Río Manzanares, 1, Soto del Real"}, {"business_status": "OPERATIONAL", "geometry": {"location": {"lat": 40.7553859, "lng": -3.780260800000001}, "viewport": {"northeast": {"lat": 40.7566629302915, "lng": -3.779112769708497}, "southwest": {"lat": 40.75396496970851, "lng": -3.781810730291502}}}, "icon": "https://maps.gstatic.com/mapfiles/place_api/icons/v1/png_71/school-71.png", "icon_background_color": "#7B9EB0", "icon_mask_base_uri": "https://maps.gstatic.com/mapfiles/place_api/icons/v2/school_pinlet", "international_phone_number": "+34 918 47 92 99", "name": "IES Sierra de guadarrama", "opening_hours": {"open_now": false}, "photos": [{"height": 3120, "html_attributions": ["<a href=\"https://maps.google.com/maps/contrib/107844933688544823247\">Ignacio Cañas Minguez</a>"], "photo_reference": "AWn5SU6eTPZjfcSKTo-iCAY_gW0tHMud7Vkyrrp12Kemfypc4YTGIr0BDlvUL6M_Dw0jbxNq_2-DcWfYYFZlB5KuIGFCNXsB8U60GKlfD-6aXksKvXVhYVQ9StnCXODfJ5WYMe23rZxyzYwpEiDNf9_atl-8-VD9wVq661I70LJ1S3eLpIpOqoDlyI0gYN5ipeBQDfJVR5R10BHwxCVUzB7OSH60dEijs01ukfEy0wJZ_Pdlz43k3MW2K2fX2BhIspoflxKfLrCXXJhEzHa5cxZb8wB4v--irUbnSWCk4fTislbVwHHnXjhQImfNv7-lHYcb21O0kexCHci5in6ripmhcXHN6lLH8nG3Md4XgmgGEljHvDIBlXC_T9bGThB2YR2IyQ26GwIcNqBwRA2GVQjuD4tIv24zBbx6raDeM4HjQJM2oSXwOLgYH8oZg_pE9mYnkYA_nfR37h64zR9PqJ5MFt2u0uGVsy8VSGcP8ahlNrnOO7i5T2_cW5__z5sofXlOypoWxkvBZDEm9xnni9Wcz4HnJqUOAcu1RwSNPppC0-aZk2bhrbxqqC5gLB9hB07qfvqRjeLMjf-1iMMMi3G3WPOrpmMHlPXWgou-xbFRNASOZ4QJTafGDig3iUqaD3E8fZxXQA", "width": 4160}], "place_id": "ChIJoYC8F95iQQ0RNHpEPFXeUBQ", "plus_code": {"compound_code": "Q649+5V Soto del Real, Spain", "global_code": "8CGRQ649+5V"}, "reference": "ChIJoYC8F95iQQ0RNHpEPFXeUBQ", "scope": "GOOGLE", "types": ["secondary_school", "school", "point_of_interest", "establishment"], "vicinity": "Avenida Soto, 1, Soto del Real"}, {"business_status": "OPERATIONAL", "geometry": {"location": {"lat": 40.7540692, "lng": -3.785361099999999}, "viewport": {"northeast": {"lat": 40.7553963802915, "lng": -3.784063469708497}, "southwest": {"lat": 40.7526984197085, "lng": -3.786761430291502}}}, "icon": "https://maps.gstatic.com/mapfiles/place_api/icons/v1/png_71/school-71.png", "icon_background_color": "#7B9EB0", "icon_mask_base_uri": "https://maps.gstatic.com/mapfiles/place_api/icons/v2/school_pinlet", "international_phone_number": "+34 918 47 72 78", "name": "Salesianos El Pilar", "opening_hours": {"open_now": false}, "photos": [{"height": 1200, "html_attributions": ["<a href=\"https://maps.google.com/maps/contrib/111077435819444413200\">Alba Arias Molina</a>"], "photo_reference": "AWn5SU7fRIFOkQar-zabKPQCvCqRXFS45x4k-B3YFF2CDTs_3lIbHesjCKoseF4BMwvt6g_DQjAtWkRi6_c_1VCFuiG7sv8emKIZgyWSb5bc0emCUkYIRMJgSRGjInEsbNXs7Rd_I32plwjdN2d42hGVopCv618NVj8hJ7_qAtiH1vHfrOdr6zlzfVgz-wJcsO-Z-67p31xujmo8w_09W3fskAVof-Jqwr7vLKn9qYVSQ73docfMYHs9FpYlMvpYKpLmCcbfA-wLUuTeKlYEAn37Z9cAdhjaS1VDB3pDkT_H6Jum1ylE55Iqe_CzE-8320FOMK4dgNm_174TPzZBvGdIMotjWSayZyNe_G-N07U6jjvR79c5ZNGotN45rHH3AyrlwUCf9l4OXLKSKLODXuC4Xyl1e-doRR4rjqSrUOLSL9AwwBfTJ3HpgqUiCtuip4fseM_I5pXE7WOdQi732U0MH3acl31yVWYZB4_0O9YMe1zjYaWWY7xMO51_3RqgAiqKx6QQ-Yt0urcQ5kOXSuknxjIzNYuz6J4XTRcn0HxAlHO88y7OhMQJmrEYIYRvlKnb537jqpd8zzxXWNS0w8zE78ZV3avirNP1trVmTI6q0cFp9C3x5Chrfex3GpQDkfUl4s9iHw", "width": 1600}], "place_id": "ChIJ39dKFCBjQQ0RbJjnWLu1lXU", "plus_code": {"compound_code": "Q637+JV Soto del Real, Spain", "global_code": "8CGRQ637+JV"}, "reference": "ChIJ39dKFCBjQQ0RbJjnWLu1lXU", "scope": "GOOGLE", "types": ["gym", "health", "school", "point_of_interest", "establishment"], "vicinity": "Calle Real, 21, Soto del Real"}, {"business_status": "OPERATIONAL", "geometry": {"location": {"lat": 40.75944869999999, "lng": -3.7807391}, "viewport": {"northeast": {"lat": 40.76094868029149, "lng": -3.779441669708498}, "southwest": {"lat": 40.75825071970849, "lng": -3.782139630291502}}}, "icon": "https://maps.gstatic.com/mapfiles/place_api/icons/v1/png_71/school-71.png", "icon_background_color": "#7B9EB0", "icon_mask_base_uri": "https://maps.gstatic.com/mapfiles/place_api/icons/v2/school_pinlet", "international_phone_number": "+34 918 47 93 37", "name": "CEIP Soto 2", "opening_hours": {"open_now": false}, "photos": [{"height": 3120, "html_attributions": ["<a href=\"https://maps.google.com/maps/contrib/107844933688544823247\">Ignacio Cañas Minguez</a>"], "photo_reference": "AWn5SU5yUGaXPFeTeCRPdP-vSZA3lDqjljgy2S0TkEiFkHxodqD6AZxbsrm7MqSHBvRLFgxG3MAdjPG6P6AkAHzveMfDenP76tvPiW-S0gfF2nhgGYRJEAxdsjDfxhBMhFZlxDw7Q612f0mliuSYTho3H7SH0rrK6xMP_J58fZs-V2iZzgxlrbDTPttB4pD5Gfb-UiTHX5f-WxBzs0-vDhI5M9eOFtsiMGyPLlZU2szVeYro-XM3Nf0Mgm_5aLH2t7Oy0h_d-zLzgBcEY-9RCDatT95MVY4HXJXJgYeu6Dgq7oNQV4XKzTpHf0C1mZ-ChOghvkYyfEdzRdE0bqC6aw6Am9nrUwgU7XuoxqEl3VeBjLXiXWNzj9MSH2BPxcQIhE3A07894dPRgMTE_jxPrjoAwUVzF-FEbG3xMNH1CjL3ApPAorzDer22cIr3Cd-z86iEYFB6B5fy29SNGdvHmiRHqaIq5CR4-YXOCQ8wAG7caHn99D-WQBTfkHUiZ7rPVOM2bnTyqJAoBvfGClx17TBigEQLu09DTFEm9YyUSB0Fyz1m7n9TXvidY7B18-ftUiqkhHmxUkY6knpeAP2qYhPgbr3lqi3Pmbmhlef5SduVXGXVNkNSe4VDfHcb4DxGe9y-", "width": 4160}], "place_id": "ChIJe5c2Q-BiQQ0RaKCHQcLaDiU", "plus_code": {"compound_code": "Q659+QP Soto del Real, Spain", "global_code": "8CGRQ659+QP"}, "reference": "ChIJe5c2Q-BiQQ0RaKCHQcLaDiU", "scope": "GOOGLE", "types": ["school", "point_of_interest", "establishment"], "vicinity": "Avenida de las Islas, Soto del Real"}, {"business_status": "OPERATIONAL", "geometry": {"location": {"lat": 40.8105197, "lng": -3.7587236}, "viewport": {"northeast": {"lat": 40.81181178029149, "lng": -3.757451019708498}, "southwest": {"lat": 40.8091138197085, "lng": -3.760148980291502}}}, "icon": "https://maps.gstatic.com/mapfiles/place_api/icons/v1/png_71/school-71.png", "icon_background_color": "#7B9EB0", "icon_mask_base_uri": "https://maps.gstatic.com/mapfiles/place_api/icons/v2/school_pinlet", "name": "Centro de Educación Secundaria Vicente Aleixandre", "place_id": "ChIJtcMN4BtiQQ0RAwk_nQGB_88", "plus_code": {"compound_code": "R66R+6G Miraflores de la Sierra, Spain", "global_code": "8CGRR66R+6G"}, "reference": "ChIJtcMN4BtiQQ0RAwk_nQGB_88", "scope": "GOOGLE", "types": ["school", "point_of_interest", "establishment"], "vicinity": "de la, Avenida de la Constitución, 5, Miraflores de la Sierra"}, {"business_status": "OPERATIONAL", "geometry": {"location": {"lat": 40.8114395, "lng": -3.758974299999999}, "viewport": {"northeast": {"lat": 40.8128295302915, "lng": -3.757681069708498}, "southwest": {"lat": 40.8101315697085, "lng": -3.760379030291502}}}, "icon": "https://maps.gstatic.com/mapfiles/place_api/icons/v1/png_71/school-71.png", "icon_background_color": "#7B9EB0", "icon_mask_base_uri": "https://maps.gstatic.com/mapfiles/place_api/icons/v2/school_pinlet", "international_phone_number": "+34 918 44 38 73", "name": "Public School Vicente Aleixandre", "place_id": "ChIJT46aYBliQQ0R-g6-crIFBfw", "plus_code": {"compound_code": "R66R+HC Miraflores de la Sierra, Spain", "global_code": "8CGRR66R+HC"}, "reference": "ChIJT46aYBliQQ0R-g6-crIFBfw", "scope": "GOOGLE", "types": ["school", "point_of_interest", "establishment"], "vicinity": "Avenida de la Constitución, 29, Miraflores de la Sierra"}, {"business_status": "OPERATIONAL", "geometry": {"location": {"lat": 40.8124495, "lng": -3.762024999999999}, "viewport": {"northeast": {"lat": 40.8137514302915, "lng": -3.760684369708497}, "southwest": {"lat": 40.8110534697085, "lng": -3.763382330291501}}}, "icon": "https://maps.gstatic.com/mapfiles/place_api/icons/v1/png_71/school-71.png", "icon_background_color": "#7B9EB0", "icon_mask_base_uri": "https://maps.gstatic.com/mapfiles/place_api/icons/v2/school_pinlet", "international_phone_number": "+34 918 44 37 95", "name": "Escuela de Educación Infantil Miraflores de la Sierra", "place_id": "ChIJp5bbax9iQQ0Rm28hhHwWbT0", "plus_code": {"compound_code": "R66Q+X5 Miraflores de la Sierra, Spain", "global_code": "8CGRR66Q+X5"}, "reference": "ChIJp5bbax9iQQ0Rm28hhHwWbT0", "scope": "GOOGLE", "types": ["school", "point_of_interest", "establishment"], "vicinity": "Avenida de la Constitución, 1, Miraflores de la Sierra"}, {"business_status": "OPERATIONAL", "geometry": {"location": {"lat": 40.75441079999999, "lng": -3.7835069}, "viewport": {"northeast": {"lat": 40.75576513029149, "lng": -3.782095369708498}, "southwest": {"lat": 40.75306716970849, "lng": -3.784793330291502}}}, "icon": "https://maps.gstatic.com/mapfiles/place_api/icons/v1/png_71/school-71.png", "icon_background_color": "#7B9EB0", "icon_mask_base_uri": "https://maps.gstatic.com/mapfiles/place_api/icons/v2/school_pinlet", "international_phone_number": "+34 918 47 85 85", "name": "Escuela Infantil A gatas", "opening_hours": {"open_now": false}, "photos": [{"height": 3840, "html_attributions": ["<a href=\"https://maps.google.com/maps/contrib/103177511716786825780\">Escuela Infantil A gatas</a>"], "photo_reference": "AWn5SU4HTFbNU43v0vNb41oHPQPvO9Cd8Laa7C-foTbL9hoZLzzqNN-4G3oPYlDp9rG2qiasUrFptSbe4a_hDDF8bbGbkx3bt1wgo-vaOG9z4V-9xPLF96usieDZrA5TTiYoKQuU6-MQNAUjtBgdTambD2u7ZRTFAPq_2eu2C9rf1xGbMd2lHXdlCg46abxkVn6xfUJjZAyVuXCRG4sUqmoMpVaTcxDded_F9BisSo_L09KbIDCAC__T3w_mBgoC7evGFaTiLS75iI-09y6whefX-6w-aH224bfRdb7tEZ35_4DNizAG2FC4eXkqj4kFLhmgsL6i1cYhHE0", "width": 5760}], "place_id": "ChIJ51hiCeBiQQ0RVfdkYKvS_XE", "plus_code": {"compound_code": "Q638+QH Soto del Real, Spain", "global_code": "8CGRQ638+QH"}, "rating": 5, "reference": "ChIJ51hiCeBiQQ0RVfdkYKvS_XE", "scope": "GOOGLE", "types": ["school", "point_of_interest", "establishment"], "user_ratings_total": 40, "vicinity": "Ctra. de Miraflores, 1, Soto del Real"}, {"business_status": "OPERATIONAL", "geometry": {"location": {"lat": 40.7525886, "lng": -3.784957900000001}, "viewport": {"northeast": {"lat": 40.7541848302915, "lng": -3.783678719708498}, "southwest": {"lat": 40.7514868697085, "lng": -3.786376680291502}}}, "icon": "https://maps.gstatic.com/mapfiles/place_api/icons/v1/png_71/school-71.png", "icon_background_color": "#7B9EB0", "icon_mask_base_uri": "https://maps.gstatic.com/mapfiles/place_api/icons/v2/school_pinlet", "international_phone_number": "+34 918 47 81 41", "name": "CEIP Virgen del Rosario", "place_id": "ChIJvdb3jCBjQQ0Ro7k61vFfIxc", "plus_code": {"compound_code": "Q638+22 Soto del Real, Spain", "global_code": "8CGRQ638+22"}, "reference": "ChIJvdb3jCBjQQ0Ro7k61vFfIxc", "scope": "GOOGLE", "types": ["school", "point_of_interest", "establishment"], "vicinity": "Calle la Orden, s/n, Soto del Real"}, {"business_status": "OPERATIONAL", "geometry": {"location": {"lat": 40.74829079999999, "lng": -3.7744307}, "viewport": {"northeast": {"lat": 40.74967228029149, "lng": -3.773106369708498}, "southwest": {"lat": 40.74697431970849, "lng": -3.775804330291503}}}, "icon": "https://maps.gstatic.com/mapfiles/place_api/icons/v1/png_71/generic_business-71.png", "icon_background_color": "#7B9EB0", "icon_mask_base_uri": "https://maps.gstatic.com/mapfiles/place_api/icons/v2/generic_pinlet", "international_phone_number": "+34 623 06 82 40", "name": "Espacio infantil de crianza · El nido del Fénix", "opening_hours": {"open_now": false}, "photos": [{"height": 1333, "html_attributions": ["<a href=\"https://maps.google.com/maps/contrib/111845992675468575720\">Espacio infantil de crianza · El nido del Fénix</a>"], "photo_reference": "AWn5SU6dzEbdkTDLgRHsS_-Bic01JHhTH2FdWtacvacD9LSe9HZ5ACPc5tJR6DRL0ADmuK5VrYqd6gS0Dqt51333vrtyYqK5mWJMzJtJz2Wx4wZD8N6_COU7L-eIXYwo8ocZDK8OnxLD5eqyMKeiWKZWCAFD-AxQoCLdCaBhX3LrxDb0Iha2E5q4pQ2a1Yf00bErCbqPOo2rAt0_nLzwaYNmGz8Yihu4Nuae_z6e4b7EGkiP6PWy0G8QTYFUA9-9t8uYzacbi4-vU9Stc-AKYQiwDpD8tahaslK7EuQgPGFXljyF8kU_6JFBJyzj9u1PB6dMANlfU4mgpwY", "width": 2000}], "place_id": "ChIJwzrFpoBjQQ0RO31cFo-Qmjk", "plus_code": {"compound_code": "P6XG+86 Soto del Real, Spain", "global_code": "8CGRP6XG+86"}, "rating": 4.8, "reference": "ChIJwzrFpoBjQQ0RO31cFo-Qmjk", "scope": "GOOGLE", "types": ["school", "point_of_interest", "establishment"], "user_ratings_total": 19, "vicinity": "Calle Palencia, 2, Soto del Real"}, {"business_status": "OPERATIONAL", "geometry": {"location": {"lat": 40.7352062, "lng": -3.8571242}, "viewport": {"northeast": {"lat": 40.73644633029151, "lng": -3.855671919708498}, "southwest": {"lat": 40.73374836970851, "lng": -3.858369880291502}}}, "icon": "https://maps.gstatic.com/mapfiles/place_api/icons/v1/png_71/school-71.png", "icon_background_color": "#7B9EB0", "icon_mask_base_uri": "https://maps.gstatic.com/mapfiles/place_api/icons/v2/school_pinlet", "international_phone_number": "+34 918 55 84 15", "name": "Escuela Infantil Manzanares El Real N 1", "photos": [{"height": 1080, "html_attributions": ["<a href=\"https://maps.google.com/maps/contrib/114819734674743187422\">RMC MC</a>"], "photo_reference": "AWn5SU7LSZK1DXxOR5tr5AKkR6EyL9j4cdPYf4g9c-YUU0LPzPT9ltm1RG-0tqsoUQSlXMXLK7Ro-RRA3Bd3u7utas7IIojo6QYGTBmJK8nr_TIkwQzCdpXGT1pEPf6NjD3DhXi6_hVv9fDdTXas6F32fUEwHSW5gINdSxnKECjORRsWFmChwSrETHkyeAZNH3LuSHtrNQB4l7UB65dsZ2rgLOQ08-W3g7sDYiPAgaGH_XMVEMi8hN717DPTU_yXFOqbgM2Pjcby2yIDt6doziqLuMozQb8W-lRQh3T2y1R7yRZNvbzASvCI5lXKkEmPVNHrd-3fJlPI57P9yGzy_psYcfT7vtSRAHkVlbJqYTvtCFTKkJMSAEW9WtCM_lQOXPcPbXFWWtyo8ZFsDIZvdIF4HYl0mVSfGgy16rO-e_txQJ1aWoCXsOlcGgf19dOiBEmj5Db3Eu6XUmvdZT1bsdVeKsl5s_pZV0LCttoQiOkv2pFqCd8NQz8R9SI6AoStZetplWoa_g0XdX1-d1LvBdZnpdfGYOp3DDWIio7TLWzhh1QlHR2eCM-0WvY2RH4o6mUXAHFkuvZ76gWk4TE9PUTWz2f_WskSz8sm4WpeUHPqz3j0QaRFkTVtGsQTi65fEp1ANbJW_w", "width": 1920}], "place_id": "ChIJO8GI-dJkQQ0RdQFTlT85L4w", "plus_code": {"compound_code": "P4PV+35 Manzanares el Real, Spain", "global_code": "8CGRP4PV+35"}, "reference": "ChIJO8GI-dJkQQ0RdQFTlT85L4w", "scope": "GOOGLE", "types": ["school", "point_of_interest", "establishment"], "vicinity": "Calle Rincón de Aragón, 0, Manzanares el Real"}, {"business_status": "OPERATIONAL", "geometry": {"location": {"lat": 40.8110427, "lng": -3.7592072}, "viewport": {"northeast": {"lat": 40.81230008029151, "lng": -3.757983419708498}, "southwest": {"lat": 40.80960211970851, "lng": -3.760681380291503}}}, "icon": "https://maps.gstatic.com/mapfiles/place_api/icons/v1/png_71/school-71.png", "icon_background_color": "#7B9EB0", "icon_mask_base_uri": "https://maps.gstatic.com/mapfiles/place_api/icons/v2/school_pinlet", "international_phone_number": "+34 918 44 38 73", "name": "Cp Inf Pri Sec Vicente Aleixandre", "opening_hours": {"open_now": false}, "place_id": "ChIJCxjArxhiQQ0R-9Z6Y-ZcrF8", "plus_code": {"compound_code": "R66R+C8 Miraflores de la Sierra, Spain", "global_code": "8CGRR66R+C8"}, "reference": "ChIJCxjArxhiQQ0R-9Z6Y-ZcrF8", "scope": "GOOGLE", "types": ["primary_school", "school", "point_of_interest", "establishment"], "vicinity": "Avenida de la Constitución, 29, Miraflores de la Sierra"}, {"business_status": "OPERATIONAL", "geometry": {"location": {"lat": 40.7297275, "lng": -3.8597146}, "viewport": {"northeast": {"lat": 40.73104928029149, "lng": -3.858404019708497}, "southwest": {"lat": 40.72835131970849, "lng": -3.861101980291501}}}, "icon": "https://maps.gstatic.com/mapfiles/place_api/icons/v1/png_71/school-71.png", "icon_background_color": "#7B9EB0", "icon_mask_base_uri": "https://maps.gstatic.com/mapfiles/place_api/icons/v2/school_pinlet", "international_phone_number": "+34 911 76 36 45", "name": "Centro Privado de Educación Infantil Mis Primeros Pasos", "opening_hours": {"open_now": false}, "photos": [{"height": 3968, "html_attributions": ["<a href=\"https://maps.google.com/maps/contrib/116080910361339646134\">Centro Privado de Educación Infantil Mis Primeros Pasos</a>"], "photo_reference": "AWn5SU7t8qRrcLwg7B_zSqhOhFcXdUWPvHqDnCZFoTpqLnxU3PwHPKGSMNR9E-CGacRunNQZTEd3ecisbCpEO1dWoK-BPZD0CjLdY3278BQbTsK5SPUKIHfmUuhR4YQffIvqEEZXG-KEoNFr03ZrqwyU_MI46wvZXK_u-e_YfzQ2114t6LgKxYHwnZoz3FuMmfDt5NnbqjwFTPw7jgeiN1BU8LgTizaIUJNMO6XcsqR0dMQI4olx4MkicvIwuPdxDHnlIKUvfhLXNMDXkTzEsg7MjWQLKZOYKGOKqbrJTyPHfaqZrljJPI68jcTsSz5Qb1WSRkyJ_NRQgso", "width": 2976}], "place_id": "ChIJG4c4Zyx7QQ0R9rsRuhQA7yg", "plus_code": {"compound_code": "P4HR+V4 Manzanares el Real, Spain", "global_code": "8CGRP4HR+V4"}, "rating": 5, "reference": "ChIJG4c4Zyx7QQ0R9rsRuhQA7yg", "scope": "GOOGLE", "types": ["school", "point_of_interest", "establishment"], "user_ratings_total": 1, "vicinity": "Calle del Puerto de Pajares, 18, Manzanares el Real"}]