[{"geometry": {"location": {"lat": 40.3789786, "lng": -4.2115526}, "viewport": {"northeast": {"lat": 40.38319119641402, "lng": -4.20253011917799}, "southwest": {"lat": 40.37036085862891, "lng": -4.221377677541857}}}, "icon": "https://maps.gstatic.com/mapfiles/place_api/icons/v1/png_71/geocode-71.png", "icon_background_color": "#7B9EB0", "icon_mask_base_uri": "https://maps.gstatic.com/mapfiles/place_api/icons/v2/generic_pinlet", "name": "Chapinería", "photos": [{"height": 1468, "html_attributions": ["<a href=\"https://maps.google.com/maps/contrib/101321764474141234821\">ricardo fernández del Blanco</a>"], "photo_reference": "AWn5SU6Lz8ArqUXjXJIRPinEJssAkQK6z-tn4Sl1xuBnmfVuxbdHFmvVZ6A7Wa2OMh9wYQXFK4aVu9x-zRpgK8HO8IgNX8xSEKlhpGK4OoIJvwUiLalhmzs7TSwn6d4WPkf6RHpOk2c-wsuMWnn2OqQBjaAUwR8kqP_R43ELOkJAKh-hfzqwNgh-BAP6QPPoSGMsyls-IzklECqOF7SSRoxLHjosXXKMqaHsjV9rk7--R1EEzzrjoxF16YlBx3y-9A6Vmv-yTKJXpudB04RR638znSqEX2joCVLXnqtzjpHPQxgbJTcXsJmQmWhV_6ByscvdkUPOUAQZNFZ0NgtiupzGFISjJgq7QT9Hw2SS-QWS1BmFhnCfjI9DLCnKsJbZneE8CbDK5JYH40Agl1mmK3Ynz1V8SBHWwo1zZ_p03S28CjOotrvoo9h3NxuzuVmLKQUx01DqlEUKAyYRvGQY5E2OPHMsYbTB-MmxfSL_9ph9JF6zizC3VzmSK1B_6sDwigoGwu4TciD8JsGxE1zkATwMwbw0OnydQvL10_gmy_Pj2bMRLowFN5FORxAOyFPrdjNqcOO9LqsCPnEJmTa6x0WpCbM0zS_uF4BbJiWz2dBju0ZnLi1Yz0F7NbgwwGgRBsh6kD6_4g", "width": 3264}], "place_id": "ChIJdTABPcG6QQ0RLCMXUWMusvE", "reference": "ChIJdTABPcG6QQ0RLCMXUWMusvE", "scope": "GOOGLE", "types": ["locality", "political"], "vicinity": "Chapinería"}, {"business_status": "OPERATIONAL", "geometry": {"location": {"lat": 40.38110729999999, "lng": -4.2172822}, "viewport": {"northeast": {"lat": 40.38249608029149, "lng": -4.215939919708498}, "southwest": {"lat": 40.3797981197085, "lng": -4.218637880291503}}}, "icon": "https://maps.gstatic.com/mapfiles/place_api/icons/v1/png_71/generic_business-71.png", "icon_background_color": "#7B9EB0", "icon_mask_base_uri": "https://maps.gstatic.com/mapfiles/place_api/icons/v2/generic_pinlet", "international_phone_number": "+34 918 65 01 33", "name": "Extintores Hermanos Zoyo SL", "opening_hours": {"open_now": false}, "photos": [{"height": 2448, "html_attributions": ["<a href=\"https://maps.google.com/maps/contrib/101419470144107994701\">Extintores Hermanos Zoyo SL</a>"], "photo_reference": "AWn5SU4NtBfL7CfePaDNKZwvUbvDoc8sGhsythn1JFWu7fIAagzHxSIpOY_d2K7D6g8aMTd-O9fOzzvB3J1pXZ8nEVRxiau_4nNSZZMDU3SmwVFXIt_7jAWGZGqmY_nVTEwnGGyOg_vnSJ8v_bzYYu6z7JntWpIm3ve-Nd8sP925_SCG2wnKN9LUYsNhPwF3q2WnJyi3RdbqKUK48Nv4_46vy3VwQ6aGDuLpfvaTpgyubxrKaq1XmU-K3UdCS4sJW5jafCXvxdOcksg1a7BTHzjm_y_7lrJROOzC0jblo_iCjZlPWnJt8yVVSuEll9MZ9nB7octvtTdmESY", "width": 3264}], "place_id": "ChIJcahqEBuwQQ0RubJMxkNHhYM", "plus_code": {"compound_code": "9QJM+C3 Chapinería, Spain", "global_code": "8CGQ9QJM+C3"}, "rating": 4.3, "reference": "ChIJcahqEBuwQQ0RubJMxkNHhYM", "scope": "GOOGLE", "types": ["point_of_interest", "establishment"], "user_ratings_total": 12, "vicinity": "Avenida de los Cañales, 5, Chapinería"}, {"business_status": "OPERATIONAL", "geometry": {"location": {"lat": 40.381121, "lng": -4.2183705}, "viewport": {"northeast": {"lat": 40.3824584802915, "lng": -4.217019419708498}, "southwest": {"lat": 40.3797605197085, "lng": -4.219717380291502}}}, "icon": "https://maps.gstatic.com/mapfiles/place_api/icons/v1/png_71/generic_business-71.png", "icon_background_color": "#7B9EB0", "icon_mask_base_uri": "https://maps.gstatic.com/mapfiles/place_api/icons/v2/generic_pinlet", "international_phone_number": "+34 918 60 55 17", "name": "Armaclos S L", "opening_hours": {"open_now": false}, "place_id": "ChIJJUMhQrm6QQ0Rt3U-t61SGM0", "plus_code": {"compound_code": "9QJJ+CM Chapinería, Spain", "global_code": "8CGQ9QJJ+CM"}, "rating": 5, "reference": "ChIJJUMhQrm6QQ0Rt3U-t61SGM0", "scope": "GOOGLE", "types": ["point_of_interest", "establishment"], "user_ratings_total": 2, "vicinity": "Avenida de los Cañales, 20, Chapinería"}, {"business_status": "OPERATIONAL", "geometry": {"location": {"lat": 40.3808584, "lng": -4.220901199999999}, "viewport": {"northeast": {"lat": 40.3821606802915, "lng": -4.219540519708498}, "southwest": {"lat": 40.3794627197085, "lng": -4.222238480291503}}}, "icon": "https://maps.gstatic.com/mapfiles/place_api/icons/v1/png_71/generic_business-71.png", "icon_background_color": "#7B9EB0", "icon_mask_base_uri": "https://maps.gstatic.com/mapfiles/place_api/icons/v2/generic_pinlet", "international_phone_number": "+34 918 60 55 58", "name": "Neuforma S.L Ventanas de madera", "opening_hours": {"open_now": false}, "photos": [{"height": 1536, "html_attributions": ["<a href=\"https://maps.google.com/maps/contrib/101838254408614106792\">Neuforma S.L Ventanas de madera</a>"], "photo_reference": "AWn5SU7gjNRRlSkT8Tp63P0q93HVyahNpiUAj0rBsgf5TWwY2yozZEul9LiBePBhm-j1UEhxAY8X8ewG-i3dUYrVr0v_6FkKmcEXhVpV8XR5SNsOfXFJ0rcEmoOdUTbv32pWSp0RrmZsIWYtQQxXmwsEpHSKsbL8MltULqCss2NTZGYBPmC12dRnpNgqrNn_M__77Ys5V78QoPBAO5a08epAuKZnR95BanSgBM7ppqLj5fTcmU9ZO-45QQQJ0Jcn9dU8hKzXAP08qlVW4H35xTK7VPsu_dTBaQI_O0cH7XmdtjAVbPSBe0ZxmBymWPntFmLxynPlUGnlgcM", "width": 2048}], "place_id": "ChIJ2Ubec7u6QQ0R-ZVs1w7xDtc", "plus_code": {"compound_code": "9QJH+8J Chapinería, Spain", "global_code": "8CGQ9QJH+8J"}, "rating": 5, "reference": "ChIJ2Ubec7u6QQ0R-ZVs1w7xDtc", "scope": "GOOGLE", "types": ["general_contractor", "point_of_interest", "establishment"], "user_ratings_total": 16, "vicinity": "Avenida de los Cañales, 34, Chapinería"}, {"business_status": "OPERATIONAL", "geometry": {"location": {"lat": 40.3818853, "lng": -4.2169174}, "viewport": {"northeast": {"lat": 40.3833475802915, "lng": -4.215594369708498}, "southwest": {"lat": 40.3806496197085, "lng": -4.218292330291503}}}, "icon": "https://maps.gstatic.com/mapfiles/place_api/icons/v1/png_71/shopping-71.png", "icon_background_color": "#4B96F3", "icon_mask_base_uri": "https://maps.gstatic.com/mapfiles/place_api/icons/v2/shopping_pinlet", "international_phone_number": "+34 918 54 80 84", "name": "Galpark Ibérica", "opening_hours": {"open_now": false}, "photos": [{"height": 768, "html_attributions": ["<a href=\"https://maps.google.com/maps/contrib/117142952443570834146\">Galpark Ibérica</a>"], "photo_reference": "AWn5SU5X1onkbaderdIv7PsEcOZim3IvUVxmupJGQ1On1ObAhsqXkifNJxWiZr7MBWn_mQS0BEwHLPqNU8hZSaey6ni_Ml0HP7vs9xEm6cswnbZyjcS4E3mP-k4m7PiQA4iuzasHv9vM6D05JbSosWYULWi9fTbjcK6CnIYm9tBoEqxDTnPSMTtQKed6ZLJAFxiUSm78I3TV4hnfHlMsYHFhq7Ojyk4CoGqFdXn9HfaQkgeqVx5qZVkKmz1m0NQFXDrimsFul7_TUKb4itevhMnFsroP7MyaYCKV1bHOWIOeMpXHuPdgxCwE41p1-LdFC1frvkNdiK_UVdI", "width": 1024}], "place_id": "ChIJzwAzTrYMQQ0Rw2OS3YFLxSw", "plus_code": {"compound_code": "9QJM+Q6 Chapinería, Spain", "global_code": "8CGQ9QJM+Q6"}, "rating": 4.3, "reference": "ChIJzwAzTrYMQQ0Rw2OS3YFLxSw", "scope": "GOOGLE", "types": ["furniture_store", "point_of_interest", "home_goods_store", "store", "establishment"], "user_ratings_total": 13, "vicinity": "Calle Fuente de la Apretura, 13, Chapinería"}, {"business_status": "OPERATIONAL", "geometry": {"location": {"lat": 40.3801574, "lng": -4.2082166}, "viewport": {"northeast": {"lat": 40.3814697802915, "lng": -4.206883919708497}, "southwest": {"lat": 40.3787718197085, "lng": -4.209581880291502}}}, "icon": "https://maps.gstatic.com/mapfiles/place_api/icons/v1/png_71/generic_business-71.png", "icon_background_color": "#7B9EB0", "icon_mask_base_uri": "https://maps.gstatic.com/mapfiles/place_api/icons/v2/generic_pinlet", "international_phone_number": "+34 918 65 21 87", "name": "Saina E Hijos S L", "opening_hours": {"open_now": false}, "photos": [{"height": 3000, "html_attributions": ["<a href=\"https://maps.google.com/maps/contrib/110537374073773109895\">IRIS HERNANDEZ MUÑOZ</a>"], "photo_reference": "AWn5SU5pVBD6pmmSw23GE_LOOHK3UmTRsTqHJXdAIKswTXh3SAUrrdX8gTtSLyyIvtfwaYpt7F-R0DHpB-Gyo5XAheG21L5Wafai-yFey4cfSDdChak4b9C3sJjT9f6vVy8UKsozaS_ERGfBNXWRWMotIs3wzeLMmTQl0_rahd3qtM9oeCb4-ke5l9pTNST3mqUmpW_f5vYeyDgoPuyFx-2O47i1SXoHXabpInY0smiWR0VnqfgLWn82CXeGm2yIwz66G-TscBDw6iEHCeFmHOJdVky3lnwTCZ1-CgmF61kpNLbcv_aFAEs_w2a0slRXp5EPQ9lbP4X_c3Au806R9iiXROhIUyOppLMXabX0XEN69EZyLc4JJgS5q6sk8XBJt-fSW6aFkh2AJr9VTEbkJZRNeR8U3aILlURq44DBSSYVsTd7g462pOPvqnTHYWeQn7idC3hfkgV9JXoP-dt73CQ_3BS_ZNuPQtVxhIHpK18e9pM4uo3sIqLYtjDFXTTPCyrDnxRdQOiSmeRsEfLPVwtQ8yyKZdz0Lm3fL-vYj-3F7scfEnQDgB8pzEYGtpfJJLkNqkrdaGTrkbWtSldfvUWSKb9P3BcyL9iI5ZoShElqXLspXOnABDX0wY6DL5UHyyepM4WAig", "width": 4000}], "place_id": "ChIJpS_2TMG6QQ0RXVdJdO1AxLs", "plus_code": {"compound_code": "9QJR+3P Chapinería, Spain", "global_code": "8CGQ9QJR+3P"}, "rating": 4.2, "reference": "ChIJpS_2TMG6QQ0RXVdJdO1AxLs", "scope": "GOOGLE", "types": ["point_of_interest", "establishment"], "user_ratings_total": 12, "vicinity": "Calle del Matadero, 1, Chapinería"}, {"business_status": "OPERATIONAL", "geometry": {"location": {"lat": 40.37956579999999, "lng": -4.2192142}, "viewport": {"northeast": {"lat": 40.38095733029149, "lng": -4.217875019708498}, "southwest": {"lat": 40.37825936970849, "lng": -4.220572980291502}}}, "icon": "https://maps.gstatic.com/mapfiles/place_api/icons/v1/png_71/generic_business-71.png", "icon_background_color": "#7B9EB0", "icon_mask_base_uri": "https://maps.gstatic.com/mapfiles/place_api/icons/v2/generic_pinlet", "international_phone_number": "+34 918 65 21 86", "name": "ROTULAND", "opening_hours": {"open_now": false}, "photos": [{"height": 2654, "html_attributions": ["<a href=\"https://maps.google.com/maps/contrib/110985290954833923819\">ROTULAND</a>"], "photo_reference": "AWn5SU73CklWmHwtaR-buHG2WcDisktQ2Y3hNTeUCQ-wSIiFBtoO4Tzcn-ExtBynwtEoHpYc_smgEznrNUpFiAoPIogZUUmqMyrpAzKoE9hU0ibEXg8yD-f_6_BywvEoE5dJVG32bvRq2hRJPG0fJWnbRLULlV8i7zwH14mtgbah3kksUjG4sFpnRf86psLwT_ugKFElz8JindlC-Pmvjx_XzCXbtvShN6W3sN_dugRmym3zZothYVhiNcywObhfxog-ameUDn8U--CeJllCnyIw8ZUOMB1UXXJtm7gJzPEqOCwUFgE9s3aeTw_gvaLNpuRjBmVZ0lG5vYY", "width": 2271}], "place_id": "ChIJC8LXery6QQ0Ry4HDk9kjgQk", "plus_code": {"compound_code": "9QHJ+R8 Chapinería, Spain", "global_code": "8CGQ9QHJ+R8"}, "reference": "ChIJC8LXery6QQ0Ry4HDk9kjgQk", "scope": "GOOGLE", "types": ["point_of_interest", "establishment"], "vicinity": "Calle Marqués de Villanueva de la Sagra, 54, Chapinería"}, {"business_status": "OPERATIONAL", "geometry": {"location": {"lat": 40.3784536, "lng": -4.2101315}, "viewport": {"northeast": {"lat": 40.3797837802915, "lng": -4.208720669708498}, "southwest": {"lat": 40.3770858197085, "lng": -4.211418630291503}}}, "icon": "https://maps.gstatic.com/mapfiles/place_api/icons/v1/png_71/generic_business-71.png", "icon_background_color": "#7B9EB0", "icon_mask_base_uri": "https://maps.gstatic.com/mapfiles/place_api/icons/v2/generic_pinlet", "international_phone_number": "+34 918 65 24 74", "name": "DECA ASESORAMIENTO Y GESTION INTEGRAL DE EMPRESAS, S.L.", "opening_hours": {"open_now": false}, "place_id": "ChIJy3eWHMG6QQ0RPNXoEwclPg4", "plus_code": {"compound_code": "9QHQ+9W Chapinería, Spain", "global_code": "8CGQ9QHQ+9W"}, "rating": 3.4, "reference": "ChIJy3eWHMG6QQ0RPNXoEwclPg4", "scope": "GOOGLE", "types": ["finance", "point_of_interest", "establishment"], "user_ratings_total": 17, "vicinity": "Calle de Prudencio Melo, 14, Chapinería"}, {"business_status": "OPERATIONAL", "geometry": {"location": {"lat": 40.3790739, "lng": -4.208880199999999}, "viewport": {"northeast": {"lat": 40.3804095802915, "lng": -4.207539519708498}, "southwest": {"lat": 40.3777116197085, "lng": -4.210237480291503}}}, "icon": "https://maps.gstatic.com/mapfiles/place_api/icons/v1/png_71/shopping-71.png", "icon_background_color": "#4B96F3", "icon_mask_base_uri": "https://maps.gstatic.com/mapfiles/place_api/icons/v2/shopping_pinlet", "international_phone_number": "+34 631 44 45 64", "name": "Frutas Y Verduras Chapineria", "opening_hours": {"open_now": false}, "photos": [{"height": 2016, "html_attributions": ["<a href=\"https://maps.google.com/maps/contrib/112191025279406944368\">Moha Abakhti Abakhti</a>"], "photo_reference": "AWn5SU5JfM43WHnQQdGW-xA2zXTF07R6kJ4Xxu289-IVrSWMWoh9OoYpffPIE7nIzV-A2OL4qFiWEH2UOiTEtLzm821c-QJfc9UG3PazZ-np40ZwYXAfBxzRggMMIiJyNKADVvKZQUiiXY1e8IIQ6BfXax3xPjABL2wsDl1Y8gKQ-XqnOiw1mndHwGoL7IjRPMK7LTa2rZBoyBnBZGEgbVikaNFjJA8ezD4GZDY2PCvgPPKhJREErhhztgg-CnmoW5ve9_KyfM6e-0nynSQJd5rm2LO4i-Ot4se4wnplw1ywduskn7SIt7Rn1tB-fNc9d4iB9oayw9HWqigYS2OwBS1NFNY1Vkq0vz3Uinwe1-T63rL8GcdifeOx1OAJ-BMWKJEB7a-0A2U6-q6DgkZX_qWpkoGLTiZiuS-kfhL6-Iki_AhLS4BeB8GtV5SSbdPbItLKFLUtOqtu2zpgxDwvf1IqKCTnlR1Ib1Eulm-HqX-ulS94Ey-qsQ_9kFxqaev5n5yFpKAX9YQPPGeXXVgHSsiyAw24eM4puYwtWnhoe7i0BeLaZqM-PtgvWlcR_HU0SFELitPBIHIpHOWDTp5Hb4JDNla8ikRwzq2ZsS5Ca4y1uAx5dr3YUU-ReqBvOy-93-Vz", "width": 3584}], "place_id": "ChIJw1SDasG6QQ0RvK6QziQOYG8", "plus_code": {"compound_code": "9QHR+JC Chapinería, Spain", "global_code": "8CGQ9QHR+JC"}, "rating": 4.8, "reference": "ChIJw1SDasG6QQ0RvK6QziQOYG8", "scope": "GOOGLE", "types": ["food", "point_of_interest", "store", "establishment"], "user_ratings_total": 5, "vicinity": "Calle de Madrid, 7, Chapinería"}, {"business_status": "OPERATIONAL", "geometry": {"location": {"lat": 40.3783367, "lng": -4.210202}, "viewport": {"northeast": {"lat": 40.3796417302915, "lng": -4.208817469708499}, "southwest": {"lat": 40.3769437697085, "lng": -4.211515430291503}}}, "icon": "https://maps.gstatic.com/mapfiles/place_api/icons/v1/png_71/shopping-71.png", "icon_background_color": "#4B96F3", "icon_mask_base_uri": "https://maps.gstatic.com/mapfiles/place_api/icons/v2/shopping_pinlet", "international_phone_number": "+34 918 65 20 70", "name": "Estanco Chapineria", "opening_hours": {"open_now": false}, "photos": [{"height": 1600, "html_attributions": ["<a href=\"https://maps.google.com/maps/contrib/110886294125205594415\">Estanco Chapineria</a>"], "photo_reference": "AWn5SU7Z-rg7qvju-sSgozBPhDUI_N7g432OgNP-E9Or1OX8njM5Grzs9pqZkY-VEoVudJE4iNwGQY6xrt7ectm68ZmP9QKLuUh-7x6qH-14B7C3M0h2UI_-jor07VDD8yHSesMmG7ceYtqHI_Ay4W-lBawJ1LDx5DpTcXJ57syr6ZEwpzqnlZGUrKaGZm_7KUZJrt0bC-5uZy8_AJm_Sri4YI_iH9F4tFb8mURPJXX3soAULgm_oKiZ-cZmLpAvWiXYqUAQnVU5pb-sV9c1jdQWgbHZwIWQNoxYsLrU6pz5wXwfkZmBZdJ9v6zAgmOWRIOFG05s0FTkxek", "width": 1066}], "place_id": "ChIJxeLrAsG6QQ0RiglU5gJ9__o", "plus_code": {"compound_code": "9QHQ+8W Chapinería, Spain", "global_code": "8CGQ9QHQ+8W"}, "rating": 4.2, "reference": "ChIJxeLrAsG6QQ0RiglU5gJ9__o", "scope": "GOOGLE", "types": ["point_of_interest", "store", "establishment"], "user_ratings_total": 61, "vicinity": "Calle de Prudencio Melo, 18, Chapinería"}, {"business_status": "OPERATIONAL", "geometry": {"location": {"lat": 40.38043950000001, "lng": -4.2115013}, "viewport": {"northeast": {"lat": 40.3817581302915, "lng": -4.210161069708497}, "southwest": {"lat": 40.3790601697085, "lng": -4.212859030291502}}}, "icon": "https://maps.gstatic.com/mapfiles/place_api/icons/v1/png_71/lodging-71.png", "icon_background_color": "#909CE1", "icon_mask_base_uri": "https://maps.gstatic.com/mapfiles/place_api/icons/v2/hotel_pinlet", "name": "Las Mellizas", "photos": [{"height": 2976, "html_attributions": ["<a href=\"https://maps.google.com/maps/contrib/114484822096601726500\">Jose Alberto Salido Lopez</a>"], "photo_reference": "AWn5SU40M7gmT5KAZEq1JL74wwfbw606OsuuEAfEAL-YwXDPiaMOsigEgSZgrTGhODlui19T_52oJxfkrZg1UFwJu_9wNKBS23hrhkhW48MrpyKO6NH5U-x_ELQnZKEndXXYFoiCs_oohTK59cnA-F3ZJGXt9LeBA6g-j7z9gz1PkjEKhiUVoq8U2QcYaPsIIvGowpq0OTWrVImwZfQXu7yfjeKelY0aG0eB2klEmmLJDKBTTbutzs9rQNNF3f6kEd-pk67iMlPUOSET79nCRMpYhjHXpixUQRMzktXTnMZ0XsAOjCKXzKCpt6THr1pjpGB-r-y7Cp2Hp-awvFItlCe9Yb25qk4Vifr5QBSAI3BEKTCin6gDO9SkTJ1d4WU0vp4rfwJy6y8duSpFTMT_Fh4nyhv18qXbHvdj6rABu926aCJO4gnFRetn84VXGvTD1kmqHA4b2vtnb3-pnz_dGimPI2U3RKNwPo3rRgdML5y83XyY4R3PDDIwdL84x6NTUJW8xDdShz3Yr3qHaoIf8I98grQdaDve0VoXWNMu8FsiyALxVTH6EzuUHrY5wb-2zvImFmNuPd1bvn9LnhwrxOOHdqhStM-HDco89o2UsLfmMl0MyhdrCLFJvhKCXcMZ_j1dqDdpbw", "width": 3968}], "place_id": "ChIJVa-bNce6QQ0RtjnbHudenXQ", "plus_code": {"compound_code": "9QJQ+59 Chapinería, Spain", "global_code": "8CGQ9QJQ+59"}, "rating": 3.8, "reference": "ChIJVa-bNce6QQ0RtjnbHudenXQ", "scope": "GOOGLE", "types": ["lodging", "point_of_interest", "establishment"], "user_ratings_total": 6, "vicinity": "Calle de las Infantas, 11, Chapinería"}, {"business_status": "OPERATIONAL", "geometry": {"location": {"lat": 40.382344, "lng": -4.2103569}, "viewport": {"northeast": {"lat": 40.3837100302915, "lng": -4.209005019708497}, "southwest": {"lat": 40.3810120697085, "lng": -4.211702980291502}}}, "icon": "https://maps.gstatic.com/mapfiles/place_api/icons/v1/png_71/generic_business-71.png", "icon_background_color": "#7B9EB0", "icon_mask_base_uri": "https://maps.gstatic.com/mapfiles/place_api/icons/v2/generic_pinlet", "international_phone_number": "+34 916 17 36 03", "name": "Chaesper", "place_id": "ChIJuZj0Ase6QQ0RUTPybsDK2WI", "plus_code": {"compound_code": "9QJQ+WV Chapinería, Spain", "global_code": "8CGQ9QJQ+WV"}, "rating": 5, "reference": "ChIJuZj0Ase6QQ0RUTPybsDK2WI", "scope": "GOOGLE", "types": ["point_of_interest", "establishment"], "user_ratings_total": 1, "vicinity": "Calle Periodista Ricardo Ortega, 14, Chapinería"}, {"business_status": "OPERATIONAL", "geometry": {"location": {"lat": 40.3825213, "lng": -4.210289299999999}, "viewport": {"northeast": {"lat": 40.3839661302915, "lng": -4.208961019708497}, "southwest": {"lat": 40.38126816970851, "lng": -4.211658980291501}}}, "icon": "https://maps.gstatic.com/mapfiles/place_api/icons/v1/png_71/restaurant-71.png", "icon_background_color": "#FF9E67", "icon_mask_base_uri": "https://maps.gstatic.com/mapfiles/place_api/icons/v2/restaurant_pinlet", "international_phone_number": "+34 918 65 24 05", "name": "El ventorro", "opening_hours": {"open_now": false}, "photos": [{"height": 2988, "html_attributions": ["<a href=\"https://maps.google.com/maps/contrib/112930302463191240991\">Manuel Gonzalez Vazquez</a>"], "photo_reference": "AWn5SU7zXbB_U_VUy5nSim32NUDDx3FySq8DKu5Epp02Ixp9HLwNIqWKxX1KEbxdbfSyQQjy7vhrln-I3Lv4IYb-b5BJYhCwV3PP7dVTAmiH12THKlfkEvr-vMi_onVTk2pfidM_fzJ35qGB5zJ74E3a345ySVALoeFFeTupKbZD9POkZKTi29B7PPVG-b5zJ0gELezSqJNIZYkW6jd7mXlhn6CSS2TEQFOwoCKN1B8AnBBdP3iIaSk3PA-58lP0NbFHVo2UGde2f1oB62-M63LIWUDJ13XvWfIR66skxQ_HLACtfkJZmbHNhMw5Ay8TbK4nyhYmJwqZgWMYztsAzlFNgrRWI6Wzq8jragGqHAtDIgiNYm4z0KiufpNDJ6L1eZQ-P75QriJ1CSo_vczJ1cF78Zmz-fnLmJhZAu2rW4Qqj6aiqUU-3a6giSyd6tuyvP4KKEzaXHQD_Toqul3JE9X7rzBbV1kD9N0fH_npV0dJlrNCHjmw5LP9rQvl2A-BXoq4_6R1CaIgEJbPPwgGOBkc-Xak23biDT8xWvt8cXDOPdn5Qpy6VUAXJ6aU-rdcIOA53PK0-JW24QVgCV2BY-F22-Ub2Qk5oQklHn0MOsVO9f8zqhnCxWAokEZdiMZ8DpWSDWz4RQ", "width": 3984}], "place_id": "ChIJ35a3j5a7QQ0R-jPzufm7DWg", "plus_code": {"compound_code": "9QMQ+2V Chapinería, Spain", "global_code": "8CGQ9QMQ+2V"}, "rating": 4.6, "reference": "ChIJ35a3j5a7QQ0R-jPzufm7DWg", "scope": "GOOGLE", "types": ["restaurant", "food", "point_of_interest", "establishment"], "user_ratings_total": 925, "vicinity": "Calle Colmenar, 31, Chapinería"}, {"business_status": "OPERATIONAL", "geometry": {"location": {"lat": 40.3754449, "lng": -4.2114196}, "viewport": {"northeast": {"lat": 40.37681748029149, "lng": -4.210157719708499}, "southwest": {"lat": 40.3741195197085, "lng": -4.212855680291502}}}, "icon": "https://maps.gstatic.com/mapfiles/place_api/icons/v1/png_71/school-71.png", "icon_background_color": "#7B9EB0", "icon_mask_base_uri": "https://maps.gstatic.com/mapfiles/place_api/icons/v2/school_pinlet", "international_phone_number": "+34 626 24 23 14", "name": "Alavida", "opening_hours": {"open_now": false}, "photos": [{"height": 510, "html_attributions": ["<a href=\"https://maps.google.com/maps/contrib/107268957754842414450\">ALAVIDA. Colegio respetuoso y de EDUCACIÓN ACTIVA en Madrid</a>"], "photo_reference": "AWn5SU5Lzbsa-554Pgst-POeGB1ruWYI09RnrEHw556DBiHgf7Q3ZA48Oy-ajf3fcthw_ki-H64J1f3hfjYT7R-3YN6KvG48H6u4JbsCRoryJWtvFfDcuo3BJNpn2zJ5vWB7PQRPqLben0XdmQL5EZ8hOvKbxFcDTxMdv66iTw0NFGejksy3dfH-w7u4eDBPkJb9jzTUIKrsIown9GCJ3vvd6mSaB3PXOqbgn-I1vr9yD1hvXkGFPuK2rBIcDBu2OE8pdp_bFbwQGK_8gvF9S8sv5MIUeu12ZwSE7Iv8DlM6l961XewoiOOXaD9tkZJNLVkN7pWQHb2bXOU", "width": 680}], "place_id": "ChIJOwRNIsC6QQ0RkBQciatcXeo", "plus_code": {"compound_code": "9QGQ+5C Chapinería, Spain", "global_code": "8CGQ9QGQ+5C"}, "rating": 4.9, "reference": "ChIJOwRNIsC6QQ0RkBQciatcXeo", "scope": "GOOGLE", "types": ["primary_school", "point_of_interest", "school", "establishment"], "user_ratings_total": 47, "vicinity": "Calle de Prudencio Melo, 37, Chapinería"}, {"business_status": "OPERATIONAL", "geometry": {"location": {"lat": 40.3803691, "lng": -4.2168889}, "viewport": {"northeast": {"lat": 40.3817709802915, "lng": -4.215554169708498}, "southwest": {"lat": 40.37907301970851, "lng": -4.218252130291503}}}, "icon": "https://maps.gstatic.com/mapfiles/place_api/icons/v1/png_71/school-71.png", "icon_background_color": "#7B9EB0", "icon_mask_base_uri": "https://maps.gstatic.com/mapfiles/place_api/icons/v2/school_pinlet", "international_phone_number": "+34 918 65 25 21", "name": "Escuela Infantil Sol Y Luna", "opening_hours": {"open_now": false}, "place_id": "ChIJKSmCq766QQ0RFtd5HZnZJLY", "plus_code": {"compound_code": "9QJM+46 Chapinería, Spain", "global_code": "8CGQ9QJM+46"}, "reference": "ChIJKSmCq766QQ0RFtd5HZnZJLY", "scope": "GOOGLE", "types": ["point_of_interest", "school", "establishment"], "vicinity": "Calle Marqués de Villanueva de la Sagra, 1, Chapinería"}, {"business_status": "OPERATIONAL", "geometry": {"location": {"lat": 40.3805524, "lng": -4.217499}, "viewport": {"northeast": {"lat": 40.3818206302915, "lng": -4.216128319708498}, "southwest": {"lat": 40.3791226697085, "lng": -4.218826280291503}}}, "icon": "https://maps.gstatic.com/mapfiles/place_api/icons/v1/png_71/generic_business-71.png", "icon_background_color": "#7B9EB0", "icon_mask_base_uri": "https://maps.gstatic.com/mapfiles/place_api/icons/v2/generic_pinlet", "international_phone_number": "+34 916 32 24 46", "name": "Ambar Identidad Técnica y Comercial, s.l.", "opening_hours": {"open_now": false}, "photos": [{"height": 1224, "html_attributions": ["<a href=\"https://maps.google.com/maps/contrib/111997537486575102759\">Ambar Identidad Técnica y Comercial, s.l.</a>"], "photo_reference": "AWn5SU40pUp40uUXN95497NFcc6YJxAo6SOdYe7conBDmBn7a-AH1sjSrPhJjCHpeFVRFZi6bH9mzDKB4If634N5WIuTo7ynyz3mrkyqPM7VYR4lTvtAWg0Nn1bxcBqfXVHM5MlSYFXLoqhqYop3tDWu7dozXYz9NB4WdQFrvu_Wre8I7S4DGEjQLsRkyF0ZU464D62UaJZMdkCq3Q3yXDBt5hNiFbT1M0koqdTRbZiuszVYQS77a0GtkbETyBCRem1LNoD9_1dfk2jiQyH9mg_5Fse66mPIiPWXoDXy93w1PXrIHPgrq-nmDSeL8N1qQnYPPaY5qUjgIuU", "width": 1632}], "place_id": "ChIJ-0RuUbm6QQ0RjlrazaH6Hdg", "plus_code": {"compound_code": "9QJM+62 Chapinería, Spain", "global_code": "8CGQ9QJM+62"}, "reference": "ChIJ-0RuUbm6QQ0RjlrazaH6Hdg", "scope": "GOOGLE", "types": ["point_of_interest", "establishment"], "vicinity": "Calle Marqués de Villanueva de la Sagra, 12, Chapinería"}, {"business_status": "OPERATIONAL", "geometry": {"location": {"lat": 40.3803766, "lng": -4.2183693}, "viewport": {"northeast": {"lat": 40.3816761302915, "lng": -4.217009919708497}, "southwest": {"lat": 40.3789781697085, "lng": -4.219707880291502}}}, "icon": "https://maps.gstatic.com/mapfiles/place_api/icons/v1/png_71/generic_business-71.png", "icon_background_color": "#7B9EB0", "icon_mask_base_uri": "https://maps.gstatic.com/mapfiles/place_api/icons/v2/generic_pinlet", "international_phone_number": "+34 618 51 31 38", "name": "AGVprint", "opening_hours": {"open_now": false}, "photos": [{"height": 2180, "html_attributions": ["<a href=\"https://maps.google.com/maps/contrib/108709268628430346604\">AGVprint</a>"], "photo_reference": "AWn5SU4Gi5HyZHzfESOUCy1kasXv6zQXasoYrD0T4h7SpPloP2lmTukdO3kFW1hFoUZgJbcHkTbF21CawN94-xJwGKNqPbgV_yej6EfsavZVJcIfv9C-9V01El0Fdy88zcPY2v0R_yM_cXSPajXyfwAPcV2mgnR58bvwQhe9j70AkjNvk1Sm8JH2hK8MovlyJXYqokeh4qZzgC-MVVLGlFOMjNEjlE0yLIUQef_abSLzAZSqDYof1X2ZKVW-kq-dmXQOqqIe_Yca88gpw2v9tnQw8UBDfaA3lkjoV3LYPmH604IGhq9biaUtq-7_D3Tm7NQ_DBwRDm1LnTM", "width": 2540}], "place_id": "ChIJAQDkh1-fQQ0R7Mz4yMNcfqk", "plus_code": {"compound_code": "9QJJ+5M Chapinería, Spain", "global_code": "8CGQ9QJJ+5M"}, "rating": 4.2, "reference": "ChIJAQDkh1-fQQ0R7Mz4yMNcfqk", "scope": "GOOGLE", "types": ["point_of_interest", "establishment"], "user_ratings_total": 5, "vicinity": "Calle Marqués de Villanueva de la Sagra, 26, Chapinería"}, {"business_status": "OPERATIONAL", "geometry": {"location": {"lat": 40.37792899999999, "lng": -4.2191}, "viewport": {"northeast": {"lat": 40.37928023029149, "lng": -4.217679269708499}, "southwest": {"lat": 40.37658226970849, "lng": -4.220377230291502}}}, "icon": "https://maps.gstatic.com/mapfiles/place_api/icons/v1/png_71/generic_business-71.png", "icon_background_color": "#7B9EB0", "icon_mask_base_uri": "https://maps.gstatic.com/mapfiles/place_api/icons/v2/generic_pinlet", "international_phone_number": "+34 629 27 73 73", "name": "Madridws05sl", "opening_hours": {"open_now": false}, "place_id": "ChIJb1gzUry6QQ0RSuRLQGPsLTU", "plus_code": {"compound_code": "9QHJ+59 Chapinería, Spain", "global_code": "8CGQ9QHJ+59"}, "reference": "ChIJb1gzUry6QQ0RSuRLQGPsLTU", "scope": "GOOGLE", "types": ["point_of_interest", "establishment"], "vicinity": "Calle Cigüeña, 27, Chapinería"}, {"business_status": "OPERATIONAL", "geometry": {"location": {"lat": 40.381818, "lng": -4.218642}, "viewport": {"northeast": {"lat": 40.38320343029149, "lng": -4.217301269708497}, "southwest": {"lat": 40.3805054697085, "lng": -4.219999230291502}}}, "icon": "https://maps.gstatic.com/mapfiles/place_api/icons/v1/png_71/generic_business-71.png", "icon_background_color": "#7B9EB0", "icon_mask_base_uri": "https://maps.gstatic.com/mapfiles/place_api/icons/v2/generic_pinlet", "international_phone_number": "+34 609 12 62 42", "name": "Garromar S.L.", "opening_hours": {"open_now": false}, "place_id": "ChIJuxc4xbu6QQ0RkujOTizo6Mo", "plus_code": {"compound_code": "9QJJ+PG Chapinería, Spain", "global_code": "8CGQ9QJJ+PG"}, "reference": "ChIJuxc4xbu6QQ0RkujOTizo6Mo", "scope": "GOOGLE", "types": ["point_of_interest", "establishment"], "vicinity": "Poligono Industrial Los Cañales, Avenida de la Apretura, Chapinería"}, {"geometry": {"location": {"lat": 40.3877545, "lng": -4.249999}, "viewport": {"northeast": {"lat": 40.39075504007038, "lng": -4.237974682777079}, "southwest": {"lat": 40.38172494261885, "lng": -4.256782951735349}}}, "icon": "https://maps.gstatic.com/mapfiles/place_api/icons/v1/png_71/geocode-71.png", "icon_background_color": "#7B9EB0", "icon_mask_base_uri": "https://maps.gstatic.com/mapfiles/place_api/icons/v2/generic_pinlet", "name": "Navas del Rey", "photos": [{"height": 3120, "html_attributions": ["<a href=\"https://maps.google.com/maps/contrib/108020206213748610910\">Azu Cab</a>"], "photo_reference": "AWn5SU6fIMI4Nw522y5EIZ9MsWGXo0-wa1QvQUiiUasfMuy0BgjFNigWzel9wYN_1zLJIgxkITnFykNHgJD0d1xNLUdNFa-QfPEzoSwN1nyEeyZbrZoG4oiYIbpTOevFVmpqdTgKadpQINgCf4wfEryzfd7qZjs38ZNAVqAlumgfhaBj1Jr8gwO4Qz4MXZeluWB1rvGboXB_1LzhZpHjJULpZvb6Pe46N3DJOQWfDRE8QruY250ISoAf6OJ2v3SHavvUCzT12IasYIx1FA7xmr2uOXfi0_Uibouk9x7_rUscl7OX4z2ivR7agMRhvAoYI0HqNS3duwpib4MdVCVJ8AfsjmP8rK0KJKEH4WiO7Cgp0FBSXluW3Ds54X3WJQFhW3lyfSme66lw2-2CXx-kvN6TQn9-xfERGer-MYnH5tulAeIuPW7E4zQNW-uxI4qesss4PF65V4kDHhFuPtel54dpwLQVMx9EHYf32sZ2uuJEaIO0O16b0I60dHpWYrvX0Qvjk9kL-6EchxZhi5vcnh1KRmyhk2iitCD_QjELyP6RIBjwqi1UBzcgQDkSjzkOTEpieKi3nhz_myswdnEijt2SCaKa1SmtECo8EWokzRL0jrHCXY6WR4h-iwX0_jh4AE_ObmQg1w", "width": 4160}], "place_id": "ChIJ9-GwnBmwQQ0RsX__0xswlP4", "reference": "ChIJ9-GwnBmwQQ0RsX__0xswlP4", "scope": "GOOGLE", "types": ["locality", "political"], "vicinity": "Navas del Rey"}]