[{"business_status": "OPERATIONAL", "geometry": {"location": {"lat": 40.33820779999999, "lng": -3.380190099999999}, "viewport": {"northeast": {"lat": 40.33959298029149, "lng": -3.378854519708498}, "southwest": {"lat": 40.33689501970849, "lng": -3.381552480291502}}}, "icon": "https://maps.gstatic.com/mapfiles/place_api/icons/v1/png_71/bank-71.png", "icon_background_color": "#909CE1", "icon_mask_base_uri": "https://maps.gstatic.com/mapfiles/place_api/icons/v2/bank-intl_pinlet", "international_phone_number": "+34 918 76 54 37", "name": "BBVA", "opening_hours": {"open_now": false}, "photos": [{"height": 720, "html_attributions": ["<a href=\"https://maps.google.com/maps/contrib/111255528663521723100\">BBVA</a>"], "photo_reference": "AWn5SU4bQTYIc_n9ZH-KhPzQC9POgmAkoqxD1K7w2QYhczY8DuyzUwFKOaebcKCHuWsz_Y_XKBVziN1g45G4lPmm7xg22xJ5tk-XGk-aEd6mipBdPg5jVl-rc9qwMuGP7MPWOXWnvAjOhY6TLzS3h8miX8sKILCNjTCKzIaCpZDVkdMPGs-0DD_pDt7rQOPS99wvs6Acp-nugYIkeat-5atvwrF0TLCMorris98YWGIEb-j3aL0kmIaw_7jbzeeF3tdjrjco8SgN601vjKTpqgBadj6cGALE391WNToG8yqKCEsDB1uKJxELJcd0LYrJTWdsjczih3JMGik", "width": 1280}], "place_id": "ChIJPWnum9VAQg0RZBTcWiGJSOI", "plus_code": {"compound_code": "8JQ9+7W Campo Real, Spain", "global_code": "8CGR8JQ9+7W"}, "rating": 2.8, "reference": "ChIJPWnum9VAQg0RZBTcWiGJSOI", "scope": "GOOGLE", "types": ["bank", "atm", "accounting", "finance", "point_of_interest", "establishment"], "user_ratings_total": 16, "vicinity": "Carr. de, Carretera Villar del Olmo, 6, Campo Real"}, {"business_status": "OPERATIONAL", "geometry": {"location": {"lat": 40.3532215, "lng": -3.264316899999999}, "viewport": {"northeast": {"lat": 40.3546383302915, "lng": -3.262928619708498}, "southwest": {"lat": 40.3519403697085, "lng": -3.265626580291502}}}, "icon": "https://maps.gstatic.com/mapfiles/place_api/icons/v1/png_71/atm-71.png", "icon_background_color": "#909CE1", "icon_mask_base_uri": "https://maps.gstatic.com/mapfiles/place_api/icons/v2/atm_pinlet", "international_phone_number": "+34 913 34 07 61", "name": "Cajero Euro Automatic Cash", "opening_hours": {"open_now": true}, "photos": [{"height": 900, "html_attributions": ["<a href=\"https://maps.google.com/maps/contrib/115984578251343937759\">Cajero Euro Automatic Cash</a>"], "photo_reference": "AWn5SU5rz2ITHpPyP6TIoceOdEhH2kU3n_VXryowB_nV4BF5CvB9RDdYFZMUJLVxJbhQwDNjhomtyfju82ndNNksIuE6z9r16OFUReQc0V0pGeOaQVoGwxxr__ttX2IcpmCjD3NVf_CrPK68UxDOJ8D2jCIT-8OFdCBAeTq-wS4a5jQZEf1cY4cl-yo-zIzGWRjVoy0GzuONd-OCVMgDhVAhRzB77fhPqF4ecsZ1kQuOa09mjGkVNWS1xEqBcrlB3YWzQKDr8rT_zAd42oTb2Q8b9tyt2O3XBcFiUKwZHVlMBk6XG2pM3xh1ktpzzaLBfVQqd5d4KNE9a7o", "width": 1600}], "place_id": "ChIJwQHNG65EQg0RA0NdWUk_v8E", "plus_code": {"compound_code": "9P3P+77 Nuevo Bazt치n, Spain", "global_code": "8CGR9P3P+77"}, "rating": 2.5, "reference": "ChIJwQHNG65EQg0RA0NdWUk_v8E", "scope": "GOOGLE", "types": ["atm", "finance", "point_of_interest", "establishment"], "user_ratings_total": 2, "vicinity": "CC La Plaza, Local, 1, Nuevo Bazt치n"}, {"business_status": "OPERATIONAL", "geometry": {"location": {"lat": 40.3381344, "lng": -3.3806008}, "viewport": {"northeast": {"lat": 40.33946083029149, "lng": -3.379252969708498}, "southwest": {"lat": 40.3367628697085, "lng": -3.381950930291502}}}, "icon": "https://maps.gstatic.com/mapfiles/place_api/icons/v1/png_71/bank-71.png", "icon_background_color": "#909CE1", "icon_mask_base_uri": "https://maps.gstatic.com/mapfiles/place_api/icons/v2/bank-intl_pinlet", "international_phone_number": "+34 918 73 38 73", "name": "Eurocaja Rural", "opening_hours": {"open_now": false}, "place_id": "ChIJ5ZXPsNVAQg0Rg7z5IyaAGt0", "plus_code": {"compound_code": "8JQ9+7Q Campo Real, Spain", "global_code": "8CGR8JQ9+7Q"}, "rating": 3.3, "reference": "ChIJ5ZXPsNVAQg0Rg7z5IyaAGt0", "scope": "GOOGLE", "types": ["bank", "atm", "finance", "point_of_interest", "establishment"], "user_ratings_total": 8, "vicinity": "Carretera Villar del Olmo, 7, Campo Real"}, {"business_status": "OPERATIONAL", "geometry": {"location": {"lat": 40.33824929999999, "lng": -3.380899299999999}, "viewport": {"northeast": {"lat": 40.3395754802915, "lng": -3.379603869708498}, "southwest": {"lat": 40.3368775197085, "lng": -3.382301830291502}}}, "icon": "https://maps.gstatic.com/mapfiles/place_api/icons/v1/png_71/bank-71.png", "icon_background_color": "#909CE1", "icon_mask_base_uri": "https://maps.gstatic.com/mapfiles/place_api/icons/v2/bank-intl_pinlet", "international_phone_number": "+34 918 74 10 40", "name": "Banco Santander Agentes", "opening_hours": {"open_now": false}, "photos": [{"height": 720, "html_attributions": ["<a href=\"https://maps.google.com/maps/contrib/108055089908181414572\">Banco Santander Agentes</a>"], "photo_reference": "AWn5SU4Jm9xjBqJIpihrOqPzs5jz7v1AYj9gCNgMhnrUxfkG4cyeB7BqeHVntsz4yQ6u5m-i5esYsyjCfYMBzX46TapVYZNqcT1iUJN3_uyL8DM451K9lSCv9Wu-0hq8hvzyBpNNY4fmgMYDSl13dQakxoQ547CbJmaVlJ1t-iLGQIi0w9lE-8wrklutgZ2fCHoEocg5rm4lsCMVrzanqOnt3HOb_MLgHkAh4XVwUhcXuol1tTDZEXA23svqKZ5kp9d5eXi4VmM6pAjoyRnfp337G_4RaQNssIrxJAxWzV2qqLwNCvZQV8pJSjwjE_UUtpGbPGWUqylj4RA", "width": 1280}], "place_id": "ChIJEcUOpdVAQg0RqG7NPTodhqk", "plus_code": {"compound_code": "8JQ9+7J Campo Real, Spain", "global_code": "8CGR8JQ9+7J"}, "rating": 3.9, "reference": "ChIJEcUOpdVAQg0RqG7NPTodhqk", "scope": "GOOGLE", "types": ["bank", "atm", "finance", "point_of_interest", "establishment"], "user_ratings_total": 15, "vicinity": "Plaza Mayor, 11, Campo Real"}, {"business_status": "OPERATIONAL", "geometry": {"location": {"lat": 40.3546163, "lng": -3.264754}, "viewport": {"northeast": {"lat": 40.3562718302915, "lng": -3.263367069708499}, "southwest": {"lat": 40.35357386970851, "lng": -3.266065030291502}}}, "icon": "https://maps.gstatic.com/mapfiles/place_api/icons/v1/png_71/atm-71.png", "icon_background_color": "#909CE1", "icon_mask_base_uri": "https://maps.gstatic.com/mapfiles/place_api/icons/v2/atm_pinlet", "international_phone_number": "+34 900 404 090", "name": "ATM CaixaBank - Cajero", "opening_hours": {"open_now": true}, "photos": [{"height": 681, "html_attributions": ["<a href=\"https://maps.google.com/maps/contrib/118209755218827339914\">ATM CaixaBank - Cajero</a>"], "photo_reference": "AWn5SU4nqWVQsefKoUOXukSzlIHuZEsoUOU56DYPDmcAM4ZqW98-Fuax7a9NMdrC5iWAzk34HON8BRwM6-yrTEGQGQwL6ju_IZd7lTItPTZHUgCI6yS_YwgiyppMiGSjrwkgboh8wek7iOjNW7ofPIpotmQ0_UJkEyexBgZWdbBd-ZDP1uCrrttXFEsEi_ztSN47PztcMEngDUAmp47LTijVVHC8DP9R6tqyPDYGFJq_gbcjHp8eaH_l03wlbsGhIUl6CnZShx8hs-KTXuw7ouLqxM-FlY1Ho-HUjO9mehip_RGPAkAaN1rDIV7hJZhxbfsCYFm8-Cprn_E", "width": 1024}], "place_id": "ChIJySfG_49FQg0R5PX28IjxvT0", "plus_code": {"compound_code": "9P3P+R3 Nuevo Bazt치n, Spain", "global_code": "8CGR9P3P+R3"}, "reference": "ChIJySfG_49FQg0R5PX28IjxvT0", "scope": "GOOGLE", "types": ["atm", "finance", "point_of_interest", "establishment"], "vicinity": "Urb. Eurovillas-com. Europea, S/n, Nuevo Bazt치n"}, {"business_status": "OPERATIONAL", "geometry": {"location": {"lat": 40.40567850000001, "lng": -3.3617426}, "viewport": {"northeast": {"lat": 40.4070028802915, "lng": -3.360355469708498}, "southwest": {"lat": 40.40430491970851, "lng": -3.363053430291502}}}, "icon": "https://maps.gstatic.com/mapfiles/place_api/icons/v1/png_71/atm-71.png", "icon_background_color": "#909CE1", "icon_mask_base_uri": "https://maps.gstatic.com/mapfiles/place_api/icons/v2/atm_pinlet", "international_phone_number": "+34 900 404 090", "name": "ATM CaixaBank - Cajero", "opening_hours": {"open_now": true}, "photos": [{"height": 681, "html_attributions": ["<a href=\"https://maps.google.com/maps/contrib/107497943404358767524\">ATM CaixaBank - Cajero</a>"], "photo_reference": "AWn5SU5deXkUV4byVhx2gA3w5hHRQB2Lm0C-rkJF2peg7MuzX7SMHb_RSb4ctwz172cc5ffsG8GMina0dRY6c_18yjRbqN8sA9LacXYZXnM3UVhHRZzain1B8QM1Do9ZYBYRKydXKoddLMixKfgwcf5X2zaJmQQw_DDD3xKYF60l4KiVW44cDysBcPjRcdL8E64RvYxju1wAbRznQQEi0L5vCzZCw0aw7-pFunu9fh2x4abazBD7u4EYn62udn8_gXvKnFEKxH0iwK-o3DfUfYsEnxqZcRaLOoDF9kC4T0029utPDZOCaJSt4L-V3HgahC8PPCspqdckt8U", "width": 1024}], "place_id": "ChIJ-wRDArVHQg0RvT0bM2BhAOk", "plus_code": {"compound_code": "CJ4Q+78 Torres de la Alameda, Spain", "global_code": "8CGRCJ4Q+78"}, "rating": 1, "reference": "ChIJ-wRDArVHQg0RvT0bM2BhAOk", "scope": "GOOGLE", "types": ["atm", "finance", "point_of_interest", "establishment"], "user_ratings_total": 1, "vicinity": "Calle Mayor, 12, Torres de la Alameda"}, {"business_status": "OPERATIONAL", "geometry": {"location": {"lat": 40.40677379999999, "lng": -3.361829199999999}, "viewport": {"northeast": {"lat": 40.4081077302915, "lng": -3.360441869708497}, "southwest": {"lat": 40.4054097697085, "lng": -3.363139830291501}}}, "icon": "https://maps.gstatic.com/mapfiles/place_api/icons/v1/png_71/bank-71.png", "icon_background_color": "#909CE1", "icon_mask_base_uri": "https://maps.gstatic.com/mapfiles/place_api/icons/v2/bank-intl_pinlet", "international_phone_number": "+34 918 85 80 11", "name": "Banco Santander Agentes", "opening_hours": {"open_now": false}, "photos": [{"height": 720, "html_attributions": ["<a href=\"https://maps.google.com/maps/contrib/110504312705423053580\">Banco Santander Agentes</a>"], "photo_reference": "AWn5SU474UT7qAXGTFxrpZtyZD3RQclJ0mPkgagfIu2nLo_kOOt_Ng0spq-59J-sZkmMVJROY8MLqpzWJgUS3b66H8iqa5wGKd1gZpWnhNYMInxHeKCIpb0R0_9NrvuudvT4RRdqBQZKWr7Z582Q45borQ7ZuMMLyAQwiNylJcRxLWFaczWT6lz5CHL_m1Yp3e9Wlts9PT29ZM9ycSqGkzLNRUq5SJ3O_QikcZPYG3LGcOSAFV-vxdgJZ67l2fSV-9o000RXZyNRPeAFTjjaDhc75fI5eUnSIQcdgRYp4gaYJQI30lRZAI2oovwo5_YMeb6ZQev2v1XZ8CY", "width": 1280}], "place_id": "ChIJs88Uf6RHQg0RIkwC_L3IR8E", "plus_code": {"compound_code": "CJ4Q+P7 Torres de la Alameda, Spain", "global_code": "8CGRCJ4Q+P7"}, "rating": 3.1, "reference": "ChIJs88Uf6RHQg0RIkwC_L3IR8E", "scope": "GOOGLE", "types": ["bank", "atm", "finance", "point_of_interest", "establishment"], "user_ratings_total": 15, "vicinity": "Plaza Maravillegas, S/N, Torres de la Alameda"}, {"business_status": "OPERATIONAL", "geometry": {"location": {"lat": 40.33849, "lng": -3.381376}, "viewport": {"northeast": {"lat": 40.3398043302915, "lng": -3.380030569708499}, "southwest": {"lat": 40.3371063697085, "lng": -3.382728530291502}}}, "icon": "https://maps.gstatic.com/mapfiles/place_api/icons/v1/png_71/atm-71.png", "icon_background_color": "#909CE1", "icon_mask_base_uri": "https://maps.gstatic.com/mapfiles/place_api/icons/v2/atm_pinlet", "international_phone_number": "+34 900 404 090", "name": "ATM CaixaBank - Cajero", "opening_hours": {"open_now": true}, "photos": [{"height": 681, "html_attributions": ["<a href=\"https://maps.google.com/maps/contrib/117125826993090153961\">ATM CaixaBank - Cajero</a>"], "photo_reference": "AWn5SU7rNCVgeoDvfmpTEg6oZDhEivi7NEkAS8Yld2n02ZJjXcMJUHUkd8pWPJH9dvgzlW8oCcHFaWW-VHzdTwPJo6HaQz0rXtkuKfM0MqbaiwSHDF5Y5QgBDQHznrIRRsiZfbnLwbPOXWGmohKHx9zBH1B4NtBSL5tM9m3xmsZmWIcevdKrYs4ziCqHfJAGHZa9RR4jryosY_kcC0YG1sn902F8n-upzP6DIWpoWWg-pdBxAVP4J8isJxlVRKjK_hkkuCIRZmwl39RlxSqtC_qeplGQrTjTEedsZRVdzSLcj7s_3pPPt59Bk2bDwYG1vsm9K1YvZkdRsa8", "width": 1024}], "place_id": "ChIJla0D1llBQg0RF52mZQYBQ7k", "plus_code": {"compound_code": "8JQ9+9C Campo Real, Spain", "global_code": "8CGR8JQ9+9C"}, "reference": "ChIJla0D1llBQg0RF52mZQYBQ7k", "scope": "GOOGLE", "types": ["atm", "finance", "point_of_interest", "establishment"], "vicinity": "Plaza Mayor, 6, Campo Real"}]