[{"business_status": "OPERATIONAL", "geometry": {"location": {"lat": 40.4985073, "lng": -4.2342093}, "viewport": {"northeast": {"lat": 40.4998833302915, "lng": -4.232822319708498}, "southwest": {"lat": 40.4971853697085, "lng": -4.235520280291501}}}, "icon": "https://maps.gstatic.com/mapfiles/place_api/icons/v1/png_71/school-71.png", "icon_background_color": "#7B9EB0", "icon_mask_base_uri": "https://maps.gstatic.com/mapfiles/place_api/icons/v2/school_pinlet", "international_phone_number": "+34 918 99 83 13", "name": "CEIP Nuestra Señora de Navahonda", "place_id": "ChIJt_0MTZ6oQQ0RKmqpPtT7ui8", "plus_code": {"compound_code": "FQX8+C8 Robledo de Chavela, Spain", "global_code": "8CGQFQX8+C8"}, "reference": "ChIJt_0MTZ6oQQ0RKmqpPtT7ui8", "scope": "GOOGLE", "types": ["point_of_interest", "school", "establishment"], "vicinity": "Calle Elisadero, 25, Robledo de Chavela"}, {"business_status": "OPERATIONAL", "geometry": {"location": {"lat": 40.4910812, "lng": -4.162283899999999}, "viewport": {"northeast": {"lat": 40.4923349802915, "lng": -4.160919669708498}, "southwest": {"lat": 40.4896370197085, "lng": -4.163617630291502}}}, "icon": "https://maps.gstatic.com/mapfiles/place_api/icons/v1/png_71/school-71.png", "icon_background_color": "#7B9EB0", "icon_mask_base_uri": "https://maps.gstatic.com/mapfiles/place_api/icons/v2/school_pinlet", "international_phone_number": "+34 918 98 94 94", "name": "CEIP San Bartolomé", "photos": [{"height": 3264, "html_attributions": ["<a href=\"https://maps.google.com/maps/contrib/111914156252910459244\">Alfonso jjj</a>"], "photo_reference": "AWn5SU4PwBv189ByZizwv9Uzfi2qsDJg6qvL8tHtFA5zLoufIATDKSN9zBKiTSMdhv9hLySzilRWZ9NAWv347Hym4QpJcNdYYsT_yrqD6625e5Q84o6wFrY00bEAAT7YLL4pi6_Jb9-4iEXyBZcMZL0hsCqDJcbnN9IYlciHyUEZPF_zHe5q4vu8Y1osVpmy2n-8wuC4e4e0et2G_nHZHag7T-efYc_NuzErkgX99wL86B4HCZrwWsJg8V1yGJKn375U9GDDx1uxWCBSkvw6q4Yh4Mfr2kt5CLw7jOPACOOjgpOQ2fAud-SC5NWOpM35ZjwWZ8m_lUtN_F0IOwSNrGO1FrEYS7NfDIBhruv1qEkocYth3NZUR5W190-qRjOs0fRsuW7hJoyWnWrP1M4-3tWd1tsGxoeOpOIOxdYcaPWaRYU2-702HO9xdI5YW2cY4OuwcaFpwCYZUlBqYTnFFcVOcQgkYCvqtBwwO489TlLCIdHVEN8jcz0jPuExwq1kgW0Tk0DMndBgV_GMGUgYiASSzXUqwWyc7DfQZ_CUq7wir2_WNRkziQQyYrS-0yYIIEsRxFXEMyH8RxQ1H2YLFSZ9Slq15BAhoF894ZqyNfr3ZVy7viSAAJJuibFIyyYme9geDowhKxgo", "width": 2448}], "place_id": "ChIJWxwMgrymQQ0RIzskKROp-rs", "plus_code": {"compound_code": "FRRQ+C3 Fresnedillas de la Oliva, Spain", "global_code": "8CGQFRRQ+C3"}, "reference": "ChIJWxwMgrymQQ0RIzskKROp-rs", "scope": "GOOGLE", "types": ["primary_school", "point_of_interest", "school", "establishment"], "vicinity": "Camino Peralejo, 5D, Fresnedillas de la Oliva"}, {"business_status": "OPERATIONAL", "geometry": {"location": {"lat": 40.49872989999999, "lng": -4.235160599999999}, "viewport": {"northeast": {"lat": 40.5002211802915, "lng": -4.233853719708497}, "southwest": {"lat": 40.4975232197085, "lng": -4.236551680291502}}}, "icon": "https://maps.gstatic.com/mapfiles/place_api/icons/v1/png_71/school-71.png", "icon_background_color": "#7B9EB0", "icon_mask_base_uri": "https://maps.gstatic.com/mapfiles/place_api/icons/v2/school_pinlet", "international_phone_number": "+34 918 98 15 28", "name": "Instituto Educación Secundaria Sabino Fernández Campo", "opening_hours": {"open_now": false}, "photos": [{"height": 768, "html_attributions": ["<a href=\"https://maps.google.com/maps/contrib/110590990753961450416\">Javier Prieto</a>"], "photo_reference": "AWn5SU6BHKdrAawVVtQih-HoUNxs30JxnAGrw_xWjyeCxesrN_hv84SdlGHnvllrJxbvPp-IpSn8DxOaeyNZUGub888csEC7Zi8axGVXT9w0uPpXQZ2uPmfzm2PV-2uEOEB9lUZZeICjdYrPPb6GVkvZ5W-W072RYoAbBfrM_K_SUlmj2zBVDZBemkWuoxiF9lgBvVhRqY_pkPdJWqjnTFdCb7sdMWpmmgfxduNLjj97Xhj3SyC6z3fe_vuSoa-Zp30NWksF_MTHs--Fg76r1alFGe2dr7wSonxEGwqj1h5fwgRE8sQ_kUcDsf3K97B0XajVl7Gu2IMbJzyIZlBxgYDwjGFd9THsr4AncM0i9tjn6E0Uu7KVBodiZKbJ9ITQwH-kqyB-tKv_ld1Zechn58KtzId6sirjmDfaICqUDWjuI3zpeUsv_3qsycQaC3E34Xj6_TTlnX8VSJYWYKTni-aBIYdf-TYaqox4IE0N2cT0bb_pa6fEQBn10FJqqMCDaJRDD6qR605eG21fG6-UPBTryDZJRSNMYtUCQbO2ALRWvgdlwryoOs1UYZ2S4Pv5MDEoTAvCwCvScyxz24UGDoy9uzoosuZKJRGyL7i3HnJ1KAUAC5TH9PrVPNo8W4G2Q7hG6iQ_-A", "width": 1024}], "place_id": "ChIJERk0wJ6oQQ0RUkLiJNYqKwI", "plus_code": {"compound_code": "FQX7+FW Robledo de Chavela, Spain", "global_code": "8CGQFQX7+FW"}, "reference": "ChIJERk0wJ6oQQ0RUkLiJNYqKwI", "scope": "GOOGLE", "types": ["point_of_interest", "school", "establishment"], "vicinity": "Calle Elisadero, 28, Robledo de Chavela"}, {"business_status": "OPERATIONAL", "geometry": {"location": {"lat": 40.4968377, "lng": -4.2398198}, "viewport": {"northeast": {"lat": 40.49816163029149, "lng": -4.238402619708499}, "southwest": {"lat": 40.49546366970849, "lng": -4.241100580291503}}}, "icon": "https://maps.gstatic.com/mapfiles/place_api/icons/v1/png_71/school-71.png", "icon_background_color": "#7B9EB0", "icon_mask_base_uri": "https://maps.gstatic.com/mapfiles/place_api/icons/v2/school_pinlet", "international_phone_number": "+34 918 99 82 48", "name": "Casa de niños \"El Parque\"", "photos": [{"height": 1184, "html_attributions": ["<a href=\"https://maps.google.com/maps/contrib/115055383090176917276\">Miguel angel Manzaneque gallego</a>"], "photo_reference": "AWn5SU7Q5f6ejPR7BNcGEsOH1MWrSX1_owIQw3WKOQj2UYZIv9--NfDKua0eMNVzPJ78wqNTD7ADAtjNNaH8Y6K844dykSmSPHOBMT7BIHqV9f3U-hbrbtLrPQSGApgjiYYDbuRUMuZ4B5YBy9UUoZRZ7Xj9IlC5qMQrj0zsx0Jv6gzcyH6biSNP9xFpPEH-igOm4sb4hAi6CHu5p1Sznb3mS9U3cUTc9d-lFlUIt6iHvh6pluYO7-NWkMkXNiqYdmtz9THInfJvSX3Y79X2oO59CYE-z0JbZf310s5Fog8jdbVdBU302NKpWiq_cTUi7qIBEgON6dd_V7f74BHbAC91MG-QjTD_rtIIIthG5qG7ajXGy6M5_vJrBCBzYhOXTf7S10x0pw2QxljCMHnXVEwO8ZS7JD1vC_FtGTh_fGlm4tZMnlhacWkQkVCd-vV-1OYwoMgEf09DCXos17z25bseUqwOelfxntlaUj6M9PtYe9Gm57_QBN_O8EWlfqwfqY0z5MLCM3RASYA09QE75ulxi_wqm8x_yICBIbD44RH2j_6wKvdLJ0045I6xSPQwuJbgOBHgBoxa4sr5Rz_JiTyRT0q0cP1seFNm7W3rkW93gOXnZ6uf-Of2QrJzCKuSJkDZsXlI8Rp7", "width": 2560}], "place_id": "ChIJQ64p1PSpQQ0Rutm3vg658Rw", "plus_code": {"compound_code": "FQW6+P3 Robledo de Chavela, Spain", "global_code": "8CGQFQW6+P3"}, "rating": 5, "reference": "ChIJQ64p1PSpQQ0Rutm3vg658Rw", "scope": "GOOGLE", "types": ["point_of_interest", "school", "establishment"], "user_ratings_total": 1, "vicinity": "Calle Santiago Apóstol, Robledo de Chavela"}, {"business_status": "OPERATIONAL", "geometry": {"location": {"lat": 40.5129254, "lng": -4.2986979}, "viewport": {"northeast": {"lat": 40.51427453029151, "lng": -4.297345919708498}, "southwest": {"lat": 40.51157656970851, "lng": -4.300043880291502}}}, "icon": "https://maps.gstatic.com/mapfiles/place_api/icons/v1/png_71/school-71.png", "icon_background_color": "#7B9EB0", "icon_mask_base_uri": "https://maps.gstatic.com/mapfiles/place_api/icons/v2/school_pinlet", "international_phone_number": "+34 918 98 44 82", "name": "Escuela De Educación Infantil Casa De Niños Valdemaqueda", "place_id": "ChIJSS2Fv3WpQQ0RcteWXjSswWE", "plus_code": {"compound_code": "GP72+5G Valdemaqueda, Spain", "global_code": "8CGQGP72+5G"}, "reference": "ChIJSS2Fv3WpQQ0RcteWXjSswWE", "scope": "GOOGLE", "types": ["point_of_interest", "school", "establishment"], "vicinity": "Calle Juan Carlos I, 8, Valdemaqueda"}, {"business_status": "OPERATIONAL", "geometry": {"location": {"lat": 40.4858552, "lng": -4.1696041}, "viewport": {"northeast": {"lat": 40.48724628029149, "lng": -4.168235669708499}, "southwest": {"lat": 40.4845483197085, "lng": -4.170933630291502}}}, "icon": "https://maps.gstatic.com/mapfiles/place_api/icons/v1/png_71/school-71.png", "icon_background_color": "#7B9EB0", "icon_mask_base_uri": "https://maps.gstatic.com/mapfiles/place_api/icons/v2/school_pinlet", "name": "CASA DE NIÑOS DE FRESNEDILLAS DE LA OLIVA", "place_id": "ChIJuXA4-E2nQQ0RA7YrGGR4Lkk", "plus_code": {"compound_code": "FRPJ+85 Fresnedillas de la Oliva, Spain", "global_code": "8CGQFRPJ+85"}, "reference": "ChIJuXA4-E2nQQ0RA7YrGGR4Lkk", "scope": "GOOGLE", "types": ["point_of_interest", "school", "establishment"], "vicinity": "Calle del Caño, 14, Fresnedillas de la Oliva"}]