[{"business_status": "OPERATIONAL", "geometry": {"location": {"lat": 40.208119, "lng": -3.192815699999999}, "viewport": {"northeast": {"lat": 40.2094919802915, "lng": -3.191493469708498}, "southwest": {"lat": 40.2067940197085, "lng": -3.194191430291501}}}, "icon": "https://maps.gstatic.com/mapfiles/place_api/icons/v1/png_71/pharmacy-71.png", "icon_background_color": "#F88181", "icon_mask_base_uri": "https://maps.gstatic.com/mapfiles/place_api/icons/v2/pharmacy_pinlet", "international_phone_number": "+34 918 73 96 62", "name": "Botiquín Lda. Elba Tato López", "opening_hours": {"open_now": false}, "photos": [{"height": 3120, "html_attributions": ["<a href=\"https://maps.google.com/maps/contrib/103224995164585640943\">Karla Contreras</a>"], "photo_reference": "AWn5SU7slgpf9GZE5h2o9mF-Aks9QjBDWnLYWySXnzWlL7mrXutrrTJUsOhG8l206gTGpjSajMNim2cE386RG69-t9RhTMZ7X2T378sWUZQKDS_uv-rEFo6Z9pfvIJXwqY8LaNjdF7suIPnWOf6wCL1ZfFpUOtjACWP3UUAvGO9u7NXp9tQh6o651s7feI-pNlXw1gXv4B_5ZAbqgPbDwUugB4j05dLkU6G3OdgVt5WCAGgfIsjpjNymolbNYnVqkvdeIg98K4256w47s3PvUnEjkyMHZohlbdiFjmlUR9VAaJ9fPtnsgB7CM8VvULl016cxg2mVcGu8xW1dpWOoVfqyyynHcn8yhnwKeP7MBrwdxUw9G7aJ-VI6KXFYEmvI3zyQvVTjxaqOI4Tmo8qyMmUS1362AivguAYfn1hkjIEeKaYLkMWU3wQEqI3qCTeRDwEst01O0vChS45IDGmKtFawzwa8A9o__v1SW8wb2RA_-UT6cfuMeb39oBzAEjO9PRaaTHeS1lvczYNwREVyaYkY0_iPvHGOPZFvlBiD5x8c2l1Y0o45F5lcCEgkrLnd_t0HEvC-tDVhrpWdZf17Un0SON91z7dkKlP8QtAEWR88kz52hhltX-IvtglgTPrga8hkNf9v1ZjI", "width": 4160}], "place_id": "ChIJj28ZUVdnQg0RUcEBH9Uw9Q4", "plus_code": {"compound_code": "6R54+6V Valdaracete, Spain", "global_code": "8CGR6R54+6V"}, "reference": "ChIJj28ZUVdnQg0RUcEBH9Uw9Q4", "scope": "GOOGLE", "types": ["pharmacy", "store", "health", "point_of_interest", "establishment"], "vicinity": "Travesía de la Campanera, 1, Valdaracete"}, {"business_status": "OPERATIONAL", "geometry": {"location": {"lat": 40.25624869999999, "lng": -3.237503999999999}, "viewport": {"northeast": {"lat": 40.2576149802915, "lng": -3.236161769708499}, "southwest": {"lat": 40.2549170197085, "lng": -3.238859730291503}}}, "icon": "https://maps.gstatic.com/mapfiles/place_api/icons/v1/png_71/pharmacy-71.png", "icon_background_color": "#F88181", "icon_mask_base_uri": "https://maps.gstatic.com/mapfiles/place_api/icons/v2/pharmacy_pinlet", "name": "FARMACIA", "place_id": "ChIJ6-7F2YxnQg0RWxXO_-VRkoM", "plus_code": {"compound_code": "7Q46+FX Carabaña, Spain", "global_code": "8CGR7Q46+FX"}, "rating": 5, "reference": "ChIJ6-7F2YxnQg0RWxXO_-VRkoM", "scope": "GOOGLE", "types": ["pharmacy", "store", "health", "point_of_interest", "establishment"], "user_ratings_total": 1, "vicinity": "Calle de la Cruz, 5, Carabaña"}, {"business_status": "OPERATIONAL", "geometry": {"location": {"lat": 40.25626279999999, "lng": -3.237584699999999}, "viewport": {"northeast": {"lat": 40.2576028302915, "lng": -3.236266019708498}, "southwest": {"lat": 40.2549048697085, "lng": -3.238963980291501}}}, "icon": "https://maps.gstatic.com/mapfiles/place_api/icons/v1/png_71/pharmacy-71.png", "icon_background_color": "#F88181", "icon_mask_base_uri": "https://maps.gstatic.com/mapfiles/place_api/icons/v2/pharmacy_pinlet", "international_phone_number": "+34 918 72 30 31", "name": "Farmacia Izaskun Izaguirre", "opening_hours": {"open_now": false}, "photos": [{"height": 4032, "html_attributions": ["<a href=\"https://maps.google.com/maps/contrib/102024185132949170511\">Farmacia Izaskun Izaguirre</a>"], "photo_reference": "AWn5SU49phhEYUllkKbzEcemTSwI6XvVQ7Spg-CRV7M9OXYIG8v5D94R18AAKiw2jUlH7i7lBO_IuxJWhTwXD7gnM1vGTFZ-V6JkrcsCIb_VIc55yUiWqfomleZbJP00cdkBk4fzJBJHCeRSyTT2lDRq2SfBX72nJNvZft9aA_-sExBZjAmD2TvuTZM532k9AqujPif9H7AKMi1BDoz3QgUHVKszySRRmqhHclhndpHDG7SN4heMUX06WtqosB6DSRzX4sWi3yoQR_kOB68iw_oNs1nRBIzXn4RezwFT9Kdia1EBcgTDaqk54ccrJjDUwJ0S4cXdpj_IG-w", "width": 3024}], "place_id": "ChIJTfNB2IxnQg0R9zq0A5cBb4s", "plus_code": {"compound_code": "7Q46+GX Carabaña, Spain", "global_code": "8CGR7Q46+GX"}, "rating": 4.9, "reference": "ChIJTfNB2IxnQg0R9zq0A5cBb4s", "scope": "GOOGLE", "types": ["pharmacy", "store", "health", "point_of_interest", "establishment"], "user_ratings_total": 17, "vicinity": "Calle del Real, 34, Carabaña"}]