[{"business_status": "OPERATIONAL", "geometry": {"location": {"lat": 40.7027435, "lng": -3.9272034}, "viewport": {"northeast": {"lat": 40.70368793029149, "lng": -3.925408569708498}, "southwest": {"lat": 40.70098996970849, "lng": -3.928106530291502}}}, "icon": "https://maps.gstatic.com/mapfiles/place_api/icons/v1/png_71/school-71.png", "icon_background_color": "#7B9EB0", "icon_mask_base_uri": "https://maps.gstatic.com/mapfiles/place_api/icons/v2/school_pinlet", "international_phone_number": "+34 918 42 02 69", "name": "Montesclaros High School", "opening_hours": {"open_now": false}, "photos": [{"height": 3925, "html_attributions": ["<a href=\"https://maps.google.com/maps/contrib/115482220864586763548\">Colegio Montesclaros</a>"], "photo_reference": "AWn5SU5mzrLYZT7iB4pAQnLLCer_grH4TPHHOK_dcfhTqXby9MzChX_gXSo2wB1_ZiCu4Ix29fqyeNfKdFzB0BMmenxyV5QaOk0wHWLqIddBtHotETkph0uqbRV05octz8Gs-4WoFxy6-629QTEHvMrdFOcnPWZDLSouSVojZTIEmhUg1dOfzNe3YA84EgaLKLwWfE5uGor0Vu3ECTb31qH4KZe9MMAE0OG6v8dCTiuwcAXW4i6wU1IyRQcVD1iyUtu3orSfwBK63XMRrXgwLJ2i4jcaDY3SQfO6bnSd7uRtaTCSdcOcUSSoF2X-kRP_EaA4pexZtvMXWvE", "width": 6505}], "place_id": "ChIJCdDT5EJwQQ0RN-R2kdYlUkM", "plus_code": {"compound_code": "P33F+34 Cerceda, Spain", "global_code": "8CGRP33F+34"}, "reference": "ChIJCdDT5EJwQQ0RN-R2kdYlUkM", "scope": "GOOGLE", "types": ["secondary_school", "primary_school", "school", "point_of_interest", "establishment"], "vicinity": "Av. de los Plantíos, 3, Cerceda"}, {"business_status": "OPERATIONAL", "geometry": {"location": {"lat": 40.72538419999999, "lng": -3.875976099999999}, "viewport": {"northeast": {"lat": 40.7266511802915, "lng": -3.874590469708497}, "southwest": {"lat": 40.7239532197085, "lng": -3.877288430291502}}}, "icon": "https://maps.gstatic.com/mapfiles/place_api/icons/v1/png_71/school-71.png", "icon_background_color": "#7B9EB0", "icon_mask_base_uri": "https://maps.gstatic.com/mapfiles/place_api/icons/v2/school_pinlet", "international_phone_number": "+34 918 53 96 60", "name": "Colegio Concertado Bilingüe Los Abetos", "opening_hours": {"open_now": false}, "photos": [{"height": 3024, "html_attributions": ["<a href=\"https://maps.google.com/maps/contrib/110944305465472012492\">Colegio Concertado Bilingüe Los Abetos</a>"], "photo_reference": "AWn5SU70H6146ZJ530UyDNuGRF0V0yeEUPNA-Q1FAhhHSt6oBnXyHLFVoOec6KQ81F84K7BFdVO1XZBH3akoF3vtJZSFTILcX4IQLS7lQAreioVikqqf-rYd5Ex-4QdBPY2iKGJn-GZPhaU3imC3hw_pudhS5wcuFOY6SZFJifFrl7z9ZcGslTwFpJooDeC4gNzFdiED1EOzhz2niS2QNinfXf6s2Up1yrMhUea0SsHdWzVqSKQSsQYH0_gHaUGRgRBvmyvrlN3GqfLz5zrnnzhRaWGGguGf7O8ERGbC61ZZjUcuACENrWhoGwev5lGki35x6q-i_KIfdY4", "width": 4032}], "place_id": "ChIJGafyG9J6QQ0RHFwvItDY6Xo", "plus_code": {"compound_code": "P4GF+5J Manzanares el Real, Spain", "global_code": "8CGRP4GF+5J"}, "reference": "ChIJGafyG9J6QQ0RHFwvItDY6Xo", "scope": "GOOGLE", "types": ["secondary_school", "primary_school", "school", "point_of_interest", "establishment"], "vicinity": "Calle del Marqués de Santillana, 35, Manzanares el Real"}, {"business_status": "OPERATIONAL", "geometry": {"location": {"lat": 40.7286337, "lng": -3.8703563}, "viewport": {"northeast": {"lat": 40.7298643802915, "lng": -3.868931319708498}, "southwest": {"lat": 40.7271664197085, "lng": -3.871629280291502}}}, "icon": "https://maps.gstatic.com/mapfiles/place_api/icons/v1/png_71/school-71.png", "icon_background_color": "#7B9EB0", "icon_mask_base_uri": "https://maps.gstatic.com/mapfiles/place_api/icons/v2/school_pinlet", "international_phone_number": "+34 918 53 99 47", "name": "Colegio Público Virgen De Peña Sacra Infantil", "place_id": "ChIJk3Vjc9R6QQ0RIdvB8g56piA", "plus_code": {"compound_code": "P4HH+FV Manzanares el Real, Spain", "global_code": "8CGRP4HH+FV"}, "reference": "ChIJk3Vjc9R6QQ0RIdvB8g56piA", "scope": "GOOGLE", "types": ["secondary_school", "school", "point_of_interest", "establishment"], "vicinity": "Calle del Parque, Manzanares el Real"}, {"business_status": "OPERATIONAL", "geometry": {"location": {"lat": 40.6740951, "lng": -3.9746665}, "viewport": {"northeast": {"lat": 40.6757675802915, "lng": -3.973115419708498}, "southwest": {"lat": 40.6730696197085, "lng": -3.975813380291502}}}, "icon": "https://maps.gstatic.com/mapfiles/place_api/icons/v1/png_71/school-71.png", "icon_background_color": "#7B9EB0", "icon_mask_base_uri": "https://maps.gstatic.com/mapfiles/place_api/icons/v2/school_pinlet", "international_phone_number": "+34 918 57 85 17", "name": "IES Carmen Martín Gaite", "opening_hours": {"open_now": false}, "photos": [{"height": 3120, "html_attributions": ["<a href=\"https://maps.google.com/maps/contrib/108599813965449492345\">Salvador Moreno</a>"], "photo_reference": "AWn5SU63dlgsw5eM6w3V8A-km4iPZ_3YxSLU3OQms7MINz7Xiv33xwqmyaKMYeJCChpmh6uKBNcmJySUW9DqI1Em-ekV1kLw0diANNuW2l9PFFdTrGj91mL0CGJX9TLzzoIx8qMb0TxIsrqnTgSCM2zc-CcX8sQo4XgsXaEiUf4jg2xp16znRWq4nw5W1GRDnJhyP994eKq_w1dzJza4XGFbwGQCu71PDlmVy_Yqozzih7hL-xGG0K8uZxH_YnbNUsVTzMVdn9aEa2ULjVeZCwWW7_HvK4sEdu-BHIrFUdlOLHKqDjQFQ_duR1INVRYp8q8QMxAq9iEROEbM6GbuGYmORYcG9LVIKjLJ8frijfIoAcxrFsUdRUh_-nYT_Ys6Q1PD-C8EdAcYXPHRqnnESW0QjPGwk2Vod1D8WBTxt2aR4E5QF2w6IpR-I1_aE8oPg1Z4MK3uKe1EcrDYo5GbAmLNnIzi3_-P2raVvLWnMY7XcqRIIX4BTZjEAhsfZBb6ojMmijWO66N__U-tDrSjQtUCUtXwY-AcEsLdQmpncfCUNyp2AghesGsBXnht6aCnCuChKSfL7flrCdDhimdxenjadLglYZ6O256TMlMG84sPXgVYIay8rk5-K860smF6Um-FG1wcPQ", "width": 4160}], "place_id": "ChIJg23nw25xQQ0RYAbGUEmW-HY", "plus_code": {"compound_code": "M2FG+J4 Moralzarzal, Spain", "global_code": "8CGRM2FG+J4"}, "reference": "ChIJg23nw25xQQ0RYAbGUEmW-HY", "scope": "GOOGLE", "types": ["secondary_school", "school", "point_of_interest", "establishment"], "vicinity": "Calle Marqués de Santillana, 14, Moralzarzal"}]