[{"geometry": {"location": {"lat": 40.5964617, "lng": -3.5016452}, "viewport": {"northeast": {"lat": 40.60244857187934, "lng": -3.492189160304554}, "southwest": {"lat": 40.58910249695727, "lng": -3.509444479745053}}}, "icon": "https://maps.gstatic.com/mapfiles/place_api/icons/v1/png_71/geocode-71.png", "icon_background_color": "#7B9EB0", "icon_mask_base_uri": "https://maps.gstatic.com/mapfiles/place_api/icons/v2/generic_pinlet", "name": "Algete", "photos": [{"height": 4000, "html_attributions": ["<a href=\"https://maps.google.com/maps/contrib/113497895923388473140\">Antonio Fernandez Hernandez</a>"], "photo_reference": "AWn5SU4bF8QFtgCcr2NpAvmA-vaRHruZRELN1b_qe84ne7PvZ6AbI4xQ7MqIEPmbH4VHqG1wNetOudha69SwyIPKaxB91_yVWt2gnrZRnClTripPhAQid8gtzlyBikeH9ZNN-ytqa3tJYO1A-afpkdNCvT0p9ThZD8bQ9pjUqePYKjjIq7jp-q-hmcJ4be7PVLD_iY1FqNvb69ycA0FEo5kai57T1NgC0P4tAIM7tO1MxrJzexFI-HM3gPKwhIq9KBOoFORoFKgG7R4slC_h_nB23eTEnyzl-XBq0EGw7Zu13jHWsNVCT3Q3q70SZD1zE88S3ZT1Ro9nOo2HKLakMFGBb_2u2J3ZYdAPIWHJgbJUIg_TFXhzp38mo6N4LWTDerAUK1t6Gyy0AHMTHQIONuiZnRNZTX8a2MzbLP4-8zj9fQwRV7x069NOajNW7ngNDNSfe313qdD6REn6rWp1pGnN4J3XAt-Zp-TjZN1GrTepK5v6TPOd-awxKuA2FjJRPQotUp7Dz0YwRpAC87bk9_YFuPW5zJn0LENpRVN-VL4AAyZPzkygkNhR3Tq5_vo5To8Vz5XTm0XlAjgxsSnYNLLhaeBZp4qE8yDcUkqUT-I8i7M9m-8z3FA1YbbG_FrkQpkVub64IjhJ", "width": 2250}], "place_id": "ChIJ--WBXafMQw0RhyEXOO-RAqw", "reference": "ChIJ--WBXafMQw0RhyEXOO-RAqw", "scope": "GOOGLE", "types": ["locality", "political"], "vicinity": "Algete"}, {"business_status": "OPERATIONAL", "geometry": {"location": {"lat": 40.5967655, "lng": -3.4951376}, "viewport": {"northeast": {"lat": 40.59813293029151, "lng": -3.493643819708498}, "southwest": {"lat": 40.59543496970851, "lng": -3.496341780291502}}}, "icon": "https://maps.gstatic.com/mapfiles/place_api/icons/v1/png_71/lodging-71.png", "icon_background_color": "#909CE1", "icon_mask_base_uri": "https://maps.gstatic.com/mapfiles/place_api/icons/v2/hotel_pinlet", "international_phone_number": "+34 916 28 29 05", "name": "Hotel Algete", "opening_hours": {"open_now": false}, "photos": [{"height": 2000, "html_attributions": ["<a href=\"https://maps.google.com/maps/contrib/114848903527278904213\">Hotel Algete</a>"], "photo_reference": "AWn5SU7iwCQrq3LVM7_XDOfk-0pWBA_8Kreporq8nLhbh6TRLOJVfVjbU78vT3wSHdflN1lbxjT9oioJVByKGA0LCf9fDsuUBxGU2f6CeQi5orC_CJHjiSCd41aYh8N9IUNdBkFpVLZ44UBvmH2ZHm1WrvEKLAyo6vMQ3ePXC_TqrCy4kTAxAAxXTUBL5JwZbfyvD2u5nYAFK-Oh4DHLvroczh8ez4s7fjpqWWOVChRDBtIHDOb9x-4ultXdxx84_PKuOKDap8lutgWS8CYWG-5KPm6LVHUBX9LUirOdLK1ypf-qHLs6ORdH7wqWfZ4zZQa3qzqqNq8xIME", "width": 3008}], "place_id": "ChIJj5bA_FvLQw0Rz9O9ijh8zyM", "plus_code": {"compound_code": "HGW3+PW Algete, Spain", "global_code": "8CGRHGW3+PW"}, "price_level": 2, "rating": 4.1, "reference": "ChIJj5bA_FvLQw0Rz9O9ijh8zyM", "scope": "GOOGLE", "types": ["lodging", "point_of_interest", "establishment"], "user_ratings_total": 1266, "vicinity": "Calle San Roque, 25, Algete"}, {"business_status": "OPERATIONAL", "geometry": {"location": {"lat": 40.59630490000001, "lng": -3.4959466}, "viewport": {"northeast": {"lat": 40.59770043029151, "lng": -3.494600269708498}, "southwest": {"lat": 40.59500246970851, "lng": -3.497298230291502}}}, "icon": "https://maps.gstatic.com/mapfiles/place_api/icons/v1/png_71/bank-71.png", "icon_background_color": "#909CE1", "icon_mask_base_uri": "https://maps.gstatic.com/mapfiles/place_api/icons/v2/bank-intl_pinlet", "international_phone_number": "+34 916 28 25 97", "name": "BBVA", "opening_hours": {"open_now": false}, "photos": [{"height": 720, "html_attributions": ["<a href=\"https://maps.google.com/maps/contrib/114738695419741946657\">BBVA</a>"], "photo_reference": "AWn5SU75h9hYYFhZBPA0m6rTTDJVQKK-TENlu-_BKOzZQ9MrNnPWWwKH5rkiat7X3KstIDwDby514AQYdzKJS37gKy-z2PogLQD93TllxdyTKThYlP09I8CjWXHaW7mwnw1Cz4teO35s_-SROdQYuA_1mxfKgzGvek_7YTI0Si7MhRKBfiJC8-p7DkWrNRGbhtMc3n7DFxvfSDsYG6kbnsh6mvqnsKlYiBSwqiy1GZPBnFsP8uSlMXn3OsXEiLKagOiBDvdXCzo42m1GJ9YfSEHRd1PJyPAznhLp2AdBSFZ1u-BiRa830mCvdlFC5OL-UMhHfeauG7o5", "width": 1280}], "place_id": "ChIJpczDRFnLQw0R6BAL4_awIew", "plus_code": {"compound_code": "HGW3+GJ Algete, Spain", "global_code": "8CGRHGW3+GJ"}, "rating": 2.3, "reference": "ChIJpczDRFnLQw0R6BAL4_awIew", "scope": "GOOGLE", "types": ["bank", "atm", "accounting", "finance", "point_of_interest", "establishment"], "user_ratings_total": 47, "vicinity": "Calle San Roque, 14, Algete"}, {"business_status": "OPERATIONAL", "geometry": {"location": {"lat": 40.6376966, "lng": -3.51763}, "viewport": {"northeast": {"lat": 40.6389842802915, "lng": -3.516318769708499}, "southwest": {"lat": 40.6362863197085, "lng": -3.519016730291502}}}, "icon": "https://maps.gstatic.com/mapfiles/place_api/icons/v1/png_71/generic_business-71.png", "icon_background_color": "#7B9EB0", "icon_mask_base_uri": "https://maps.gstatic.com/mapfiles/place_api/icons/v2/generic_pinlet", "international_phone_number": "+34 918 23 54 00", "name": "Algeco Construcciones Modulares", "opening_hours": {"open_now": false}, "photos": [{"height": 2448, "html_attributions": ["<a href=\"https://maps.google.com/maps/contrib/112418867413302071946\">ramon aragon rodriguez</a>"], "photo_reference": "AWn5SU7D3cLYtIgIMcp25uGUSeeWA2hgAdKwozxVBKR3rElXfP1vgAh1t-hhC1QhEsSEeCDdaDHRoFtTH7-d6t27uC6H_H3hHB4EkH0aL_G0ZPOZ0JWpEYRCmMJHPulsXTNtoa8YMxK01KHvQAOPmx58dDeAlaGV5SzAa62mVNYFd66mxdJmiVDrE_cAyu6TfVDdjGNX-1sgkQGHBrWYk5Jo4zjMLyLa0iUrklg6jj1RUyhexW-vATk7rFnpNt2Hq1W4fP991Yc4FsynmtabuQr2hFTauGAbr_TefQEz4S5Eg95ufX9hmyogHb55VeNvjNVrP-6SwhagaJpJd-nU_BFT6yDO0QbgbQUeoQFLSb3jh6M2H9bdMYrbp34tV1yY6PwDadEWjsl-TmC82JltGQd_IE1jqJCqAa8kyQLItBLmX0TRmPdm4zXi6IDQetjM0dWQeB0DEFdgMNIWlnMwC0SAAQEpB40kNbV_qEI75f0kA2Dr0Kuoc7X146dqq0tX-qN2ALstA__Pn1ntplaURFE6nnhb6BzaPZYteVF_WDn1nQuiTOd9Fn4FbO1F0eK8V1gHHfRwp2Htrz_5UINUpWbsel3myXciBGCRacFSrNBku4u82usfY0oloCKe6QaVTJiJQMop2w", "width": 3264}], "place_id": "ChIJE5hB0GvMQw0RqF9q_zv0TuU", "plus_code": {"compound_code": "JFQJ+3W Fuente el Saz de Jarama, Spain", "global_code": "8CGRJFQJ+3W"}, "rating": 4.2, "reference": "ChIJE5hB0GvMQw0RqF9q_zv0TuU", "scope": "GOOGLE", "types": ["point_of_interest", "establishment"], "user_ratings_total": 54, "vicinity": "Camino de las Bodegas, 4, Fuente el Saz de Jarama"}, {"business_status": "OPERATIONAL", "geometry": {"location": {"lat": 40.5976383, "lng": -3.502911699999999}, "viewport": {"northeast": {"lat": 40.59895933029151, "lng": -3.501414069708498}, "southwest": {"lat": 40.59626136970851, "lng": -3.504112030291502}}}, "icon": "https://maps.gstatic.com/mapfiles/place_api/icons/v1/png_71/civic_building-71.png", "icon_background_color": "#7B9EB0", "icon_mask_base_uri": "https://maps.gstatic.com/mapfiles/place_api/icons/v2/civic-bldg_pinlet", "international_phone_number": "+34 916 28 22 86", "name": "Algete Health Center", "opening_hours": {"open_now": false}, "photos": [{"height": 3036, "html_attributions": ["<a href=\"https://maps.google.com/maps/contrib/112586997308813566937\">Paolo Álvarez</a>"], "photo_reference": "AWn5SU6lx6n5T1nugH03I5B9XwVq5dS7eBGf3DDT5P8HvtqevQM9ziKp2ao1BrXuO4qWZ85R-NCVHWq1ULUC830d3cqOvxmGrvbaOlfZVhKUfceURPOQEjYeFxjOgPfVN1WAeMUq5XHiVek4Z1Gy_ADYUBP6ATsbEIxTcwQ68D8mvMj4_S3Vqit_sBKOQE7CI9xa_wCt0zhIhyhcwzVno8fKW4fErQGOkiRBaHXLufrRuUpRq1EUzv7BrjMpaS54ShUm8fUOzFJD2h5O396TDum8ElB3XMqnHM6PG98EZP-0oB8tQg-LbOxANrkvOeR1TSR2kZ_KCFJW0vWrIiZ-XuO-6dZr1F3Sonr8hf-xLfI8HkNXL3-WxpvuQyW_gV9sNLV3I4kibpUqxiz1-N44YaPyZ-PAsPchf2YZPtiRfLPMjKfpF7TWfm3clpZquH02l5URU8ob_0EonF5n73cRNcBu_5DcmIkYX-bz-cW-r6fPqFkLan6T_y_WcqT9k6rrH8_FF2HxYQHiHTB6JoZAwIpHwgQCCsy2C51Fgk7NuWvA8ra8EiwavXa9coPO7_eQeZp0y18kAf3Td3i86qcZ6ApksyTYmSqSkN8xD6cF0lPBdQ5qRc7evWziOkeeKminM-fqaeKTog", "width": 4048}], "place_id": "ChIJIR8BPqHMQw0RRjc5cDgrCSw", "plus_code": {"compound_code": "HFXW+3R Algete, Spain", "global_code": "8CGRHFXW+3R"}, "rating": 2.1, "reference": "ChIJIR8BPqHMQw0RRjc5cDgrCSw", "scope": "GOOGLE", "types": ["health", "point_of_interest", "establishment"], "user_ratings_total": 195, "vicinity": "Calle de Valdeamor, 1, Algete"}, {"business_status": "OPERATIONAL", "geometry": {"location": {"lat": 40.6000244, "lng": -3.499456}, "viewport": {"northeast": {"lat": 40.6013894302915, "lng": -3.498072769708498}, "southwest": {"lat": 40.5986914697085, "lng": -3.500770730291502}}}, "icon": "https://maps.gstatic.com/mapfiles/place_api/icons/v1/png_71/generic_business-71.png", "icon_background_color": "#7B9EB0", "icon_mask_base_uri": "https://maps.gstatic.com/mapfiles/place_api/icons/v2/generic_pinlet", "international_phone_number": "+34 916 29 25 11", "name": "GESA Asesoría Fiscal en la Zona Norte de Madrid (Algete)", "opening_hours": {"open_now": false}, "place_id": "ChIJY-qtm1_LQw0R8Mzgk7XF9_A", "plus_code": {"compound_code": "JG22+26 Algete, Spain", "global_code": "8CGRJG22+26"}, "rating": 1, "reference": "ChIJY-qtm1_LQw0R8Mzgk7XF9_A", "scope": "GOOGLE", "types": ["accounting", "finance", "point_of_interest", "establishment"], "user_ratings_total": 1, "vicinity": "Calle Limón Verde, 49, Algete"}, {"business_status": "OPERATIONAL", "geometry": {"location": {"lat": 40.6269195, "lng": -3.4721832}, "viewport": {"northeast": {"lat": 40.6281078302915, "lng": -3.471322969708498}, "southwest": {"lat": 40.6254098697085, "lng": -3.474020930291501}}}, "icon": "https://maps.gstatic.com/mapfiles/place_api/icons/v1/png_71/school-71.png", "icon_background_color": "#7B9EB0", "icon_mask_base_uri": "https://maps.gstatic.com/mapfiles/place_api/icons/v2/school_pinlet", "international_phone_number": "+34 916 20 51 98", "name": "Colegio Árula", "opening_hours": {"open_now": false}, "photos": [{"height": 1058, "html_attributions": ["<a href=\"https://maps.google.com/maps/contrib/112551556988924520792\">Colegio Árula</a>"], "photo_reference": "AWn5SU6jOHzZjyPcQ_MRW6cm00JrT8XwepuHR6f8VaSSTgM47id8HmQXNSUtTuuJlLDXGmNcqqk_DoqdKU4YYgFUpkSlZ7T4y8T_JMgDgzimPiFRNfkv-9DEpE7ZVwfYp8hpeyipRTmtnrp4B35LPq5d91fWxuOpDexRrj8J5hiTwrkWNHjiDVJCeZgI_BSKSrP2EE1VqH9uafcPx0fSlh6lOi6SCKAmgWkzFRyEGhMby4BHwWnu4OzNMLcNSTDjTG01HH9JhJq3yBrZtHBjr8gxX_Tqp1HQTEFYZC3CqwjdNe8Yg0C1wp9Jkn_LEcyrhWlElU7cmaxL", "width": 2973}], "place_id": "ChIJE9Ilm07KQw0R0GiT3ixoJHw", "plus_code": {"compound_code": "JGGH+Q4 Alalpardo, Spain", "global_code": "8CGRJGGH+Q4"}, "reference": "ChIJE9Ilm07KQw0R0GiT3ixoJHw", "scope": "GOOGLE", "types": ["school", "point_of_interest", "establishment"], "vicinity": "Calle de Alcalá, 23, Alalpardo"}, {"business_status": "OPERATIONAL", "geometry": {"location": {"lat": 40.62322109999999, "lng": -3.5876929}, "viewport": {"northeast": {"lat": 40.6246687302915, "lng": -3.586277819708497}, "southwest": {"lat": 40.6219707697085, "lng": -3.588975780291502}}}, "icon": "https://maps.gstatic.com/mapfiles/place_api/icons/v1/png_71/school-71.png", "icon_background_color": "#7B9EB0", "icon_mask_base_uri": "https://maps.gstatic.com/mapfiles/place_api/icons/v2/school_pinlet", "international_phone_number": "+34 916 59 63 03", "name": "Colegio Internacional SEK-Ciudalcampo", "opening_hours": {"open_now": false}, "photos": [{"height": 1536, "html_attributions": ["<a href=\"https://maps.google.com/maps/contrib/100497509775748619094\">Colegio Internacional SEK-Ciudalcampo</a>"], "photo_reference": "AWn5SU5kRwzar1yrgitdtqvx18bxaKSkjFzXTMmsiBfPoBgwj7HiuZEnYkieOArD0cCdGLxwQqNxea61IYb4h8jd--ctIUYO2gqdd1pqmXM0oSfWfuwDDuS7stByJr3q2zfRuucMbyJfuSwZ67pnm82JTGGVoj0Xjx_jpYtWeE1q4kKHyZBcmfT-5ngMVPETDWzHmJM00ynYObUhi-Gw4XdvzFFwVxi3XK-HjNari2iLSZw_nHa-mGhNugjNk9ZP-_RAcHU3KXQQBV7W-Pohn7TlAkWplFmh5VrD9S5FVZoGdG0zXg9tg2lBalZZYD0DMU41_UvZCy4B6Qw", "width": 2048}], "place_id": "ChIJTYM7NHzSQw0RceoGBXztQkI", "plus_code": {"compound_code": "JCF6+7W Santo Domingo, Spain", "global_code": "8CGRJCF6+7W"}, "reference": "ChIJTYM7NHzSQw0RceoGBXztQkI", "scope": "GOOGLE", "types": ["secondary_school", "primary_school", "school", "point_of_interest", "establishment"], "vicinity": "Urbanización, Paseo de las Perdices, 2"}, {"business_status": "OPERATIONAL", "geometry": {"location": {"lat": 40.58800919999999, "lng": -3.550925799999999}, "viewport": {"northeast": {"lat": 40.58926973029149, "lng": -3.549678769708498}, "southwest": {"lat": 40.58657176970849, "lng": -3.552376730291501}}}, "icon": "https://maps.gstatic.com/mapfiles/place_api/icons/v1/png_71/generic_business-71.png", "icon_background_color": "#7B9EB0", "icon_mask_base_uri": "https://maps.gstatic.com/mapfiles/place_api/icons/v2/generic_pinlet", "international_phone_number": "+34 916 29 03 16", "name": "El Tesoro materiales de construcción y saneamientos SL", "opening_hours": {"open_now": false}, "photos": [{"height": 587, "html_attributions": ["<a href=\"https://maps.google.com/maps/contrib/106531900320933615732\">El Tesoro materiales de construcción y saneamientos SL</a>"], "photo_reference": "AWn5SU6uRPF8q_JwHY7n9jcefMcEWTMTw4D99Zzq5RWJWqpphPVz9pa4DH9YswWBUIBQ7djMWytukQ3qnYCj8CDO3L6cCvfkLwmAh_C0Df0s-pHswkJQSgl8wZ3Oo3wdZfjX1-0pu27ycOx3L8c-lE591hVx9BwL2-B93w8OgQ0MEbJ9pNIneAyF1hS5JWYSJ9ICveu3Re13bSO2cIO7LrBdUGoQt8agxxBf8180I_PnMF3rkA2zd1nLpVhm67rbnQof9vEMYJUdBmKaYVUcPi7LcOMhV3Qpe1xp3J84555kyJpqoA-MgCRYqb3kXk9omfMRbT5N7jsV16Q", "width": 571}], "place_id": "ChIJh3lJu1nLQw0RT5eRta6TQDY", "plus_code": {"compound_code": "HCQX+6J Algete, Spain", "global_code": "8CGRHCQX+6J"}, "rating": 4.8, "reference": "ChIJh3lJu1nLQw0RT5eRta6TQDY", "scope": "GOOGLE", "types": ["plumber", "hardware_store", "home_goods_store", "store", "general_contractor", "point_of_interest", "establishment"], "user_ratings_total": 241, "vicinity": "Avenida Nicasio Martin, 6, Algete"}, {"business_status": "OPERATIONAL", "geometry": {"location": {"lat": 40.58849339999999, "lng": -3.5454932}, "viewport": {"northeast": {"lat": 40.58969743029149, "lng": -3.544063219708498}, "southwest": {"lat": 40.5869994697085, "lng": -3.546761180291501}}}, "icon": "https://maps.gstatic.com/mapfiles/place_api/icons/v1/png_71/generic_business-71.png", "icon_background_color": "#7B9EB0", "icon_mask_base_uri": "https://maps.gstatic.com/mapfiles/place_api/icons/v2/generic_pinlet", "international_phone_number": "+34 916 28 14 28", "name": "BARIN Aspiración y Filtración Industrial", "opening_hours": {"open_now": false}, "photos": [{"height": 450, "html_attributions": ["<a href=\"https://maps.google.com/maps/contrib/110515226858673468577\">BARIN Aspiración y Filtración Industrial</a>"], "photo_reference": "AWn5SU4o7KSiQOS-r7jgksNrHH5fJXnp3SHGeVMDIB5EZbZX9VfN0z7aBHeB-8fHI7PKaCF5tE-U4-hwqwLURAGLeuqg86mvq4VhOs6_UftdtwAWREaVIdpXWfKJmKOY6tloCI2Q22Cch3lQ0NOt_HbVOoNQl5nGS_nxLDtYun9UbenMJqCt9Vz8RSnVMqoOg8stbRBVfuLacr2vnzy1hoUp5lRkPmbK0b27TNmRFt1W0N13zPS7Pqbluu2lAT3TqQW3DWcB0xyXysO-njyC2_F1Pr53Wfdzp1bj9HyuKPHpf6wSrW7MwP9xh0XqzAEw2RXE532kFA3Mw8M", "width": 450}], "place_id": "ChIJK9l3uijNQw0RkvJdC70ag_c", "plus_code": {"compound_code": "HFQ3+9R Algete, Spain", "global_code": "8CGRHFQ3+9R"}, "rating": 5, "reference": "ChIJK9l3uijNQw0RkvJdC70ag_c", "scope": "GOOGLE", "types": ["point_of_interest", "establishment"], "user_ratings_total": 2, "vicinity": "Calle Cañamarejo, 1, Algete"}, {"business_status": "OPERATIONAL", "geometry": {"location": {"lat": 40.58879509999999, "lng": -3.542122}, "viewport": {"northeast": {"lat": 40.5901230302915, "lng": -3.540754019708498}, "southwest": {"lat": 40.5874250697085, "lng": -3.543451980291502}}}, "icon": "https://maps.gstatic.com/mapfiles/place_api/icons/v1/png_71/shopping-71.png", "icon_background_color": "#4B96F3", "icon_mask_base_uri": "https://maps.gstatic.com/mapfiles/place_api/icons/v2/shopping_pinlet", "international_phone_number": "+34 913 35 19 00", "name": "BMW BYmyCAR Madrid - Algete", "opening_hours": {"open_now": false}, "photos": [{"height": 894, "html_attributions": ["<a href=\"https://maps.google.com/maps/contrib/113397039444032694961\">BMW BYmyCAR Madrid - Algete</a>"], "photo_reference": "AWn5SU4QKzwk896NCnJid4QvNXB9RFYj3qyIuAs-mPWIb3WSXkV0v2Ulo8CktIgaGOwE2xk3UejHf6jgkeH9kBzXP4fNTCeVviUqx1VX6lY6eVjAYb7SiGvByCuuwQ0B_sgEgir4BFHim94Z5VquUgbd9uKzTWnwEcTw6s5Jl-fRVE3qTky38WhmI-dWJO8zmkahgllb8ZwWlVXel4JF3YuQHa85MDSXJVMySgpySoGx5nv-13btCzCVkC-_DeJ9EYySqrkiXjrrT4VxaPZA6ADzjlTa7sHDvZ06REYwQ6hQlveB3xkaMfzMpj6efZYVYDCdhRtL0lXrURs", "width": 1589}], "place_id": "ChIJxfRHjYxJQg0ROXg7ksOpM7c", "plus_code": {"compound_code": "HFQ5+G5 Prado Norte, Spain", "global_code": "8CGRHFQ5+G5"}, "rating": 4.1, "reference": "ChIJxfRHjYxJQg0ROXg7ksOpM7c", "scope": "GOOGLE", "types": ["car_dealer", "car_repair", "store", "point_of_interest", "establishment"], "user_ratings_total": 1205, "vicinity": "Pol. Industrial Río de Janeiro, C/ de la Tejera, 2, Algete"}, {"business_status": "OPERATIONAL", "geometry": {"location": {"lat": 40.6054044, "lng": -3.5342689}, "viewport": {"northeast": {"lat": 40.6067157302915, "lng": -3.532935919708498}, "southwest": {"lat": 40.60401776970851, "lng": -3.535633880291502}}}, "icon": "https://maps.gstatic.com/mapfiles/place_api/icons/v1/png_71/generic_business-71.png", "icon_background_color": "#7B9EB0", "icon_mask_base_uri": "https://maps.gstatic.com/mapfiles/place_api/icons/v2/generic_pinlet", "international_phone_number": "+34 699 81 25 38", "name": "Centro Canino Prado Norte", "opening_hours": {"open_now": false}, "place_id": "ChIJj9D4lubMQw0R_RcCW5AzLQk", "plus_code": {"compound_code": "JF48+57 Algete, Spain", "global_code": "8CGRJF48+57"}, "rating": 4.6, "reference": "ChIJj9D4lubMQw0R_RcCW5AzLQk", "scope": "GOOGLE", "types": ["point_of_interest", "establishment"], "user_ratings_total": 24, "vicinity": "Camino del Espinar, Algete"}, {"business_status": "OPERATIONAL", "geometry": {"location": {"lat": 40.607116, "lng": -3.578874}, "viewport": {"northeast": {"lat": 40.6084644302915, "lng": -3.577552969708499}, "southwest": {"lat": 40.6057664697085, "lng": -3.580250930291502}}}, "icon": "https://maps.gstatic.com/mapfiles/place_api/icons/v1/png_71/generic_business-71.png", "icon_background_color": "#7B9EB0", "icon_mask_base_uri": "https://maps.gstatic.com/mapfiles/place_api/icons/v2/generic_pinlet", "international_phone_number": "+34 916 58 90 24", "name": "La Quinta de Jarama", "opening_hours": {"open_now": false}, "photos": [{"height": 2731, "html_attributions": ["<a href=\"https://maps.google.com/maps/contrib/104296871204241350368\">La Quinta de Jarama</a>"], "photo_reference": "AWn5SU6Yn_JKqsHE7Bhsj6y6lYxpzhckBfKNVkttsLAY3yhehz1h39Z_9o9zDpUCF5XZZLMeWSsGQwGKMWwQm4aPV2KFIayoMfKA5VArMoxkNuXip_FLq-TsWxqgQ7K4aIAOTACWrX2fLw8t5yGPn_xqJvbrvoM3_BNOfJFwaUK95IwxiZT1LPieey2ce62_8ktdGE28Q5LiUQWV6kr_j1IsKR1jHBDkJY1zodhOKD8p89KYbnpsy0UNCK1yH7ZeBcbOhfaZ562mzGOzojdxFeUjQx2L5N63F4R1FyNQ2BVyBVslNNzIPK8O_b_XhzuFZdtLAB8FkAU622w", "width": 2048}], "place_id": "ChIJeQSxtGPNQw0RmEtPSE4QBCk", "plus_code": {"compound_code": "JC4C+RF Madrid, Spain", "global_code": "8CGRJC4C+RF"}, "rating": 4.6, "reference": "ChIJeQSxtGPNQw0RmEtPSE4QBCk", "scope": "GOOGLE", "types": ["point_of_interest", "establishment"], "user_ratings_total": 1744, "vicinity": "A1 CARRETERA DE BURGOS, KM.26 Ctra. de Burgos, km.26, Madrid"}, {"business_status": "OPERATIONAL", "geometry": {"location": {"lat": 40.6353687, "lng": -3.5128889}, "viewport": {"northeast": {"lat": 40.6366992802915, "lng": -3.511533769708498}, "southwest": {"lat": 40.6340013197085, "lng": -3.514231730291502}}}, "icon": "https://maps.gstatic.com/mapfiles/place_api/icons/v1/png_71/pharmacy-71.png", "icon_background_color": "#F88181", "icon_mask_base_uri": "https://maps.gstatic.com/mapfiles/place_api/icons/v2/pharmacy_pinlet", "international_phone_number": "+34 916 20 02 62", "name": "Farmacia Bellido Alonso", "opening_hours": {"open_now": false}, "photos": [{"height": 422, "html_attributions": ["<a href=\"https://maps.google.com/maps/contrib/113475022938605334760\">Farmacia Bellido Alonso</a>"], "photo_reference": "AWn5SU7GIsd6U0BtivYg79RwKg7YPn7KR4eAb-i6VTXCAoTnIGFCclCB6I32mnobu5ZdXYBayfjIXvgx0gg9JavRhuQAyDe3x5uJ_SqczIreeohs88W_FKlBBZf_8-EtxaU7nwKMYOb5ER40KbnZlRb5WAJYfomjG-yGTW2bcR1NOC-MhOra4m4V-vRF62U8ng4sAU7bKxGJglPPA4UEqmY2H-6SnPZufsPrxbDmHuGqFWux_823pBrnhqAznsDFhSeOQXL2IAdJjGDNMRPxA9pWNxbjCq7cj9pPmLZr2CnykrWqS4aPfcqPvEsgyf5yNmzhEJT01P9MGqE", "width": 750}], "place_id": "ChIJ0QnVQ27MQw0RLzvT-okcfbU", "plus_code": {"compound_code": "JFPP+4R Fuente el Saz de Jarama, Spain", "global_code": "8CGRJFPP+4R"}, "rating": 4.5, "reference": "ChIJ0QnVQ27MQw0RLzvT-okcfbU", "scope": "GOOGLE", "types": ["pharmacy", "store", "health", "point_of_interest", "establishment"], "user_ratings_total": 116, "vicinity": "Calle Martina García, 22, Fuente el Saz de Jarama"}, {"business_status": "OPERATIONAL", "geometry": {"location": {"lat": 40.6301136, "lng": -3.4730502}, "viewport": {"northeast": {"lat": 40.63147523029151, "lng": -3.471657369708498}, "southwest": {"lat": 40.62877726970851, "lng": -3.474355330291502}}}, "icon": "https://maps.gstatic.com/mapfiles/place_api/icons/v1/png_71/generic_business-71.png", "icon_background_color": "#7B9EB0", "icon_mask_base_uri": "https://maps.gstatic.com/mapfiles/place_api/icons/v2/generic_pinlet", "international_phone_number": "+34 916 20 57 63", "name": "Clinica Veterinaria Alalpardo", "opening_hours": {"open_now": false}, "photos": [{"height": 498, "html_attributions": ["<a href=\"https://maps.google.com/maps/contrib/113935528482512660376\">Clinica Veterinaria Alalpardo</a>"], "photo_reference": "AWn5SU5nN6LaZt6Qk1gk5XcxtDNhl5Vg1SdS56alAfImE3I3tajIy6WgoQ2r0bzB3S0mx5SCXvSLDeX4qgbjWrFwkQxM64qiWMn-XmlJnFcIblsHFji0W9p3DwWN6Vqpcf239a7tk-iIPCFpOmGt8jbPhw72ER63yFpIwhkG-XZoHpgNTeDHtMQ0trDbkAYRwcoVu0U3QgGBtLRdwPwDJDJklOvVi83diGTnwyyn5cCQxlXBcZJNXapqYHGYHaBAwmybtU0B6HfyF7K8-1UErtI3kFrRwUrPFhkEY-WexX_cag8HDapHk58IRgE9mmihuvBtnAH4Yci1jG4", "width": 800}], "place_id": "ChIJBdUUTqTLQw0RWwTRZA1ut3Y", "plus_code": {"compound_code": "JGJG+2Q Alalpardo, Spain", "global_code": "8CGRJGJG+2Q"}, "rating": 4.8, "reference": "ChIJBdUUTqTLQw0RWwTRZA1ut3Y", "scope": "GOOGLE", "types": ["veterinary_care", "point_of_interest", "establishment"], "user_ratings_total": 184, "vicinity": "Calle de Carlos Martín Álvarez, 37, Alalpardo"}, {"business_status": "OPERATIONAL", "geometry": {"location": {"lat": 40.6296617, "lng": -3.5155931}, "viewport": {"northeast": {"lat": 40.6310678302915, "lng": -3.514332169708498}, "southwest": {"lat": 40.6283698697085, "lng": -3.517030130291502}}}, "icon": "https://maps.gstatic.com/mapfiles/place_api/icons/v1/png_71/school-71.png", "icon_background_color": "#7B9EB0", "icon_mask_base_uri": "https://maps.gstatic.com/mapfiles/place_api/icons/v2/school_pinlet", "international_phone_number": "+34 916 20 08 25", "name": "Public school Martina García", "opening_hours": {"open_now": false}, "photos": [{"height": 2268, "html_attributions": ["<a href=\"https://maps.google.com/maps/contrib/113442560321346712786\">Pablo Romero López-Romero</a>"], "photo_reference": "AWn5SU5ivQwZT4WrX0plkC2bwtUr1yjvy7Nay-rlkIIFiYSBQKiIWT_hEh8GYJgm4dzPQ0P-zZ4HQ1nvpyUgnT74-qPpvDdUBOEZzMfujK90oqw8wL9c5b5huVcl6hsU2EhcVq1WXjysXy5vHqXptnI4hsun4N9NDjzD4ttBhBas4zpN4r5tkx13kRpe4n9MoItgKkfDoXAgmkqm7OYPWa62PYs6BpkUkZdOvQOmSedh1POrLEdhzMDyuPoBrAgYtr-4sDt6Nlabyrw2lN0Y8he17U7mOS3QGZD9rwcuEt4F2Wl8fBo8gxSAs5f7uuPasRVTqnt39EiXj23l3wayLPr7-hS39h674iTdZEODjD7viBzAzryTYX_Lxm1lgJjeVppuZcn_R6ZNt3cLWK2RakROervpHP1eZkke_cvw61phK9wh-gcLwZ1zqdNK1Iaqq_cKFn_f-5TdsbZuDDaUWYwexBhZV-sp2ji2e4AF3u_VdwxO2D4DI6G1JhjeFHxR_LlSsEpVvPya7D83YjJX9oe5alxUTuPr0ineTPhWFKKQYoXFLqjjQznVynrLBIDaAJfidH_frf0AmzUFP7v8Z_VSq10-PvVlaH-7PPXzoX8YHmwEZpgUg6rykWEUH7Nl3sxrUMEFSxGo", "width": 4032}], "place_id": "ChIJp7e8fWbMQw0ROEYmyNwqNic", "plus_code": {"compound_code": "JFHM+VQ Fuente el Saz de Jarama, Spain", "global_code": "8CGRJFHM+VQ"}, "reference": "ChIJp7e8fWbMQw0ROEYmyNwqNic", "scope": "GOOGLE", "types": ["school", "point_of_interest", "establishment"], "vicinity": "Avenida Julián Sánchez, 17, Fuente el Saz de Jarama"}, {"business_status": "OPERATIONAL", "geometry": {"location": {"lat": 40.6461099, "lng": -3.5110263}, "viewport": {"northeast": {"lat": 40.6474592302915, "lng": -3.509596319708498}, "southwest": {"lat": 40.6447612697085, "lng": -3.512294280291502}}}, "icon": "https://maps.gstatic.com/mapfiles/place_api/icons/v1/png_71/generic_business-71.png", "icon_background_color": "#7B9EB0", "icon_mask_base_uri": "https://maps.gstatic.com/mapfiles/place_api/icons/v2/generic_pinlet", "international_phone_number": "+34 915 60 82 54", "name": "Comercial Albe", "opening_hours": {"open_now": false}, "photos": [{"height": 2268, "html_attributions": ["<a href=\"https://maps.google.com/maps/contrib/102297760495097566769\">Borja Eugui</a>"], "photo_reference": "AWn5SU7YekiUlH1fVk6UdCixvoZYW_2IOnXj5aW5A50T6eoBGTGOTn0BkuQVgwy0dfa9PExfBbfKxeUDPigleDCmpWdza_uw1OJOEAtydL57bpRBMsX6fP3i2ntpNA4O4btuuJCuZdxohZKNLUCJGiPgv3Vu3WfT8g7uC1HoJahiH0xUCoi7J1Vanm9SnUR0tBLShtGVjEO4a-OEut1iyyr0bi9DyU033aSgrFpNHtNILKdCsiZWcz7QgeBO7zhCqbkPchmJ_X3dRvHTOhN7OIL-7s0UFk6F9FaUyVUagU5ckwaYB-GOdlpYVF3_uu1k4IoxlNkrgUJFqBoo8xJgZGUscPr0LpaqfxeH-_jnWbK35NjQwZXHRKljw6P1aets63_pr5OZsqLJoV9oY7umLJ9ut4xzCoKlEtSAUiu9xbYVuV2XRAGeYaQ6vlFBjiwudIr0Co77WTDakun4dQQ_QBqmBMTS6a8bKHQ6JksEoRpV3iuiWTsqTjJmClgedu4NN4OU291-wt6VJrCR6ivR3K3AN5BMcDQsYCTcQ7UCT45yVuaQ7npzuedxQ0G40S2rbp61Zzb3n9uslm0yFkUx1Oac6Whvs_6t1S4rHiMYQhwiU-Uyo3g38MCRphKqARSVSsgUbR_3XfMu", "width": 4032}], "place_id": "ChIJGf0GDr8nQg0Ru6vZ5Z41NpE", "plus_code": {"compound_code": "JFWQ+CH Fuente el Saz de Jarama, Spain", "global_code": "8CGRJFWQ+CH"}, "rating": 3.4, "reference": "ChIJGf0GDr8nQg0Ru6vZ5Z41NpE", "scope": "GOOGLE", "types": ["food", "point_of_interest", "establishment"], "user_ratings_total": 21, "vicinity": "Calle Torrelaguna, 79, Fuente el Saz de Jarama"}, {"business_status": "OPERATIONAL", "geometry": {"location": {"lat": 40.6335637, "lng": -3.514337099999999}, "viewport": {"northeast": {"lat": 40.63495218029149, "lng": -3.512984369708497}, "southwest": {"lat": 40.63225421970849, "lng": -3.515682330291501}}}, "icon": "https://maps.gstatic.com/mapfiles/place_api/icons/v1/png_71/school-71.png", "icon_background_color": "#7B9EB0", "icon_mask_base_uri": "https://maps.gstatic.com/mapfiles/place_api/icons/v2/school_pinlet", "international_phone_number": "+34 916 20 17 93", "name": "Biblioteca Pública Municipal de Fuente el Saz de Jarama.", "opening_hours": {"open_now": false}, "photos": [{"height": 4000, "html_attributions": ["<a href=\"https://maps.google.com/maps/contrib/107387282961839177400\">Pablo Trinidad</a>"], "photo_reference": "AWn5SU5iMATo_OnqRptDq9mU8V1b46LORZPqXRH_r9lrPqjPCu4aygQ7oeVWOGMr8I3GZo3Jy__sE9duuZcN8GSwr4x9FoJHN4W-WWS5-pE92--BUTr6m_lxiDZXz_Qqv8npySmK2g3PoJw81YncdFvlozp-bnoBRBFSB0BFYQYhJlliAzQekCQvpByc5K3tHbJaz29b9ch3mXU34tyjsA8MlJ0BUh0cuXyOYaPHK8fszbbtXVAjTqf9I2Iu5uMseKn9xmMXFQgPT9mrN-E_CbBcnrxoWgtLP5RsRX3FfENabPkGUOEITXrGixem_6Bk9nb3jvzy5tR1acI6ujJR8iYEVtEjDHTTl8DdDqkR6OjMNwd5PrD5zMSz5oZphqs2huyyAafOW981J4Ip8BgIS-RbAdxUfanKjCbWyy1VcK5zX9PKhpeCNSmPBf6ZhCgNCeBvMPcOTbV9mpIsXPKscR18nKCR3sEB4z-8vsh9tOAwzOixj_GKp8Kga4Yx6AJu37Jqpd0b313dVy1j-RvYkH5J782NJxdjy3TRpEEvpJOTcuGdB9MTnBGb5ZzQVv5Zyic72ml20Hftake-oPetXw23zPJGLZUmLbZRyeH4M2xp3zT6opdfyKJjf8_0rX9gqQhGJg3ZWQ", "width": 3000}], "place_id": "ChIJL5HQGF3MQw0R-YBcKBxPflU", "plus_code": {"compound_code": "JFMP+C7 Fuente el Saz de Jarama, Spain", "global_code": "8CGRJFMP+C7"}, "rating": 4.3, "reference": "ChIJL5HQGF3MQw0R-YBcKBxPflU", "scope": "GOOGLE", "types": ["library", "point_of_interest", "establishment"], "user_ratings_total": 28, "vicinity": "Avenida del Pilar, 3, Fuente el Saz de Jarama"}, {"business_status": "OPERATIONAL", "geometry": {"location": {"lat": 40.63868829999999, "lng": -3.5176726}, "viewport": {"northeast": {"lat": 40.6400257802915, "lng": -3.516264169708498}, "southwest": {"lat": 40.6373278197085, "lng": -3.518962130291502}}}, "icon": "https://maps.gstatic.com/mapfiles/place_api/icons/v1/png_71/generic_business-71.png", "icon_background_color": "#7B9EB0", "icon_mask_base_uri": "https://maps.gstatic.com/mapfiles/place_api/icons/v2/generic_pinlet", "international_phone_number": "+34 916 20 12 11", "name": "Cerrajeria Moreira Sl", "place_id": "ChIJtwHesGvMQw0Rcc_dBMQ8QLU", "plus_code": {"compound_code": "JFQJ+FW Fuente el Saz de Jarama, Spain", "global_code": "8CGRJFQJ+FW"}, "rating": 4, "reference": "ChIJtwHesGvMQw0Rcc_dBMQ8QLU", "scope": "GOOGLE", "types": ["locksmith", "point_of_interest", "establishment"], "user_ratings_total": 4, "vicinity": "Calle Pozo Lirón, 11, Fuente el Saz de Jarama"}, {"geometry": {"location": {"lat": 40.6326883, "lng": -3.5787384}, "viewport": {"northeast": {"lat": 40.64611342797096, "lng": -3.568057580716761}, "southwest": {"lat": 40.6198209660574, "lng": -3.588536646954024}}}, "icon": "https://maps.gstatic.com/mapfiles/place_api/icons/v1/png_71/geocode-71.png", "icon_background_color": "#7B9EB0", "icon_mask_base_uri": "https://maps.gstatic.com/mapfiles/place_api/icons/v2/generic_pinlet", "name": "Santo Domingo", "photos": [{"height": 4160, "html_attributions": ["<a href=\"https://maps.google.com/maps/contrib/105216141907803539482\">Antonio Barradas Perez</a>"], "photo_reference": "AWn5SU66tSkNmvKhkBfanGiIU0H6bLjsuqbz_lBKmMKo1e3Z3QH48ZBZmuKU1Djo0EOZMxEfCHlxB-DOhi05RVBmHm2UBol-6dWkSpl9rfnXv5-yYBliIb5tK8ca9yXsOWhXnyDPZFw3jqVo-_eKrCOJaRSh3u7427NllWRQMrhVk-q15eb_KNYbTjY08OL3Bn46eDoycd8c7MO9gnhuOF6iAwDfWWpfh_BUmw5hKOT9uDcY13rafHvtfKZujWTjcTlodWxKDV56i6Mv-1KncqBpbDqDD7l2u7F38q12vLcrxtjd63Ar1yrO1TGl0_-tQ8OVyCKCHJ1IejABqR1WA2Mjtw3E3JxWOLBM3UXgl3EsiEZ-bdmvbkzF6GmTomi0rKc9GXNUPdkMR0vBSU7ktWWwKCrkMDr78yV-iTVNSF8ZKCstDmz_Z4QOwAqSsEdQPUff9yQUWI6qMwpQNnzvuEdtkz_RNdHlO4QH2U-RfTIQkvJGYzSJ9HXz37YGDmR5Bc1Eh4Fqg-LAUpIEhD2RBXyIDCJqPdmwGjn_cgcrM_EMzGsuxoa1bFT_5C71Bposth_xZuHgKPWPZPZnxUzOTKCNVaaIg068MU7tR_BZL6KP_84nbKQYxd-vm6KFbjZcp-w6PXeivCJCNv56Didtnw_tWHDrZ4Q", "width": 3120}], "place_id": "ChIJK_VXI4nNQw0RVKuGUxjain8", "reference": "ChIJK_VXI4nNQw0RVKuGUxjain8", "scope": "GOOGLE", "types": ["locality", "political"], "vicinity": "Santo Domingo"}]