[{"business_status": "OPERATIONAL", "geometry": {"location": {"lat": 40.3817055, "lng": -4.1717598}, "viewport": {"northeast": {"lat": 40.38325218029149, "lng": -4.170205519708498}, "southwest": {"lat": 40.3805542197085, "lng": -4.172903480291502}}}, "icon": "https://maps.gstatic.com/mapfiles/place_api/icons/v1/png_71/gas_station-71.png", "icon_background_color": "#909CE1", "icon_mask_base_uri": "https://maps.gstatic.com/mapfiles/place_api/icons/v2/gas_pinlet", "international_phone_number": "+34 673 14 87 75", "name": "Repsol", "opening_hours": {"open_now": false}, "photos": [{"height": 1142, "html_attributions": ["<a href=\"https://maps.google.com/maps/contrib/113254616394978224855\">Estación de Servicio Repsol</a>"], "photo_reference": "AWn5SU74I5V5TAcDjb-V3tv9RbF_ySTIVlRCTbPdy2nYQAA0Ob9Kmm8k_yp7ou34O9sMh-fN6TU7_CiNaENwdexzeR9uqR_dRq84uPl7x_3-jy9caVTccFbBgySekGLw1rb8tTxEJOiTHhk9geVNS6h9oZe0_8EFls6vDQH0okuxqLVMJt81uiArsWlESakRXTt6VRyJR1pvPhQzn_EpsHlhx-v0nd1vFyOJ8Zz3_NR6e5BNLo20FcLB5dUu5Tu3Ie4tnHNKT2467h00Rwu55xNnkPM86RQoO4TymT9bUMXv-ypZSjMi0k4-QkCAmyiMOhu3io7lu-HbX1I", "width": 2030}], "place_id": "ChIJtfwTNke7QQ0RCnszNP3h-vU", "plus_code": {"compound_code": "9RJH+M7 Colmenar del Arroyo, Spain", "global_code": "8CGQ9RJH+M7"}, "rating": 4.1, "reference": "ChIJtfwTNke7QQ0RCnszNP3h-vU", "scope": "GOOGLE", "types": ["gas_station", "car_wash", "point_of_interest", "establishment"], "user_ratings_total": 352, "vicinity": "M-501, 34, 1 I, Colmenar del Arroyo"}, {"business_status": "OPERATIONAL", "geometry": {"location": {"lat": 40.38252809999999, "lng": -4.1701687}, "viewport": {"northeast": {"lat": 40.3837813802915, "lng": -4.168739719708498}, "southwest": {"lat": 40.3810834197085, "lng": -4.171437680291501}}}, "icon": "https://maps.gstatic.com/mapfiles/place_api/icons/v1/png_71/gas_station-71.png", "icon_background_color": "#909CE1", "icon_mask_base_uri": "https://maps.gstatic.com/mapfiles/place_api/icons/v2/gas_pinlet", "name": "Gasolinera repsol", "place_id": "ChIJ1VFDPAC7QQ0RaIkBR3lITwI", "plus_code": {"compound_code": "9RMH+2W Colmenar del Arroyo, Spain", "global_code": "8CGQ9RMH+2W"}, "rating": 4.5, "reference": "ChIJ1VFDPAC7QQ0RaIkBR3lITwI", "scope": "GOOGLE", "types": ["gas_station", "point_of_interest", "establishment"], "user_ratings_total": 27, "vicinity": "Calle Ángel Martín, Colmenar del Arroyo"}, {"business_status": "OPERATIONAL", "geometry": {"location": {"lat": 40.3832, "lng": -4.24088}, "viewport": {"northeast": {"lat": 40.38458448029149, "lng": -4.239516319708497}, "southwest": {"lat": 40.38188651970849, "lng": -4.242214280291502}}}, "icon": "https://maps.gstatic.com/mapfiles/place_api/icons/v1/png_71/gas_station-71.png", "icon_background_color": "#909CE1", "icon_mask_base_uri": "https://maps.gstatic.com/mapfiles/place_api/icons/v2/gas_pinlet", "international_phone_number": "+34 615 92 59 48", "name": "Galp petrol station Navas Del Rey", "opening_hours": {"open_now": false}, "photos": [{"height": 1080, "html_attributions": ["<a href=\"https://maps.google.com/maps/contrib/113831074160326825249\">Galp</a>"], "photo_reference": "AWn5SU6uu71VZe7Hj2xNSFySZ2db1vZQPOEw-ruAUq8_WfH5GxRg3KhJaTrod99U9_gZp2c4Ppr_XVUTr8NFdJnLMIwIT0cuyIxQrjgFRA2j4i5E9yP9QYAJLpIca4rH0IHstR9oGlR6DjaHbbhvccWbdhlFqf9a_mt3PR_bxEdkp8zv8doCw5CM6KF6l2gglNwOAWsBdFM6wzCiLHAytJ3dvbM9kIDCqPECYPlFFXJqI72SBxEJWg-5OZCCWYxKPSF2XCMZ_daRn8rPdQhzmJpSZZXcmKaVwMy0TY1BYOAOpSiAmAAl_jE4be7kmSMf6i5_luRPPTK3MeA", "width": 1920}], "place_id": "ChIJX25UdA-wQQ0RWca7Hva0g04", "plus_code": {"compound_code": "9QM5+7J Navas del Rey, Spain", "global_code": "8CGQ9QM5+7J"}, "rating": 4, "reference": "ChIJX25UdA-wQQ0RWca7Hva0g04", "scope": "GOOGLE", "types": ["gas_station", "car_wash", "cafe", "food", "point_of_interest", "establishment"], "user_ratings_total": 196, "vicinity": "M-501, Pk 40, Navas del Rey"}, {"business_status": "OPERATIONAL", "geometry": {"location": {"lat": 40.3834125, "lng": -4.241577700000001}, "viewport": {"northeast": {"lat": 40.38475983029149, "lng": -4.240222369708498}, "southwest": {"lat": 40.38206186970849, "lng": -4.242920330291502}}}, "icon": "https://maps.gstatic.com/mapfiles/place_api/icons/v1/png_71/gas_station-71.png", "icon_background_color": "#909CE1", "icon_mask_base_uri": "https://maps.gstatic.com/mapfiles/place_api/icons/v2/gas_pinlet", "international_phone_number": "+34 910 60 07 96", "name": "Plenergy Navas del Rey I", "opening_hours": {"open_now": true}, "photos": [{"height": 1331, "html_attributions": ["<a href=\"https://maps.google.com/maps/contrib/104727865007506215286\">Plenergy Navas del Rey I</a>"], "photo_reference": "AWn5SU4uOEaZmrv5UJDqCdK2EqgDygB59MZg-7SR47msVC6o6WHK2gjjki7s8u2FpL1AJ30KIdmdl7ElbrrBl4iaa8dnRst9P4190P_atMXnj0nrcJdjDXVIm_8InPyq3CrbBXl_fDsYSCJEvOoIy-DUzIBwtHCz7XBdJEXmg6-O1JvqHtOxsxbVefKwKSEDXdAEDgkrmH7REJxPSeYgZGNlo_PzFh23SE8ef-MshVHGsp9Y3oPBVaOhPvsIyVnbv-mUxY_eGm1uMEm4AQEFsatV5Tdn0CdxCqI8q1PduPgyqEgzKufd9hR803VlCkVsYuZbjgVYqfFjr4A", "width": 1600}], "place_id": "ChIJtTuCk2-xQQ0RDdUWF9UloH8", "plus_code": {"compound_code": "9QM5+99 Navas del Rey, Spain", "global_code": "8CGQ9QM5+99"}, "rating": 4.8, "reference": "ChIJtTuCk2-xQQ0RDdUWF9UloH8", "scope": "GOOGLE", "types": ["gas_station", "point_of_interest", "establishment"], "user_ratings_total": 390, "vicinity": "Vía de Sandro Pertini, 6, Navas del Rey"}]