[{"geometry": {"location": {"lat": 40.7270997, "lng": -3.8648671}, "viewport": {"northeast": {"lat": 40.74303180121051, "lng": -3.848700242246465}, "southwest": {"lat": 40.72200316671378, "lng": -3.882124019854281}}}, "icon": "https://maps.gstatic.com/mapfiles/place_api/icons/v1/png_71/geocode-71.png", "icon_background_color": "#7B9EB0", "icon_mask_base_uri": "https://maps.gstatic.com/mapfiles/place_api/icons/v2/generic_pinlet", "name": "Manzanares el Real", "photos": [{"height": 1480, "html_attributions": ["<a href=\"https://maps.google.com/maps/contrib/111084947159495281267\">Jaime D. Triviño</a>"], "photo_reference": "AWn5SU78sRYRf3J7-dpaS1UsyzqTzFWwJi4DSDVt97rAXbxNtVs-qc-hyj34zIaGcVxsE9zM_IarA7nqzoEMYtAGqZhRxCiVXQBQmvASSobNDHZFbHzifmULXsAz2J3qcczXTg44pOONaWxe2RyYuDmdiAAor_uq566zb0t_D2HTwNQxmHkpkkwTeI0NjHsKeHRxAwRuQXqdAlCQ4QOTeVlYehIksDfynkmDkzvve5Z5pHhxF85ajj5W3XHFPcfvKy5S8QsE5Kfp21fxROjWGTvlPRmrw_JJGtgXU0u3lRK22mE5c-HEJhpv_ZmIbVv-_1arrYstcieTgEer_Q9ZmWl79AX7mhwU0-Cdt2Jm2XTKwLT4jaRKK7wtIZRUY8x8gaHzKBpDnTtXVhXjLyjwzbQY87UOrQ92A5QRbjS3_dK01Fqd8sZAj1I_f_1x6IJkuRSjnN-otHtr1Odpc-3bBJjjbJwWlviiBslJpRNSfaQoSKGQeiMIqOx1WxqyjlTcrE_Zr7wH5yDcqpqN6GsJApVAWl7e74PweyRJrIOriAhXMgJJC-e9eCHR__5vY_Cct81kGjGM_FWxzbWOTySPk-jysgxuqmA5YvWYRXFJN3WF3tUN3-Y361Qpl6TmmKc-wdu2rZIZ2g", "width": 2141}], "place_id": "ChIJoZYHyCp7QQ0RVB5wFd9ZFSY", "reference": "ChIJoZYHyCp7QQ0RVB5wFd9ZFSY", "scope": "GOOGLE", "types": ["locality", "political"], "vicinity": "Manzanares el Real"}, {"business_status": "OPERATIONAL", "geometry": {"location": {"lat": 40.725555, "lng": -3.8747148}, "viewport": {"northeast": {"lat": 40.7267766302915, "lng": -3.873373969708497}, "southwest": {"lat": 40.7240786697085, "lng": -3.876071930291502}}}, "icon": "https://maps.gstatic.com/mapfiles/place_api/icons/v1/png_71/lodging-71.png", "icon_background_color": "#909CE1", "icon_mask_base_uri": "https://maps.gstatic.com/mapfiles/place_api/icons/v2/hotel_pinlet", "international_phone_number": "+34 658 97 31 16", "name": "Alojamiento Hotel Rural La Pedriza Original", "opening_hours": {"open_now": false}, "photos": [{"height": 4000, "html_attributions": ["<a href=\"https://maps.google.com/maps/contrib/100332244282389705816\">Alojamiento Hotel Rural La Pedriza Original</a>"], "photo_reference": "AWn5SU7W9C3hjF-nzMPZGZq-AMjr1fW47G5wAkZqQ9Vcpyn_mj_5aWxYsxFQ0kmBgUySWtlVexKATqw8P54ydaqUMlHvZBDHCgZvmah8m-b4r_wpf1c3IfWE-2hF-J_sM1mchTBULjLMAYfuKGlpjkEZlOBnI1o8CtSrAomsmjguWQX4639sUKKlCIvvCCMDpeHfSvavdbt_mrZxN4ILhZwYJb2fZMOx5ST4nuwH_2It2nRZny8UHNhALnSOKfzfg7C6aCx1jxVrpda8VvwpZrzzIxRHcPcaQvcn20D1cdYTQzHzAG0swXXAEeQQ52avTxZt1qY-jKsXgT0", "width": 6000}], "place_id": "ChIJA38NuNF6QQ0RHHgshh9NwEI", "plus_code": {"compound_code": "P4GG+64 Manzanares el Real, Spain", "global_code": "8CGRP4GG+64"}, "rating": 4.3, "reference": "ChIJA38NuNF6QQ0RHHgshh9NwEI", "scope": "GOOGLE", "types": ["lodging", "point_of_interest", "establishment"], "user_ratings_total": 279, "vicinity": "Calle del Urumea, 12, Manzanares el Real"}, {"business_status": "OPERATIONAL", "geometry": {"location": {"lat": 40.7267986, "lng": -3.865074299999999}, "viewport": {"northeast": {"lat": 40.7282806802915, "lng": -3.863644919708497}, "southwest": {"lat": 40.7255827197085, "lng": -3.866342880291502}}}, "icon": "https://maps.gstatic.com/mapfiles/place_api/icons/v1/png_71/civic_building-71.png", "icon_background_color": "#7B9EB0", "icon_mask_base_uri": "https://maps.gstatic.com/mapfiles/place_api/icons/v2/civic-bldg_pinlet", "international_phone_number": "+34 918 53 00 09", "name": "Manzanares El Real Town Hall", "opening_hours": {"open_now": false}, "photos": [{"height": 2600, "html_attributions": ["<a href=\"https://maps.google.com/maps/contrib/113066953929579245117\">gorKA Herrero Hernán</a>"], "photo_reference": "AWn5SU6ocAbSadzNH1v1eidli5FePvEKti0JYY_Mu5EnQvY5Cg5sp3upy_myi75xzepUk8tEK8DfZzq1evzVwTdFJjKJgqT-gAlP8-dkFDY0FO13eXDGXDziHGScTzLkmIA-mA9DHgbD6god2bKfQgEss6OBnOdqxbJ-NJV7IQq1t5evT-NIzfwf8CFOe3uAgN7nCB7145F4Dxqzi4xE_h1kg8VQbzIx9d83ArM1lgJQHcKvk-YkY9W2EUkzp0wY-eAvaofn9sMtHRs3WMOefdVF8oqO739U7x9bS3rh8VyJl4xyI3FLBJwOCJJQgFa5ypBaYKpOqC8d5NHmcmx2rbbEE5TWfDSps-FxRowOSzsmmwmTMta6xqmv0e8N0vt5UN_P03Ksbv776o7IZEF3g2_kp6ITBQNLEPpELbZarBpCOraiHt-pXjQM_x-hIH_V2HD4M_0r58wksKuNS1Fbg_zKKXWTEeWjRkvYqeVceB2XZ9Dx2hZ4GR26MFl6rCcNw0SDazj1GgjDUOrqipq_KZUMO687VdYhshKcRJjihhCU-Rke0rb9aM_nF70CE532yvUwx2Di8GEpXTHtYRXyXMSw3J9bHTeo8z3qTnthcLg3NOSth3F-T6csNpRYRDn6YMqkcVYiJg", "width": 4624}], "place_id": "ChIJgeg4-yl7QQ0RIPs49Sn0O48", "plus_code": {"compound_code": "P4GM+PX Manzanares el Real, Spain", "global_code": "8CGRP4GM+PX"}, "rating": 3.9, "reference": "ChIJgeg4-yl7QQ0RIPs49Sn0O48", "scope": "GOOGLE", "types": ["city_hall", "local_government_office", "point_of_interest", "establishment"], "user_ratings_total": 397, "vicinity": "Plaza del Pueblo, 1, Manzanares el Real"}, {"business_status": "OPERATIONAL", "geometry": {"location": {"lat": 40.7284429, "lng": -3.872243599999999}, "viewport": {"northeast": {"lat": 40.72983993029149, "lng": -3.870859569708497}, "southwest": {"lat": 40.72714196970849, "lng": -3.873557530291502}}}, "icon": "https://maps.gstatic.com/mapfiles/place_api/icons/v1/png_71/generic_business-71.png", "icon_background_color": "#7B9EB0", "icon_mask_base_uri": "https://maps.gstatic.com/mapfiles/place_api/icons/v2/generic_pinlet", "international_phone_number": "+34 630 67 83 67", "name": "FOTOGRAFO", "photos": [{"height": 693, "html_attributions": ["<a href=\"https://maps.google.com/maps/contrib/106709474011956347820\">BANCO FOTOGRAFICO</a>"], "photo_reference": "AWn5SU5csJhA-OWbcLgCnnaRPzAbMEXOneFa_zjEHGvrvbgEvzcTNtyGrn21zdGTrn9NuS3IJPLnM8hdC-VF_SMrIDlLE43SGWS_mCLECES3VdvcMrdum9hu42gpqbH36lPwaBoFjWazt8oh6bQb2Z0vKFoC-aFYq0TPN53IUbcReqPtoMcIG0PNJ8HIjboi6H9TCYwMF9P8hxBNXLbvbqro4WLWSaV4Ou1X69slEG-FrmQPexC__0iRtsg4eNaIsrgbBdg9_vud09GimwAeRniy4s7X5jbbQUPT44CLyL-qIkm5a4pdGcm_BMzwKScAThWlkdgVHgtlcms", "width": 1024}], "place_id": "ChIJl1xTuNN6QQ0RiWEgB87_rVU", "plus_code": {"compound_code": "P4HH+94 Manzanares el Real, Spain", "global_code": "8CGRP4HH+94"}, "reference": "ChIJl1xTuNN6QQ0RiWEgB87_rVU", "scope": "GOOGLE", "types": ["point_of_interest", "establishment"], "vicinity": "Avenida de la Pedriza, 17, Manzanares el Real"}, {"business_status": "OPERATIONAL", "geometry": {"location": {"lat": 40.7331981, "lng": -3.8668626}, "viewport": {"northeast": {"lat": 40.73454188029149, "lng": -3.865512819708498}, "southwest": {"lat": 40.7318439197085, "lng": -3.868210780291502}}}, "icon": "https://maps.gstatic.com/mapfiles/place_api/icons/v1/png_71/generic_business-71.png", "icon_background_color": "#7B9EB0", "icon_mask_base_uri": "https://maps.gstatic.com/mapfiles/place_api/icons/v2/generic_pinlet", "international_phone_number": "+34 653 14 13 49", "name": "Pulsión Fisioterapia y Osteopatía", "opening_hours": {"open_now": false}, "photos": [{"height": 2590, "html_attributions": ["<a href=\"https://maps.google.com/maps/contrib/116549155513085640082\">Pulsión Fisioterapia y Osteopatía</a>"], "photo_reference": "AWn5SU766Ozo3GB-CY5sxgSSs2OQhai50yVq6lGyKWeRcUPUnCunnAO3KRfkSUsG8Dw6H0mBmuZiJSfjf0IsEA-0nRT_Rid8FNz7b8r6e_HLnDbExW46fyKQMQZ3vNcKCIGMB_qGlwkZU0T0Ob6zRpxAWfWxcgznr346I_ygwRgr_JL66ZkHQ5XhS1dMA-Z3aoj0K_T9UKdPsImx2kzY_uEzLokWk-PtGGYCIDgLphIXPhnCy4vvBidpkywlJ6GUADPu0GFLRRWjobH1aPL55WLtHN8rVAbGl2f83AbivQA_WFTEH1NuLJ70DPht_FZX1i0RmeOJqtwtjDw", "width": 3238}], "place_id": "ChIJp7NjcM0nQg0RPiRcuDeY73g", "plus_code": {"compound_code": "P4MM+77 Manzanares el Real, Spain", "global_code": "8CGRP4MM+77"}, "rating": 5, "reference": "ChIJp7NjcM0nQg0RPiRcuDeY73g", "scope": "GOOGLE", "types": ["physiotherapist", "point_of_interest", "health", "establishment"], "user_ratings_total": 64, "vicinity": "Calle de Ribera, 3, Manzanares el Real"}, {"business_status": "OPERATIONAL", "geometry": {"location": {"lat": 40.725572, "lng": -3.875778900000001}, "viewport": {"northeast": {"lat": 40.7269126302915, "lng": -3.874375269708498}, "southwest": {"lat": 40.7242146697085, "lng": -3.877073230291503}}}, "icon": "https://maps.gstatic.com/mapfiles/place_api/icons/v1/png_71/school-71.png", "icon_background_color": "#7B9EB0", "icon_mask_base_uri": "https://maps.gstatic.com/mapfiles/place_api/icons/v2/school_pinlet", "international_phone_number": "+34 918 53 96 60", "name": "Escuela Infantil \"Los Abetos Infantil\" (0 - 3 años)", "opening_hours": {"open_now": false}, "photos": [{"height": 1512, "html_attributions": ["<a href=\"https://maps.google.com/maps/contrib/106589569018651605768\">Escuela Infantil &quot;Los Abetos Infantil&quot; (0 - 3 años)</a>"], "photo_reference": "AWn5SU48Hg3tIwIhAspLlga3cMqss6YIVFgbQHmP6UgSjD5Re1SnGkUlDxRsYlOnHLH9oP3nvbe_MxD3CffwkXyyzQsD34o4dp273piBzhVWaIwI8T8rZpdLTKWw7Wecw8m1wlwNryiCc5-LwDSskh8nKpWo9ZJ5AmLx-LyhLZGnSrvYV7SceVEGlf8vrXhTCjgZ5Z2IAFeN7GZ7xVRG868VkfXfNTNwFnm3vnpZptXPTuuU1YgwHR7-1QxP8ek-u2ryWb3AKKAjgypzwi2LxsyIjd8uxPuhiyRRdhpXsD3OJ04wjvdCbXGmyjkDcS7B8MZAR9R_DV-Mm4U", "width": 2016}], "place_id": "ChIJ6U3OIM56QQ0Rhzvs0qDVsjM", "plus_code": {"compound_code": "P4GF+6M Manzanares el Real, Spain", "global_code": "8CGRP4GF+6M"}, "rating": 3.7, "reference": "ChIJ6U3OIM56QQ0Rhzvs0qDVsjM", "scope": "GOOGLE", "types": ["point_of_interest", "school", "establishment"], "user_ratings_total": 3, "vicinity": "Calle del Miño, 6B, Manzanares el Real"}, {"business_status": "OPERATIONAL", "geometry": {"location": {"lat": 40.7275059, "lng": -3.8649193}, "viewport": {"northeast": {"lat": 40.7288631302915, "lng": -3.863585669708498}, "southwest": {"lat": 40.7261651697085, "lng": -3.866283630291502}}}, "icon": "https://maps.gstatic.com/mapfiles/place_api/icons/v1/png_71/shopping-71.png", "icon_background_color": "#4B96F3", "icon_mask_base_uri": "https://maps.gstatic.com/mapfiles/place_api/icons/v2/shopping_pinlet", "international_phone_number": "+34 918 53 92 57", "name": "Centro Óptico Manzanares", "opening_hours": {"open_now": false}, "photos": [{"height": 3456, "html_attributions": ["<a href=\"https://maps.google.com/maps/contrib/102484854907894700268\">Centro Óptico Manzanares</a>"], "photo_reference": "AWn5SU4OM6GYUml8BoAAA3InQHI1GLbTf0bCSXNvdPbpiubQzrBCXXkcs1BwD9wzOiQSLah8nHHSs2t-qzpDVLRJ0X3sjUChIFdHPjR8h-jleX3o1-Ab5-JFZ7CHGTwO0KGf-7Ux2_oIlWvrPRNBNC3T8ecXbPbI5pskpZ14n_uyjN9nKUFqZoXaQmXKZLIp54xjDITpU72S9CoH0Kpb6aLCRsjtU55NWYYEEpSbmh2VdY0SEzOntuDb5atv40j0Nvc7ueFJZv9Z1QAUeSihzvx_PR-Q4dtzlSPsh-lIAXm33atMwA5H3s1rOPwTz_qjpZefZW_ub1aMW9I", "width": 4608}], "place_id": "ChIJXYe3Aip7QQ0RNpcDegyFUgM", "plus_code": {"compound_code": "P4HP+22 Manzanares el Real, Spain", "global_code": "8CGRP4HP+22"}, "rating": 5, "reference": "ChIJXYe3Aip7QQ0RNpcDegyFUgM", "scope": "GOOGLE", "types": ["point_of_interest", "health", "store", "establishment"], "user_ratings_total": 35, "vicinity": "Calle de los Panaderos, 8, Manzanares el Real"}, {"business_status": "OPERATIONAL", "geometry": {"location": {"lat": 40.72771809999999, "lng": -3.863953799999999}, "viewport": {"northeast": {"lat": 40.7290623802915, "lng": -3.862614069708498}, "southwest": {"lat": 40.7263644197085, "lng": -3.865312030291502}}}, "icon": "https://maps.gstatic.com/mapfiles/place_api/icons/v1/png_71/civic_building-71.png", "icon_background_color": "#7B9EB0", "icon_mask_base_uri": "https://maps.gstatic.com/mapfiles/place_api/icons/v2/civic-bldg_pinlet", "international_phone_number": "+34 918 55 87 10", "name": "Oficina de Correos", "opening_hours": {"open_now": false}, "photos": [{"height": 900, "html_attributions": ["<a href=\"https://maps.google.com/maps/contrib/111276046766369487427\">Oficina de Correos</a>"], "photo_reference": "AWn5SU4MuSQ6JT0l0UpE7amOekbyC6MOO1JT7ScUVpBq2g7JkMKpZXinI0aDvSYbU_JT-IjWFS7JNhxJrTEghZ8wmASFzYLKDGy9PS22-ptxj-fss95Lj9BQJ-XR-AJN30B-LNClocyRKxEYPrvpJ6biLgKBZU4X-pCdn5nPAQH74dDO4HzqQBOqRjoZTTztDzYQNUSc3DrJMA8BW6yn54OWLqxZ_cH4Of6zCyU0zTL0jn5Clxifw9XpElCpcS33p-3jWjXihCo3yRCMYCG-VVpxwoZX4UesAqKV7_yrHaz1Yv1XoB5VmOwI7BJH2J9tj-PffnhKflT0ksQ", "width": 1600}], "place_id": "ChIJ2zuOGCp7QQ0Rrs6IyiNkzTc", "plus_code": {"compound_code": "P4HP+3C Manzanares el Real, Spain", "global_code": "8CGRP4HP+3C"}, "rating": 2.3, "reference": "ChIJ2zuOGCp7QQ0Rrs6IyiNkzTc", "scope": "GOOGLE", "types": ["post_office", "finance", "point_of_interest", "establishment"], "user_ratings_total": 105, "vicinity": "Calle de Morales, 12, Manzanares el Real"}, {"business_status": "OPERATIONAL", "geometry": {"location": {"lat": 40.7260354, "lng": -3.8647735}, "viewport": {"northeast": {"lat": 40.7273217802915, "lng": -3.863477969708498}, "southwest": {"lat": 40.7246238197085, "lng": -3.866175930291502}}}, "icon": "https://maps.gstatic.com/mapfiles/place_api/icons/v1/png_71/worship_general-71.png", "icon_background_color": "#7B9EB0", "icon_mask_base_uri": "https://maps.gstatic.com/mapfiles/place_api/icons/v2/worship_christian_pinlet", "international_phone_number": "+34 918 53 00 15", "name": "Parish Our Lady of the Snows", "photos": [{"height": 4032, "html_attributions": ["<a href=\"https://maps.google.com/maps/contrib/114962173515928165346\">Gerardo O.</a>"], "photo_reference": "AWn5SU7QFytT5mx8Jsl6OGWtSVzHv6Y5ZVD2PZIDwU84j8zcWKZDqlOTgxyKh5JI7vGkJe2suZO0kHTctXsxp-kvSTydzg7fGXbe4kDEpKS1KnVL_wUJ-cp8O45GQMfiBX_omavHEy1gFopv7RQwP8H6gcSNlHNTj_slVzZGzNLbggzkukgqjI9v12S2UxXtB-CdrsPEab_BSHe1puBH41nrjRDqXyxC2FqzzuMKvvUFz6H6116-M9uwS4Vp5Bn81RCPJeU0IZH5uuSP8CvJDWv2ZjT-BAtxFjTZRvTjL3RIkpt1Q-2f87BhXQiyiZ1KhMtWCUpfFtHUxzFQxw8m_48mBtKsRj33OVz11rhRT968S7HlumkOlAI1nnAs4_hzS_JH8Ohp5deUupxG56fhn8C3odg-4Tbuk_PjQDlyk1mbrE72ueHt0S0xwXCGo2_2mbdd48DrbuEJ-XEso0fBAYkJaua_mXKpvJjJLt9UC2QsLjZbs51dNaQXZ7riM9-8uBKS9dwvDL7crt1SGJIzXPnoUdDxgs_ythsYb1Qv1EUKxujnYlcXSrEBIDs62uxrIdwYVEhvwlUj7y9QG2PW_xOohml8if74h4VMQP6O4gNcHncvkX9FbI4fNdULeEtJ5CMN", "width": 3024}], "place_id": "ChIJM7Ol7Cl7QQ0R4Elf8_cq_NE", "plus_code": {"compound_code": "P4GP+C3 Manzanares el Real, Spain", "global_code": "8CGRP4GP+C3"}, "rating": 4.4, "reference": "ChIJM7Ol7Cl7QQ0R4Elf8_cq_NE", "scope": "GOOGLE", "types": ["church", "place_of_worship", "point_of_interest", "establishment"], "user_ratings_total": 116, "vicinity": "Calle del Cura, 1, Manzanares el Real"}, {"business_status": "OPERATIONAL", "geometry": {"location": {"lat": 40.7371783, "lng": -3.8777703}, "viewport": {"northeast": {"lat": 40.7384893802915, "lng": -3.876454969708498}, "southwest": {"lat": 40.7357914197085, "lng": -3.879152930291503}}}, "icon": "https://maps.gstatic.com/mapfiles/place_api/icons/v1/png_71/generic_business-71.png", "icon_background_color": "#7B9EB0", "icon_mask_base_uri": "https://maps.gstatic.com/mapfiles/place_api/icons/v2/generic_pinlet", "international_phone_number": "+34 918 55 84 70", "name": "Estudio de Arquitectura Juan Calvo Basarán", "photos": [{"height": 1000, "html_attributions": ["<a href=\"https://maps.google.com/maps/contrib/104739237060930490551\">Estudio de Arquitectura Juan Calvo Basarán</a>"], "photo_reference": "AWn5SU5nbx_RE0KFUeNlCRm4ZWQWuBh7iSyrefhS9bJ7XqrqKhIfjx25OHEdXghSRc6yVT6UvrqVK_YWqMFE25jzAaFY4fpei9mFF5jnmrAiw6k0lw6e04Dtxzoh_Q9oHsw5jY6VRJuVQ_jja4IMiZSYtrJ_qsf1HKjCLLl4no5qN5Z7UIxPIVG5LWOxfUxRfNDbYgJU1SJh3egnezR6InutMkWeLEjfq1iRXGrkRzLQqrg6lXKyRsT7see45BB7QjsMN8i2elxpph1zjbym9wOdom4LOHRgJN-0VP24H-G0Y9uTwX40svIaBzgUt4Gy309yX88uSzf5OhM", "width": 1280}], "place_id": "ChIJKeuBejFlQQ0R4yqdyJDOsBY", "plus_code": {"compound_code": "P4PC+VV Manzanares el Real, Spain", "global_code": "8CGRP4PC+VV"}, "reference": "ChIJKeuBejFlQQ0R4yqdyJDOsBY", "scope": "GOOGLE", "types": ["point_of_interest", "establishment"], "vicinity": "Calle de la Virgen de los Peligros, 34, Manzanares el Real"}, {"business_status": "OPERATIONAL", "geometry": {"location": {"lat": 40.73652889999999, "lng": -3.860954999999999}, "viewport": {"northeast": {"lat": 40.73781598029149, "lng": -3.859680169708497}, "southwest": {"lat": 40.73511801970849, "lng": -3.862378130291502}}}, "icon": "https://maps.gstatic.com/mapfiles/place_api/icons/v1/png_71/generic_business-71.png", "icon_background_color": "#7B9EB0", "icon_mask_base_uri": "https://maps.gstatic.com/mapfiles/place_api/icons/v2/generic_pinlet", "international_phone_number": "+34 651 19 89 78", "name": "Reparacion PDA", "opening_hours": {"open_now": false}, "photos": [{"height": 1800, "html_attributions": ["<a href=\"https://maps.google.com/maps/contrib/111483395559560297000\">Reparacion PDA</a>"], "photo_reference": "AWn5SU7F8CIccy0Kubrir-LyA6-w8pwGkNrpjTlzs8MmwxKwKkymekTQzA0Pin2P0NDwCWwqj3le34yXGKNCjOPHE5dJt99KnShdJsBa-YJdzcXENxtk4V2eYe_SnYIqF8Q15EFbOnD059Ls_lXZ8zl2rm6T5S-zFuxhF6SdLBzNoiJmwF1Ngr_9BwGXpBZf4hrgHjX1pPQCu-dqR8fe6d3bgU51wWQmmCwCB63QANgdEc35QXSL7DVGUAxoLqBv0W4Lsnlgolg4LVN5C5T6Eblviruu7LvdX-I1N5Bw3BddYVqLSzwsROOcTsYgRdWtU6o_bv5MxIld3as", "width": 2400}], "place_id": "ChIJy7-pEtRkQQ0RT9i4GEvPd28", "plus_code": {"compound_code": "P4PQ+JJ Manzanares el Real, Spain", "global_code": "8CGRP4PQ+JJ"}, "rating": 5, "reference": "ChIJy7-pEtRkQQ0RT9i4GEvPd28", "scope": "GOOGLE", "types": ["point_of_interest", "establishment"], "user_ratings_total": 147, "vicinity": "Calle Rincón de Asturias, 8, Manzanares el Real"}, {"business_status": "OPERATIONAL", "geometry": {"location": {"lat": 40.72758719999999, "lng": -3.8663455}, "viewport": {"northeast": {"lat": 40.72894683029149, "lng": -3.864915369708498}, "southwest": {"lat": 40.7262488697085, "lng": -3.867613330291503}}}, "icon": "https://maps.gstatic.com/mapfiles/place_api/icons/v1/png_71/generic_business-71.png", "icon_background_color": "#7B9EB0", "icon_mask_base_uri": "https://maps.gstatic.com/mapfiles/place_api/icons/v2/generic_pinlet", "international_phone_number": "+34 918 55 84 35", "name": "SPORTER", "opening_hours": {"open_now": false}, "place_id": "ChIJDX_5BtZ6QQ0RlfBfQt292_g", "plus_code": {"compound_code": "P4HM+2F Manzanares el Real, Spain", "global_code": "8CGRP4HM+2F"}, "reference": "ChIJDX_5BtZ6QQ0RlfBfQt292_g", "scope": "GOOGLE", "types": ["point_of_interest", "health", "establishment"], "vicinity": "Calle de la Salud, 7, Manzanares el Real"}, {"business_status": "OPERATIONAL", "geometry": {"location": {"lat": 40.73580389999999, "lng": -3.8745028}, "viewport": {"northeast": {"lat": 40.7371477802915, "lng": -3.873218669708497}, "southwest": {"lat": 40.7344498197085, "lng": -3.875916630291501}}}, "icon": "https://maps.gstatic.com/mapfiles/place_api/icons/v1/png_71/generic_business-71.png", "icon_background_color": "#7B9EB0", "icon_mask_base_uri": "https://maps.gstatic.com/mapfiles/place_api/icons/v2/generic_pinlet", "international_phone_number": "+34 695 59 91 23", "name": "Parcela Creativa", "opening_hours": {"open_now": false}, "photos": [{"height": 640, "html_attributions": ["<a href=\"https://maps.google.com/maps/contrib/103525706033100900422\">Parcela Creativa</a>"], "photo_reference": "AWn5SU5QttGuThsOSwfSGKW0m58LtElnwX-JRtfUNv9U9jeaIKo8WiEWsBDyNE3X61dkK3K_UnGibSNWX1v8BkjFyXa_v9WB2r9En1gDs3DRb5nlGch0RpQ7yfE4QepQPcg9XhQRwsbeYGXhf87R1A7r-wd4GHjIc7UdkhVL30eql8RmNgoY4x5I8OFAUgfpqNWs-LqdrqM6zgjCqE7RH-RplKoDEmKw6-qraO5ZXPRiSH485r8J21_WUfhDfYubYGqXmw6kmC8PixLj8dCMkl4-AOkU-zhT_8LK5F-AOS2qLQEIZIyz1HV6vMeT6SuTz0M6OcnZbxxZz3A", "width": 960}], "place_id": "ChIJsaCvh2aipBIRaOMY9MGaKBo", "plus_code": {"compound_code": "P4PG+85 Manzanares el Real, Spain", "global_code": "8CGRP4PG+85"}, "rating": 5, "reference": "ChIJsaCvh2aipBIRaOMY9MGaKBo", "scope": "GOOGLE", "types": ["point_of_interest", "establishment"], "user_ratings_total": 5, "vicinity": "Calle de las Amapolas, 26, Manzanares el Real"}, {"business_status": "OPERATIONAL", "geometry": {"location": {"lat": 40.72650159999999, "lng": -3.8668183}, "viewport": {"northeast": {"lat": 40.7277361302915, "lng": -3.865403519708497}, "southwest": {"lat": 40.7250381697085, "lng": -3.868101480291502}}}, "icon": "https://maps.gstatic.com/mapfiles/place_api/icons/v1/png_71/pharmacy-71.png", "icon_background_color": "#F88181", "icon_mask_base_uri": "https://maps.gstatic.com/mapfiles/place_api/icons/v2/pharmacy_pinlet", "international_phone_number": "+34 918 55 87 55", "name": "FARMACIA FRAGUA Mar Cifuentes Vega MANZANARES EL REAL", "opening_hours": {"open_now": false}, "photos": [{"height": 1532, "html_attributions": ["<a href=\"https://maps.google.com/maps/contrib/118266406588470649290\">Fran y punto</a>"], "photo_reference": "AWn5SU4kiwMY8ZgB2ou6UscZOIxjW6wn6HIgjJOc7MoCVNoGLGEJDc9pcWC4SwrIKLSNxxIRBvTtzvW-3p3WdcNC1Re6NNB0m3vGoIglsrMvCwG_Cq_tDLkl9KnRvr8qbkn3dMe9eDrk6BkGfwSXn0Qc7etNFzVFovq99qc9TDqCYUevhkbOmbhyoLkbOehPruKJS33Zg6U2__1Yvvsdw3jGjxtg1oHbr_s7izqmmhBP5lWeqkuPqwrOcLureaOTG5ahydW1NKhwsDwpIpbzWPZwVFnzRjNHHld6DI4Dqr_3hwR6MJKg8mW0w_hoa_bRG14VzCwXK5-7_fqTY8fNO0iarY5ZDMcPBGYhACoRwW6ZTpVfgg0BjwIvDgCgWhPlTNVKhUXQO1KjsGRKGhIzN5FbzLTrNLVeGnZI4fxW8-992k7BFU5Xh81d2cw2ToRd2A4ol7QIuudr-ZKYRbJzjmonS3CIhUBJ3s01ez9rtp6zYesiQNxouj-LHpx1wbEeEdeLhNrBvcx_5jXPdNpFEsvO3zELdoWCQs8dSYckyiicPyMz5RuvXG4xTAD6E63__9Vn9Dp9biChG3485FZp25A52peDTxnchcnkBJ0k1Q_QHBiTtiZpkGTcsBL59XsZji1eWp1RVQ", "width": 2048}], "place_id": "ChIJCySAFNZ6QQ0RHzjme7_0zZA", "plus_code": {"compound_code": "P4GM+J7 Manzanares el Real, Spain", "global_code": "8CGRP4GM+J7"}, "rating": 4.1, "reference": "ChIJCySAFNZ6QQ0RHzjme7_0zZA", "scope": "GOOGLE", "types": ["pharmacy", "point_of_interest", "health", "store", "establishment"], "user_ratings_total": 59, "vicinity": "Calle de la Fragua, 1, local 3, Manzanares el Real"}, {"business_status": "OPERATIONAL", "geometry": {"location": {"lat": 40.7368459, "lng": -3.863537}, "viewport": {"northeast": {"lat": 40.73814978029149, "lng": -3.862179919708498}, "southwest": {"lat": 40.73545181970849, "lng": -3.864877880291503}}}, "icon": "https://maps.gstatic.com/mapfiles/place_api/icons/v1/png_71/generic_business-71.png", "icon_background_color": "#7B9EB0", "icon_mask_base_uri": "https://maps.gstatic.com/mapfiles/place_api/icons/v2/generic_pinlet", "international_phone_number": "+34 629 10 61 69", "name": "Audioantena", "photos": [{"height": 511, "html_attributions": ["<a href=\"https://maps.google.com/maps/contrib/116798265000667547890\">Audioantena</a>"], "photo_reference": "AWn5SU6YSNs4WK74AvCapDI_8xsacmhaf4ATqnrVOzrr0ROgA2viFzkKvDY7OQMw8eduE2DF6GZzCDBktgFDxJReKTwdOTPyT0ChEOI41PMWE1xeQkUzQ8t9gCyFvO80c_MiKWT3qNdufy4r-ZDPNhoa24qnPrUZGntA5nFqz1u-6W--wALnXt0dOw8WIX1VIMnTkD85yIR0VgwLJX1-76RXi1YC7YdzWUto8u6wBU4wFwvklTgVQXNtGk1oMsX-qx0Zrff2OlmBfMhw54fqi02hqysib3ZAjzu3_DltoUdRnz1RFv4qlnLGNOZNyya-9Wbh38DQYZ7CLKk", "width": 437}], "place_id": "ChIJ1b1jbMKjQQ0RD3cDjbXBtL0", "plus_code": {"compound_code": "P4PP+PH Manzanares el Real, Spain", "global_code": "8CGRP4PP+PH"}, "rating": 5, "reference": "ChIJ1b1jbMKjQQ0RD3cDjbXBtL0", "scope": "GOOGLE", "types": ["point_of_interest", "establishment"], "user_ratings_total": 1, "vicinity": "Calle Rincón de la Pedriza, 32, Manzanares el Real"}, {"business_status": "OPERATIONAL", "geometry": {"location": {"lat": 40.7275268, "lng": -3.862843299999999}, "viewport": {"northeast": {"lat": 40.7289604802915, "lng": -3.861378569708497}, "southwest": {"lat": 40.7262625197085, "lng": -3.864076530291502}}}, "icon": "https://maps.gstatic.com/mapfiles/place_api/icons/v1/png_71/shopping-71.png", "icon_background_color": "#4B96F3", "icon_mask_base_uri": "https://maps.gstatic.com/mapfiles/place_api/icons/v2/shopping_pinlet", "international_phone_number": "+34 918 48 41 60", "name": "Bob Exhausts Racing", "opening_hours": {"open_now": false}, "photos": [{"height": 1152, "html_attributions": ["<a href=\"https://maps.google.com/maps/contrib/102068633911800401824\">BeRacing1 | Accesorios y recambios para motos</a>"], "photo_reference": "AWn5SU5YYJItWWrMJhwiqzoupZWvZiuFQtigRxLvkL3cDMLVj9NJ2KeduOSIcYSUptAkS4I4-Qfh20j4F7JrB4iPiYc3uNVx45E9pXIH5tsCCZTEjgxdxf1yzBSkaJ0BnOrJ-AFszYk3wf8DJGb4qpsLTM3ytcQHnYqjWw6knzAzj-vTcPsJvYHa7kLfJU2KMlPxNIp8ntN0xaqFqsOyVK20_nLwwO8prvFmhEVR_SyBrVia33IK41aGE9TcSW-U6YX1bJQOfhKlb0LBrXKydXJOcNSmcN-XTOmAvB0vYk4Ko_v4yLEyXfL_2MiqVYyPY3I2yGOkjFbx5Lk", "width": 2048}], "place_id": "ChIJTXaFKip7QQ0RvPA-MVo9CVQ", "plus_code": {"compound_code": "P4HP+2V Manzanares el Real, Spain", "global_code": "8CGRP4HP+2V"}, "rating": 4.9, "reference": "ChIJTXaFKip7QQ0RvPA-MVo9CVQ", "scope": "GOOGLE", "types": ["clothing_store", "car_repair", "point_of_interest", "store", "establishment"], "user_ratings_total": 317, "vicinity": "Calle Cañada, 50, Manzanares el Real"}, {"business_status": "OPERATIONAL", "geometry": {"location": {"lat": 40.72871299999999, "lng": -3.8657888}, "viewport": {"northeast": {"lat": 40.73002228029149, "lng": -3.864399969708498}, "southwest": {"lat": 40.72732431970849, "lng": -3.867097930291503}}}, "icon": "https://maps.gstatic.com/mapfiles/place_api/icons/v1/png_71/generic_business-71.png", "icon_background_color": "#7B9EB0", "icon_mask_base_uri": "https://maps.gstatic.com/mapfiles/place_api/icons/v2/generic_pinlet", "international_phone_number": "+34 918 55 83 42", "name": "CIO Clínica Dental", "opening_hours": {"open_now": false}, "photos": [{"height": 809, "html_attributions": ["<a href=\"https://maps.google.com/maps/contrib/113636888598536747444\">CIO Clínica Dental</a>"], "photo_reference": "AWn5SU58Mkj_4RbnQUqXzDoDlBDdmOox1nMJl1Ya32qzZsGtZDP4ybOI-cPYIJXGdm48K6zX2tCU_tWhZliah2DLhv9diri5ZuvPjDPscIU0KBr8fs6H31DxDoCWLPrMfkBfH702110x8dM_0x06NILbsY93DNbXe57QYi1aqQope7t51V6kObAvhKrtgzBCXfdAp77xQiTCxOLttYPOHucLLgN_eUDhHo_8KpxNTOcuCoJMrQd4V1p0GVk_bE7Gctub5kHF7qMw2O2Eqy_E4w0uayVr_agAZ0PYMk1dmfk7TObFUxLYvZA9lhoSRiOo7hiUxf9NSSKQQRw", "width": 1440}], "place_id": "ChIJI1iFitV6QQ0RCYYp5Kszo3w", "plus_code": {"compound_code": "P4HM+FM Manzanares el Real, Spain", "global_code": "8CGRP4HM+FM"}, "rating": 3.5, "reference": "ChIJI1iFitV6QQ0RCYYp5Kszo3w", "scope": "GOOGLE", "types": ["dentist", "point_of_interest", "health", "establishment"], "user_ratings_total": 28, "vicinity": "Avenida de los Toreros, 11, Manzanares el Real"}, {"business_status": "OPERATIONAL", "geometry": {"location": {"lat": 40.7259348, "lng": -3.8668983}, "viewport": {"northeast": {"lat": 40.7273424802915, "lng": -3.865472619708497}, "southwest": {"lat": 40.72464451970851, "lng": -3.868170580291502}}}, "icon": "https://maps.gstatic.com/mapfiles/place_api/icons/v1/png_71/generic_business-71.png", "icon_background_color": "#7B9EB0", "icon_mask_base_uri": "https://maps.gstatic.com/mapfiles/place_api/icons/v2/generic_pinlet", "international_phone_number": "+34 918 53 00 41", "name": "Instalaciones El Yelmo", "place_id": "ChIJ70xBPtZ6QQ0RcRDF1oD_1EQ", "plus_code": {"compound_code": "P4GM+96 Manzanares el Real, Spain", "global_code": "8CGRP4GM+96"}, "rating": 3, "reference": "ChIJ70xBPtZ6QQ0RcRDF1oD_1EQ", "scope": "GOOGLE", "types": ["point_of_interest", "establishment"], "user_ratings_total": 1, "vicinity": "Calle Real, N°5, Manzanares el Real"}, {"business_status": "OPERATIONAL", "geometry": {"location": {"lat": 40.72776210000001, "lng": -3.865251900000001}, "viewport": {"northeast": {"lat": 40.72907368029151, "lng": -3.863772219708498}, "southwest": {"lat": 40.72637571970851, "lng": -3.866470180291503}}}, "icon": "https://maps.gstatic.com/mapfiles/place_api/icons/v1/png_71/bank-71.png", "icon_background_color": "#909CE1", "icon_mask_base_uri": "https://maps.gstatic.com/mapfiles/place_api/icons/v2/bank-intl_pinlet", "international_phone_number": "+34 918 55 88 86", "name": "Banco Santander Agentes", "opening_hours": {"open_now": false}, "photos": [{"height": 720, "html_attributions": ["<a href=\"https://maps.google.com/maps/contrib/110637943619694689736\">Banco Santander Agentes</a>"], "photo_reference": "AWn5SU71P6n91e3X75DsDZjeGWEAV30IELIqC4g6Ql5NC9vU2buWfuwW25w8p2fqfhNaa55oaVSbaau5iKu-Cv5nyEaVq8loyLR3U1RL_32Oba2DMber4W3PDAZLquHrSehoHzjPAxQp-itjx39yzIkfHP0NooYzYluB8t0WwncIHoC6jiqm2mVo7FbqOLVEHxDvKyCWDDaIOKEOWnPbglqF5byvhbeAgUAk0TXqxBJMB2NX8j-0jrxMqLVj-i11XqG4a8OFBOAWag0edIe9bhz2p2ePRpO5zQhxo16lpxNM53DFeIoQdpisO4YjPVGN8Xm9qZnKsSzoHAg", "width": 1280}], "place_id": "ChIJHWwWBSp7QQ0R7fGktOaq5pU", "plus_code": {"compound_code": "P4HM+4V Manzanares el Real, Spain", "global_code": "8CGRP4HM+4V"}, "rating": 3, "reference": "ChIJHWwWBSp7QQ0R7fGktOaq5pU", "scope": "GOOGLE", "types": ["bank", "atm", "finance", "point_of_interest", "establishment"], "user_ratings_total": 14, "vicinity": "Calle Panaderos, Calle de los Frailes, 19, Esq, Manzanares el Real"}, {"business_status": "OPERATIONAL", "geometry": {"location": {"lat": 40.7264841, "lng": -3.8612562}, "viewport": {"northeast": {"lat": 40.7278750802915, "lng": -3.859937319708497}, "southwest": {"lat": 40.7251771197085, "lng": -3.862635280291501}}}, "icon": "https://maps.gstatic.com/mapfiles/place_api/icons/v1/png_71/generic_business-71.png", "icon_background_color": "#7B9EB0", "icon_mask_base_uri": "https://maps.gstatic.com/mapfiles/place_api/icons/v2/generic_pinlet", "international_phone_number": "+34 918 52 71 43", "name": "Materiales Marín Rodríguez SL", "opening_hours": {"open_now": false}, "photos": [{"height": 500, "html_attributions": ["<a href=\"https://maps.google.com/maps/contrib/115856432943321589214\">Materiales Marín Rodríguez SL</a>"], "photo_reference": "AWn5SU6hkUjXuvQlx4GgSh79jxzCv40H9m59uRH3QWaDdYDkW5WffrIKrHbX8xxp_HdAOd31S9Ok85cjmvCL8QYnK79uXbv_qJOuEsW2rahz3D_xIZnPnmShYgxLKEc7k9xcMEmjjStGW4b7JzIOohCHalQ5BkZcC-vN8ulMN5FnXCHZtnjgRrKs59Y4OVb96W4As3wIsnD_zba1eNBmMjs5Wg6lhJDZ1Ux00Il2ShaXpRFY8xiM5OMMpu2DPIIJ9qLiMaWL8VIV2r41OasPG_e5nLQZzWUuxo9J2JivcSAemv7i0u110WwE9AgaomwHkWQETCFgk3Ylbe8", "width": 800}], "place_id": "ChIJg6rdbCl7QQ0Rut99mtCHajQ", "plus_code": {"compound_code": "P4GQ+HF Manzanares el Real, Spain", "global_code": "8CGRP4GQ+HF"}, "rating": 4.5, "reference": "ChIJg6rdbCl7QQ0Rut99mtCHajQ", "scope": "GOOGLE", "types": ["point_of_interest", "store", "establishment"], "user_ratings_total": 19, "vicinity": "Avenida de Madrid, 12, Manzanares el Real"}]