[{"business_status": "OPERATIONAL", "geometry": {"location": {"lat": 40.9918692, "lng": -3.7093858}, "viewport": {"northeast": {"lat": 40.9931984302915, "lng": -3.708017569708497}, "southwest": {"lat": 40.9905004697085, "lng": -3.710715530291502}}}, "icon": "https://maps.gstatic.com/mapfiles/place_api/icons/v1/png_71/parking-71.png", "icon_background_color": "#7B9EB0", "icon_mask_base_uri": "https://maps.gstatic.com/mapfiles/place_api/icons/v2/parking_pinlet", "name": "Parking San Mames", "opening_hours": {"open_now": true}, "photos": [{"height": 3000, "html_attributions": ["<a href=\"https://maps.google.com/maps/contrib/108020367905347389562\">Javier López Huertas</a>"], "photo_reference": "AWn5SU7mNatnL_FLUspmVzCu2-oNS0kEbCGJs50i6bY1qy4ZRAKlhWTrf7NGf_YG8c6GM8ufCyUWxp8d1l177jIglnhPcagxLzuKb7jai1GaWSzeTSKPJQ34LwVfIqbs9hpBsNugi-BrRqwwyskviiha9ofOeynRf1D0p6ayIm36Ypt8fEe8wgeOXHrGfMJ4DazVDfQYTzsIGSab7W1dLtdIQmt3H17nRQoipyigYIK30fF3Rzz7bB9fD4MoAOH67DVCT8HTfnV_MUx-YwOyCK9OSRs9cCgAQYNrpwEadEfP1bOUPSBHllehzUlMwx1DnDlt1FmN4Hm4grMRRiENqdMEy_MiUM5-cYCzges96giwpUtB6zKBjVYG-66lEWJrh7kBv0ETQETbF3U_Yu8JifJX3RUMM46rGzMecFZfw1-kw9t4f9yfIp-MLSNv5mssKIkdXyqf94oLEeTiudgsXKcZU8yC3fHObFXHz7TLGgoeKDHeDxKUXiE_Gm--2B8AD-qTm6N2kRqAX0OA7mp8CX7m-DiBBcv4fku-e95dwxxZRQgc-9XDAqK58CWbtJ-BG3LCuCxK_-6-fFGWb-7clkquRX8utzRhYhCDwopxLIjaVR--nbyg575WrN91mapJDSefvwLcfg", "width": 4000}], "place_id": "ChIJXUErvTHiQw0RfMtqCY8ZCN8", "plus_code": {"compound_code": "X7RR+P6 San Mamés, Spain", "global_code": "8CGRX7RR+P6"}, "rating": 3.7, "reference": "ChIJXUErvTHiQw0RfMtqCY8ZCN8", "scope": "GOOGLE", "types": ["parking", "point_of_interest", "establishment"], "user_ratings_total": 34, "vicinity": "Calle de la Fuente, 4, San Mamés"}, {"business_status": "OPERATIONAL", "geometry": {"location": {"lat": 40.99187789999999, "lng": -3.709245199999999}, "viewport": {"northeast": {"lat": 40.99320153029149, "lng": -3.707871469708498}, "southwest": {"lat": 40.9905035697085, "lng": -3.710569430291502}}}, "icon": "https://maps.gstatic.com/mapfiles/place_api/icons/v1/png_71/parking-71.png", "icon_background_color": "#7B9EB0", "icon_mask_base_uri": "https://maps.gstatic.com/mapfiles/place_api/icons/v2/parking_pinlet", "name": "Aparcamiento Público", "opening_hours": {"open_now": true}, "place_id": "ChIJO62qojHiQw0RtK43CmPTq-A", "plus_code": {"compound_code": "X7RR+Q8 San Mamés, Spain", "global_code": "8CGRX7RR+Q8"}, "rating": 4.2, "reference": "ChIJO62qojHiQw0RtK43CmPTq-A", "scope": "GOOGLE", "types": ["parking", "point_of_interest", "establishment"], "user_ratings_total": 5, "vicinity": "M-634, San Mamés"}, {"business_status": "OPERATIONAL", "geometry": {"location": {"lat": 40.9448895, "lng": -3.7666083}, "viewport": {"northeast": {"lat": 40.9463504802915, "lng": -3.76569885}, "southwest": {"lat": 40.9436525197085, "lng": -3.76933665}}}, "icon": "https://maps.gstatic.com/mapfiles/place_api/icons/v1/png_71/parking-71.png", "icon_background_color": "#7B9EB0", "icon_mask_base_uri": "https://maps.gstatic.com/mapfiles/place_api/icons/v2/parking_pinlet", "name": "Lozoya Parking Hoya Encavera", "opening_hours": {"open_now": false}, "photos": [{"height": 2322, "html_attributions": ["<a href=\"https://maps.google.com/maps/contrib/102150657254181774865\">Antonio</a>"], "photo_reference": "AWn5SU7dCZyxee6DLLvarXwyDMyaZ0oMmphtR9YdmU6U1vbTJpKpFh-7uogmI73lRwuiK6PQc3cy9qrh7m6EiYyJj9oOGxKcPJrJF_VRjIL7V0UkO1JPbdhryqdS8ihizcoHC9zX0_WfqNWbTUBvqixw9n-p7UKAqa8ISkEDeYJMsIYg8BMOZzCsva5K4pNOi1A1slKkkaKbVXntLSTRaV5IQ2Y70ylowYFzkhuhs_6s2a09iLXDDGJjg4eRWlVxBms9ecYN_SI2lhmRb5eG1LB8t8oW7HbVkWxJUbV6eLvKRI0NhP766uNHi9sHMwRWgH6-C1eidmyDkQKyRdAmjbDUk3WZI9DaxpQzVwkDjRRs65VKvCe4ntKaiUZgfDvycKv5DsWXYIGR_xfFDrxwhrlN4HV992VMEvAS4je3HHwMYXV43CrrH1OF0BcJM8zhghizlNIIaonDwU-TVuUVPajNR289rB5WZPpSGzF7A5ukGbqoscgX74orxViU5TqsWQ_haIgpcwWfizjU215prjhmLiMO9L6qCvZ7GAkUWGWq3jrqsHG4b3_7dTAaS6ZajKn6ewDMsPuQsgCiJbo50mfR2ItgHFT9zSR8V58a06yu66n95luT_i0Dzz1nvv2tv8iFDER5Ig", "width": 4128}], "place_id": "ChIJj5EGeA1fQQ0R3U7glGwvyJk", "plus_code": {"compound_code": "W6VM+X9 Lozoya, Spain", "global_code": "8CGRW6VM+X9"}, "rating": 3.5, "reference": "ChIJj5EGeA1fQQ0R3U7glGwvyJk", "scope": "GOOGLE", "types": ["parking", "point_of_interest", "establishment"], "user_ratings_total": 98, "vicinity": "Lozoya"}]