[{"business_status": "OPERATIONAL", "geometry": {"location": {"lat": 40.1162662, "lng": -3.161102499999999}, "viewport": {"northeast": {"lat": 40.11760928029149, "lng": -3.159744469708498}, "southwest": {"lat": 40.1149113197085, "lng": -3.162442430291502}}}, "icon": "https://maps.gstatic.com/mapfiles/place_api/icons/v1/png_71/school-71.png", "icon_background_color": "#7B9EB0", "icon_mask_base_uri": "https://maps.gstatic.com/mapfiles/place_api/icons/v2/school_pinlet", "international_phone_number": "+34 918 72 84 03", "name": "Colegio Público Alarilla", "place_id": "ChIJXT7_50ZjQg0RqBHliAU_nek", "plus_code": {"compound_code": "4R8Q+GH Fuentidueña de Tajo, Spain", "global_code": "8CGR4R8Q+GH"}, "reference": "ChIJXT7_50ZjQg0RqBHliAU_nek", "scope": "GOOGLE", "types": ["school", "point_of_interest", "establishment"], "vicinity": "Calle de la Virgen de Alarilla, 10, Fuentidueña de Tajo"}, {"business_status": "OPERATIONAL", "geometry": {"location": {"lat": 40.11909119999999, "lng": -3.1620709}, "viewport": {"northeast": {"lat": 40.12041838029149, "lng": -3.160756519708498}, "southwest": {"lat": 40.11772041970849, "lng": -3.163454480291502}}}, "icon": "https://maps.gstatic.com/mapfiles/place_api/icons/v1/png_71/school-71.png", "icon_background_color": "#7B9EB0", "icon_mask_base_uri": "https://maps.gstatic.com/mapfiles/place_api/icons/v2/school_pinlet", "international_phone_number": "+34 918 72 88 07", "name": "Escuela De Educación Infantil Casa De Niños Fuentidueña De Tajo", "place_id": "ChIJMwdVP0FjQg0Rs5jErja8Qcw", "plus_code": {"compound_code": "4R9Q+J5 Fuentidueña de Tajo, Spain", "global_code": "8CGR4R9Q+J5"}, "reference": "ChIJMwdVP0FjQg0Rs5jErja8Qcw", "scope": "GOOGLE", "types": ["school", "point_of_interest", "establishment"], "vicinity": "Avenida de Elena Soriano, 7, Fuentidueña de Tajo"}, {"business_status": "OPERATIONAL", "geometry": {"location": {"lat": 40.0843472, "lng": -3.1441957}, "viewport": {"northeast": {"lat": 40.0850765, "lng": -3.142754769708498}, "southwest": {"lat": 40.08215930000001, "lng": -3.145452730291502}}}, "icon": "https://maps.gstatic.com/mapfiles/place_api/icons/v1/png_71/school-71.png", "icon_background_color": "#7B9EB0", "icon_mask_base_uri": "https://maps.gstatic.com/mapfiles/place_api/icons/v2/school_pinlet", "international_phone_number": "+34 910 60 41 41", "name": "La Granja Madrid, granja escuela y Ability Training Center", "opening_hours": {"open_now": false}, "photos": [{"height": 574, "html_attributions": ["<a href=\"https://maps.google.com/maps/contrib/116773166458755407160\">La Granja Madrid, granja escuela y Ability Training Center</a>"], "photo_reference": "AWn5SU4H0P49qBcyDZanw7IFomwM4ZpmiX9ck-IF2G5XvSPKM_rDTkjo0WACgFo2yeQGEvyirBqLoh4wW62OaVW57QyHwrhf8t-hVO7KQZ1hotz-J3ZxI-_qSifiNZEbI9JwpJQJoYfhSKKwDHm6sz8U66wOXqeJUKzDW4b562DZXTJpTpVgSqAcNm02S4LHPV__LrZx9_z9Tk2tkHrQvsulAlgOhlzMYTWaGAtRfcteT_LsILzmaMFC_wuUlLc9LrIzMUaODNmtJWHG5L50EKduPXk3Dl4Hri3W-BDIh1rfr05VN7TOPI8-jbuNhGD6BP8ef4XC-Dx4lYY", "width": 1270}], "place_id": "ChIJc4R0Xv99Qg0Rw2zXp5x0ExQ", "plus_code": {"compound_code": "3VM4+P8 Fuentidueña de Tajo, Spain", "global_code": "8CGR3VM4+P8"}, "rating": 4.4, "reference": "ChIJc4R0Xv99Qg0Rw2zXp5x0ExQ", "scope": "GOOGLE", "types": ["school", "point_of_interest", "establishment"], "user_ratings_total": 45, "vicinity": "Dehesa Alarilla, s/n, Fuentidueña de Tajo"}]