[{"business_status": "OPERATIONAL", "geometry": {"location": {"lat": 40.3027179, "lng": -4.441332099999999}, "viewport": {"northeast": {"lat": 40.3040371802915, "lng": -4.439982719708497}, "southwest": {"lat": 40.3013392197085, "lng": -4.442680680291502}}}, "icon": "https://maps.gstatic.com/mapfiles/place_api/icons/v1/png_71/bank-71.png", "icon_background_color": "#909CE1", "icon_mask_base_uri": "https://maps.gstatic.com/mapfiles/place_api/icons/v2/bank-intl_pinlet", "international_phone_number": "+34 616 56 98 27", "name": "BBVA - Agente Autorizado", "opening_hours": {"open_now": false}, "photos": [{"height": 720, "html_attributions": ["<a href=\"https://maps.google.com/maps/contrib/116640132785158682502\">BBVA - Agente Autorizado</a>"], "photo_reference": "AWn5SU4CAdcJRRus9FF1G9pALvCpOaxNSmiFtSW62KPf8eES53G_h3DxL0A21g3DzSX62JqzPd9wfh4wya5UuTftCUj_vE4t3BiSlIIyxd3VdmKyVC8MMmRt5qIrvN2o_3DWo4lIehpPHr-0qrzG1sdWCc1rqbQ80wBRBcmgCmBNtcpSJ-DERgBLSzHj42SE7aDtZyTHLHxfZPdM489Okui5C6N4zjzE0e16VME_ethLg-rFneGzBt3OdT6Boqq19K53Ynqt26yYCVTELwKN3yI8OtyQEUPs4gBjYI5C94Lubo0tBav1BfxoUxQ961P-fOTlNF-eUefW1ak", "width": 1280}], "place_id": "ChIJ59jGq4FLQA0RGQ6Qu7YP6zA", "plus_code": {"compound_code": "8H35+3F Cadalso de los Vidrios, Spain", "global_code": "8CGQ8H35+3F"}, "rating": 3.7, "reference": "ChIJ59jGq4FLQA0RGQ6Qu7YP6zA", "scope": "GOOGLE", "types": ["bank", "atm", "finance", "point_of_interest", "establishment"], "user_ratings_total": 19, "vicinity": "Calle Pedro Álvarez, 4, Cadalso de los Vidrios"}, {"business_status": "OPERATIONAL", "geometry": {"location": {"lat": 40.3016723, "lng": -4.440096699999999}, "viewport": {"northeast": {"lat": 40.3029835802915, "lng": -4.438745569708498}, "southwest": {"lat": 40.3002856197085, "lng": -4.441443530291503}}}, "icon": "https://maps.gstatic.com/mapfiles/place_api/icons/v1/png_71/bank-71.png", "icon_background_color": "#909CE1", "icon_mask_base_uri": "https://maps.gstatic.com/mapfiles/place_api/icons/v2/bank-intl_pinlet", "international_phone_number": "+34 918 64 10 70", "name": "Banco Santander Agentes", "opening_hours": {"open_now": false}, "photos": [{"height": 720, "html_attributions": ["<a href=\"https://maps.google.com/maps/contrib/100997371417134149076\">Banco Santander Agentes</a>"], "photo_reference": "AWn5SU6gvY9tWxYxMgT_yVpMFFMahYDymu5AdAMjalpGU4S2xHQHiBR2Ogpv7At_k-gAtgzRXBocOTIGO9QMzf162xjBpfFEfcRGpZPFep3z9kvNQaI4lLcozorMZ8K-P0URSBaTlmGs2G4Hv56YaaoVkGH-2des3cmg8Uy9lIwmJBqSPr2DQZQTreu-qFcFU4UuLssWqAQ8r6qaT_qu4kNCMWipFdV23cA-DRPXvE4Fp5mo-DeJ7E6HuSBAetlMorIYf27o3oqYvNl02Z0FQV-s4sPcVIv4CVh_Gzk0hcwgfPO1adKeEBNiTKL5CmgrPelvWKFgrvc2-WA", "width": 1280}], "place_id": "ChIJx-p5lYFLQA0RtLRKdN2iRzM", "plus_code": {"compound_code": "8H25+MX Cadalso de los Vidrios, Spain", "global_code": "8CGQ8H25+MX"}, "rating": 5, "reference": "ChIJx-p5lYFLQA0RtLRKdN2iRzM", "scope": "GOOGLE", "types": ["bank", "atm", "finance", "point_of_interest", "establishment"], "user_ratings_total": 2, "vicinity": "Calle Corredera, 35, Cadalso de los Vidrios"}, {"business_status": "OPERATIONAL", "geometry": {"location": {"lat": 40.301853, "lng": -4.441311}, "viewport": {"northeast": {"lat": 40.3031661302915, "lng": -4.439903119708497}, "southwest": {"lat": 40.3004681697085, "lng": -4.442601080291502}}}, "icon": "https://maps.gstatic.com/mapfiles/place_api/icons/v1/png_71/atm-71.png", "icon_background_color": "#909CE1", "icon_mask_base_uri": "https://maps.gstatic.com/mapfiles/place_api/icons/v2/atm_pinlet", "international_phone_number": "+34 900 404 090", "name": "ATM CaixaBank - Cajero", "opening_hours": {"open_now": true}, "photos": [{"height": 681, "html_attributions": ["<a href=\"https://maps.google.com/maps/contrib/114169282350633954294\">ATM CaixaBank - Cajero</a>"], "photo_reference": "AWn5SU6uy8Cz8-MijrBkNLVddXblzlVlVFVKAWl1_vcq7pJdfZ8yBxG7Rxq0HcRNCFbkal1WXJhdysqvq_IYP33n9PI6cDD5Zy2pnzOez9J3olLeGUXHr4xjno-NDrBvlYi5gtjxqka9Vr_FACRdS3v-kIb62NzH1gMv-nes90Q1Sr9V068ddWnpRnswE09bASAni6yqrGt25Xm039VzTwOot0h3_U-NHYqldGxq8fLp5QKaAPNuV1kekvc8isuPPi6SWpXeaPYs3yDLqIFYFZazsryvOXik7bFJp0NX1N-eUFvKS-SkFxno5QK64rxVd9DtwSqnOJABOuU", "width": 1024}], "place_id": "ChIJk9CyPwNLQA0RrFn_AEm73hA", "plus_code": {"compound_code": "8H25+PF Cadalso de los Vidrios, Spain", "global_code": "8CGQ8H25+PF"}, "reference": "ChIJk9CyPwNLQA0RrFn_AEm73hA", "scope": "GOOGLE", "types": ["atm", "finance", "point_of_interest", "establishment"], "vicinity": "Calle Real, 30, Cadalso de los Vidrios"}, {"business_status": "OPERATIONAL", "geometry": {"location": {"lat": 40.3016723, "lng": -4.440096699999999}, "viewport": {"northeast": {"lat": 40.3029835802915, "lng": -4.438745569708498}, "southwest": {"lat": 40.3002856197085, "lng": -4.441443530291503}}}, "icon": "https://maps.gstatic.com/mapfiles/place_api/icons/v1/png_71/atm-71.png", "icon_background_color": "#909CE1", "icon_mask_base_uri": "https://maps.gstatic.com/mapfiles/place_api/icons/v2/atm_pinlet", "international_phone_number": "+34 912 73 70 06", "name": "Cajero Automático Banco Santander", "opening_hours": {"open_now": true}, "place_id": "ChIJpadPlYFLQA0RV-6n3gCc2_g", "plus_code": {"compound_code": "8H25+MX Cadalso de los Vidrios, Spain", "global_code": "8CGQ8H25+MX"}, "reference": "ChIJpadPlYFLQA0RV-6n3gCc2_g", "scope": "GOOGLE", "types": ["atm", "finance", "point_of_interest", "establishment"], "vicinity": "Plaza de la Corredera, 35, Cadalso de los Vidrios"}]