[{"geometry": {"location": {"lat": 41.08637909999999, "lng": -3.623849}, "viewport": {"northeast": {"lat": 41.0883112680442, "lng": -3.619907846749106}, "southwest": {"lat": 41.08367259023421, "lng": -3.626851442389167}}}, "icon": "https://maps.gstatic.com/mapfiles/place_api/icons/v1/png_71/geocode-71.png", "icon_background_color": "#7B9EB0", "icon_mask_base_uri": "https://maps.gstatic.com/mapfiles/place_api/icons/v2/generic_pinlet", "name": "La Acebeda", "photos": [{"height": 3000, "html_attributions": ["<a href=\"https://maps.google.com/maps/contrib/106973827048367889653\">Vanessa Tena Campos</a>"], "photo_reference": "AWn5SU5lytdwYUFDEPuTSae1GhnLJnctxgB3BJX6G3u9K_uttZRU5gjyXN0INVPpz4gqL7nn1PDDwDWh1BrNtGG5fN4NbJdhmdzBX-Gs4vRK_6euTBlwcCMUeCyLkAbhaw2nLWsQtxxWbf-ei-HkDcXScgdKZpKnTiGTb81Kc78SGdm6PheUt4OXmexJ1Otk7TqiMROYPXAaoDcVlmiCKPpmLZRYZY1YjjVvEalVmoiVnzIaFSijDTCA8YD-vyUtAAd-uAamhHB6dP_RFR6582TR8Taa_Ba1DlK_Rp03WfDAFPcNdwfVz1bTl8oRbspUdflEeLUIwCAdTTAJYIdNjJsH80ErLpcLTgejbwZ7zA2zFJS2qLxG5qn6hhOch_jnvab1QElb3jwzw99NJXVWwvmLHFGtr6pOKHLSROIYL8AY9PFE5Gwe_jRYT_c6hdNGiQ0CAyQX3Rc0PiasyRS8rwQt6wllaVmvx8uWbjRjrJKx_i3sLaFcK3cajSeTLXhPmxyiYoG9OuW0Drzo46QhYMnAj7Rfci_jOHQx2rm_cvJVuVwYkMvgVL0I1eg_QFeLsRCA6UmCkptDGUZuIp50_loiR59lV0x3rrq6eumr-9_ltdl9HoLFR7ukZx8nYeBZwdHxq7U38nlN", "width": 4000}], "place_id": "ChIJ_Vdf7R77Qw0R3rDuxlsN6Sw", "reference": "ChIJ_Vdf7R77Qw0R3rDuxlsN6Sw", "scope": "GOOGLE", "types": ["locality", "political"], "vicinity": "La Acebeda"}, {"business_status": "OPERATIONAL", "geometry": {"location": {"lat": 41.08678179999999, "lng": -3.6248351}, "viewport": {"northeast": {"lat": 41.0881526302915, "lng": -3.623529119708498}, "southwest": {"lat": 41.0854546697085, "lng": -3.626227080291502}}}, "icon": "https://maps.gstatic.com/mapfiles/place_api/icons/v1/png_71/civic_building-71.png", "icon_background_color": "#7B9EB0", "icon_mask_base_uri": "https://maps.gstatic.com/mapfiles/place_api/icons/v2/civic-bldg_pinlet", "international_phone_number": "+34 918 69 91 07", "name": "La Acebeda Town Hall", "opening_hours": {"open_now": false}, "photos": [{"height": 3456, "html_attributions": ["<a href=\"https://maps.google.com/maps/contrib/109789103979065715220\">Javier Calvo Expósito</a>"], "photo_reference": "AWn5SU7OaXXDDrA6d0wza_M5HqdtejM1xI0ZQYe57Q0Qm1jzbFj82Wy3EAgDPqBYwEVJ0sLuGf_rOsgnklXlIjdKzb60x_ULn46S3dyewwGZvwwx5rVikccFcijdV5_2uzeLM4lHRZ3NKw4JWY856B4bM846nJ8pesC1QuZRvZYSBm3CddLFBZSBP-NTcTauxxdNUnFszgHWbxr3-1BCD28aB2k59OBQwWJkJZmalPfnfh3ic1nkkIQDJP3Nu6lqSx7z0z9H77TXIlYQ-o7SLxHvsbACftzYi0AIqjmrwTJjwAWA_q-kI8X9tEYlRHcKTxYh6rLAeKHxMoPExUBVdPV7wu-BuUoxaUYzOOKL32LrNXhWYXVlBE4iyODjafHMFfn3oKiTW_nctwxQKEqZ8-6CZtbJ9RqM8wSrM4CbYOC7FVv2tfVha_KOMPgisj2YcFY_9qDCq9gpyMhLEVLHKnc36gesFN_jS6GxaX3nqqZQZEgmzRB7qshvDbXFPDiCDVlzWik8dyheGxkJw7XXUCgTnxBdCqRBJ0lhh1U_UI2Bvl6_HlEIGXsfsVlMJc-glbpu44cPhJlBA0ivb_NU5FLhIamF3K4bcPmloVKTrJl7kuNLmayLTRNAzJr9rgxDdUQhPiZsLA", "width": 4608}], "place_id": "ChIJiV0hQx77Qw0RgQ5ATRgZasg", "plus_code": {"compound_code": "39PG+P3 La Acebeda, Spain", "global_code": "8CHR39PG+P3"}, "rating": 3.6, "reference": "ChIJiV0hQx77Qw0RgQ5ATRgZasg", "scope": "GOOGLE", "types": ["city_hall", "local_government_office", "point_of_interest", "establishment"], "user_ratings_total": 14, "vicinity": "Plaza de San Miguel, 1, La Acebeda"}, {"business_status": "OPERATIONAL", "geometry": {"location": {"lat": 41.0871596, "lng": -3.6244421}, "viewport": {"northeast": {"lat": 41.08846108029149, "lng": -3.623096219708498}, "southwest": {"lat": 41.0857631197085, "lng": -3.625794180291503}}}, "icon": "https://maps.gstatic.com/mapfiles/place_api/icons/v1/png_71/lodging-71.png", "icon_background_color": "#909CE1", "icon_mask_base_uri": "https://maps.gstatic.com/mapfiles/place_api/icons/v2/hotel_pinlet", "international_phone_number": "+34 626 95 93 94", "name": "El Infantado", "photos": [{"height": 3968, "html_attributions": ["<a href=\"https://maps.google.com/maps/contrib/112908300219494567591\">R. Santos</a>"], "photo_reference": "AWn5SU7POueRHB8pQtiKwlD5g6u5o0Xt-gEnZ5S92Jj3gtFhLnh1TS_2mwc1qFT15hj0r3hg3vwhLVhkCViVR7luUFrMH2VQV863ignEiM4xE0nynskeOpiwFyAG75_z728m44yrjVrSYeUjwDIn6c71dKyd0-IXJEt_aB94MNagojE_eGcdfkYH_gHfmG4k7KfZOscGdXD6U4eVIgPuZpTlAu6xmc48dx3KLMpYm3-2MJgDq9CyVm06wQRUz-KwhpioF-NJcuYqP5fy_kQazLuIRLuzxLCvQi3PFURsD8smW6bOSNLUlCWQ-RLaaTZQSCRq7UP_5VpbBopm6l2jYmcIP8MF14oAm43ekby6USMp6kGV81ziHRUL6rr8dFhqEsg9nGPUf0KD3gwyTUSXYl0erBlUPG0TuMfUELwqcN5YeAF4yyEnUG0gQK-lEE8eeI3Z8XJ4i2OE8Z439tIYTpcKzo26SH8REznibQF60jrC8jXK0aoDfdwiO6gJJo53RoALwZEU3XZqxPA6NUxLqHl5xXSTAJ_yTSJIaEwjf8XFs7cFQ9BCn9i1oJ7wvm5VaFfSWHC6nT6jyQCmQQYI_8TFioP7vuz5nudlF8Y1EaneYrX9rWu033yF8QhlWVegQoB1LebUGg", "width": 2976}], "place_id": "ChIJCez-Xx77Qw0RwriR573HpCM", "plus_code": {"compound_code": "39PG+V6 La Acebeda, Spain", "global_code": "8CHR39PG+V6"}, "rating": 4.9, "reference": "ChIJCez-Xx77Qw0RwriR573HpCM", "scope": "GOOGLE", "types": ["lodging", "point_of_interest", "establishment"], "user_ratings_total": 15, "vicinity": "Calle Encerradero, 12, La Acebeda"}, {"business_status": "OPERATIONAL", "geometry": {"location": {"lat": 41.087059, "lng": -3.6240057}, "viewport": {"northeast": {"lat": 41.0884200802915, "lng": -3.622659369708498}, "southwest": {"lat": 41.0857221197085, "lng": -3.625357330291502}}}, "icon": "https://maps.gstatic.com/mapfiles/place_api/icons/v1/png_71/lodging-71.png", "icon_background_color": "#909CE1", "icon_mask_base_uri": "https://maps.gstatic.com/mapfiles/place_api/icons/v2/hotel_pinlet", "international_phone_number": "+34 619 39 27 42", "name": "La Posada de los Vientos", "opening_hours": {"open_now": true}, "photos": [{"height": 1688, "html_attributions": ["<a href=\"https://maps.google.com/maps/contrib/108708382054682689827\">La Posada de los Vientos</a>"], "photo_reference": "AWn5SU64Znw3zNYalJ3V9V7Q574J7z_H9d23T2Ba7WNJtmp7DNGQdXpXXAGZdy2-Cgyj0XfcMCjDeIBWGP_M4rgTsIDCg2XIVN66g-rAQQ80z9AHrG4Z2QyqUQTtLVQ2Bx11EfhEWFkLb91ddoMTV-W-GweC1tyrWik5Z5tHvCd2aizhl9gx8Q2LBD33XPSA7xTj3rzTCaf4LN9-9B1BD0KeDLsXyKpSLEYJI11ZQWJrfUoAvOwxXDff73AeQMD5I1wULErasFWxRZrRJD86-LJOlCb55JS74OXU3b1dnM9nitK2YPYGJ1y2AAoxRWj-cN707Ddm1ZiyzCw", "width": 1455}], "place_id": "ChIJGcTBXR77Qw0RnreythvHIE4", "plus_code": {"compound_code": "39PG+R9 La Acebeda, Spain", "global_code": "8CHR39PG+R9"}, "rating": 4.5, "reference": "ChIJGcTBXR77Qw0RnreythvHIE4", "scope": "GOOGLE", "types": ["lodging", "restaurant", "food", "point_of_interest", "establishment"], "user_ratings_total": 254, "vicinity": "Calle Encerradero, 2, La Acebeda"}, {"business_status": "OPERATIONAL", "geometry": {"location": {"lat": 41.0868259, "lng": -3.6248034}, "viewport": {"northeast": {"lat": 41.08819538029151, "lng": -3.623494769708498}, "southwest": {"lat": 41.08549741970851, "lng": -3.626192730291502}}}, "icon": "https://maps.gstatic.com/mapfiles/place_api/icons/v1/png_71/civic_building-71.png", "icon_background_color": "#7B9EB0", "icon_mask_base_uri": "https://maps.gstatic.com/mapfiles/place_api/icons/v2/civic-bldg_pinlet", "name": "Consultorio Médico Local La Acebeda", "photos": [{"height": 1080, "html_attributions": ["<a href=\"https://maps.google.com/maps/contrib/108991065925202119120\">Jesus</a>"], "photo_reference": "AWn5SU6jUWb1aScXG-BbSea0Q7cdGJptpV4wlW1ozdAdUvia6yi84FYwZSKx05tdXtO6m6cGZIH62jt48VUsv4Kb3-KBk3GQumAg0qHcaDU2BU79P24nbxgmWP4Ip9uyI0p8PZ5NGhLOSnsakYr_5GHpGpomVlvo3ttF7kMiCBQ0WHmuEKQTIO_YP6LWXrsiRRaGVqJmbI6VlxUAmqogp2fRyjsFlP0rv16ST7y7b20pqbPMe5RYlP_zTrundXwvXVORe-6CKW0f5FmIvUVtFQL03lyG_bKylPte_RxLZkoaa-MkTBU5kmR6nfukO_Ram0MkfcUYpbQ8rEHyDyXTk4eucX5Nym30UKYSZ9JCraKbQJhjK343FBAvflXrwuFHbTHTAX07bI98tXIANACw3AVaZQMlr8gWf_s9AiRSoxDoOAok8tn8vQesO4Vi-1jkk1ORmkLM-Hzre5VJBqzvxhJbz7BfNf_CWHpKMLSgQqINjlD0UWlHlxT-m9NqxSuF8ROpbRdRszqCzOANXpM0sKlAvMMPM2trlso-7cyK13hkENaTAu6UE4fJzN0St57u1WP8B9xPVXi8rSEibsjHg2jnJZS5XbG_DbmMrC-APjKBS7bYPq_gf1ADjfdTiuX3YyKHNxI72A", "width": 1920}], "place_id": "ChIJmc7QW8j7Qw0RaWkVWlDp6fs", "plus_code": {"compound_code": "39PG+P3 La Acebeda, Spain", "global_code": "8CHR39PG+P3"}, "rating": 5, "reference": "ChIJmc7QW8j7Qw0RaWkVWlDp6fs", "scope": "GOOGLE", "types": ["point_of_interest", "health", "establishment"], "user_ratings_total": 1, "vicinity": "Calle Encerradero, 19, La Acebeda"}, {"business_status": "OPERATIONAL", "geometry": {"location": {"lat": 41.0867333, "lng": -3.624975599999999}, "viewport": {"northeast": {"lat": 41.0880930302915, "lng": -3.623635769708498}, "southwest": {"lat": 41.0853950697085, "lng": -3.626333730291502}}}, "icon": "https://maps.gstatic.com/mapfiles/place_api/icons/v1/png_71/generic_business-71.png", "icon_background_color": "#13B5C7", "icon_mask_base_uri": "https://maps.gstatic.com/mapfiles/place_api/icons/v2/generic_pinlet", "name": "Fuente Pública de La Acebeda", "opening_hours": {"open_now": true}, "photos": [{"height": 1920, "html_attributions": ["<a href=\"https://maps.google.com/maps/contrib/108991065925202119120\">Jesus</a>"], "photo_reference": "AWn5SU4bNLSjKCp1JpaF40glYBg4m0xJ_uNMroqxO_cWw0_FOdIGmQYNpwFiZ_PnzEfrDVdVYyQumDutO9HyV-el333L30C_TfAcakuvaFIKCAWVcFnMGtIRJs1lMj-P6GOGz9tt0x1mSuaKg8YpwcPgeGNXDOnRPqcWM5EGiHnhmHimkNa4li2nRCC5maYilqVpts5ZTUGr3km8LAswIt1QYKOeQdKPdj8dzyNcGSAbKt9vX3shk5U91UmX4vRYpfz8-G_joJloeoHyzqHlgx-0u8NrLnKgZMyUt4KLpB7qoz8y2ULozwaVmpjZ9N_zAHwv-qtxy6VVR9Qy0nsJ9y3-N2teS6MnsDopPTpnr3tYf8rqt1ytcZvSACxiWRATVQdDJy-6gzzIoqWJMMUuN1yU5PhG2W4vRoMB4gc5mRJInfY_RQX0symYHGOO92WM42c0904yb_EWXhW5lSCxw2dr0Ko6x7nHinmE2HQV3ogJHZZVy6kWFFoOo1bzWJcESXQ_KKhjBkKNbPOdypX-d08858grSfeCxBHWPTo6A2jcz3a2Ca7twu4YLpvRTug8oh1NpXBYZFsof9D2v3TvyDft-Fj9-6lfG64FTj6JzTSY9nPyDmUccPSMt9vEx4gd1uR1ubo0LA", "width": 1080}], "place_id": "ChIJgfYG7h77Qw0RM70L2d30iFU", "plus_code": {"compound_code": "39PG+M2 La Acebeda, Spain", "global_code": "8CHR39PG+M2"}, "rating": 4.2, "reference": "ChIJgfYG7h77Qw0RM70L2d30iFU", "scope": "GOOGLE", "types": ["point_of_interest", "establishment"], "user_ratings_total": 19, "vicinity": "Calle Encerradero, 23, La Acebeda"}, {"business_status": "OPERATIONAL", "geometry": {"location": {"lat": 41.0867178, "lng": -3.6250948}, "viewport": {"northeast": {"lat": 41.0879834802915, "lng": -3.623769719708497}, "southwest": {"lat": 41.0852855197085, "lng": -3.626467680291502}}}, "icon": "https://maps.gstatic.com/mapfiles/place_api/icons/v1/png_71/worship_general-71.png", "icon_background_color": "#7B9EB0", "icon_mask_base_uri": "https://maps.gstatic.com/mapfiles/place_api/icons/v2/worship_christian_pinlet", "name": "Iglesia de San Sebastián (s. XVII)", "photos": [{"height": 3456, "html_attributions": ["<a href=\"https://maps.google.com/maps/contrib/109789103979065715220\">Javier Calvo Expósito</a>"], "photo_reference": "AWn5SU7qTqBjVvoxqRSbgmv0VGeWEipg3xMXNngoJNry1YlR7Gy8I6JueQYDISETQaTj5a1lMx0ZYhZdFFoeTO5WU2_4xvSVzeC_Yzxxv2oX6UFq7aRh0d82qw8vsZDjYGpLDNLEmWJ3ogbDsO5w6Adw9Y4xFqus0xzvSbZSdHhHXYtme_Q4GfWyCDn3Y8YV1vTZlUV6JwmGGyDrD56YG6q-uTFD-QcGvnJNSRRAwrCoAvMgQ6C9gkZ0zEK2Fu5lMzUeEY3GHxAPmhMivNlJFqRplVUGgMSISOlUs8wFbSx_KcBZ13iq3KxnpABFinT22B487eoQtUNEKmmfzSeMtHy1dqFB-rqnLZVKYq3e3Aj5mFZEQvzxITOxVlijke8s335bdaTFOf5xBvwIc99bQmhX9HHQqtOr6lOrMw2-YPEwmawxFMig6sKb0Atc0Bixf9yP6ajJayJn7IU0KzedB9rt1unox9r6wukGv3x4DKtRtpsj6f8YK14SY5jwr6wx0VRawKwSBL6WijJCa64ekrw6MVqY1WpSt-smqv72xXw-leRHJ96zWo9mSp8kvUYrvk8bofVylL7b1br02GbraHu_XxoertlfD2gZbxY6L0enEnoeC8wesBbuYQ38oXs3cAFMLf7oXw", "width": 4608}], "place_id": "ChIJM-IN7x77Qw0RqR42jUZ2M3o", "plus_code": {"compound_code": "39PF+MX La Acebeda, Spain", "global_code": "8CHR39PF+MX"}, "rating": 4.7, "reference": "ChIJM-IN7x77Qw0RqR42jUZ2M3o", "scope": "GOOGLE", "types": ["church", "place_of_worship", "point_of_interest", "establishment"], "user_ratings_total": 7, "vicinity": "Calle Puerto, 33, La Acebeda"}, {"business_status": "OPERATIONAL", "geometry": {"location": {"lat": 41.0870592, "lng": -3.6240085}, "viewport": {"northeast": {"lat": 41.0884200802915, "lng": -3.622658769708497}, "southwest": {"lat": 41.0857221197085, "lng": -3.625356730291502}}}, "icon": "https://maps.gstatic.com/mapfiles/place_api/icons/v1/png_71/lodging-71.png", "icon_background_color": "#909CE1", "icon_mask_base_uri": "https://maps.gstatic.com/mapfiles/place_api/icons/v2/hotel_pinlet", "international_phone_number": "+34 918 69 91 95", "name": "ACEBEDA BLANCA INICIATIVAS HOSTELERAS SL", "place_id": "ChIJCwU7nFH7Qw0Rm49_JdoFq_s", "plus_code": {"compound_code": "39PG+R9 La Acebeda, Spain", "global_code": "8CHR39PG+R9"}, "reference": "ChIJCwU7nFH7Qw0Rm49_JdoFq_s", "scope": "GOOGLE", "types": ["lodging", "point_of_interest", "establishment"], "vicinity": "Calle Encerradero, 2, La Acebeda"}, {"business_status": "CLOSED_TEMPORARILY", "geometry": {"location": {"lat": 41.0867055, "lng": -3.6238461}, "viewport": {"northeast": {"lat": 41.0880467302915, "lng": -3.622531869708498}, "southwest": {"lat": 41.0853487697085, "lng": -3.625229830291502}}}, "icon": "https://maps.gstatic.com/mapfiles/place_api/icons/v1/png_71/bar-71.png", "icon_background_color": "#FF9E67", "icon_mask_base_uri": "https://maps.gstatic.com/mapfiles/place_api/icons/v2/bar_pinlet", "international_phone_number": "+34 918 69 91 10", "name": "Bar la Plazuela", "permanently_closed": true, "photos": [{"height": 2268, "html_attributions": ["<a href=\"https://maps.google.com/maps/contrib/116442327296790444308\">Henry Chinaski</a>"], "photo_reference": "AWn5SU4z1mjTksLuaMqljoprHLFvHQo_LNhhRvS-qw-ycK7CekfoRCz_no3hGiKAnu2FA-aSE909TaRkYJ84ESgjd_Iil851KA10IHj1bCcY2225cpSDIIa35BUXMWzJCDCnCFOAbO7ozP6uYlk2el0mSn6NbOMzFpLhwrgFykzHpFFblx100ipGxcqJlchb2irB9mJQbRP7YPtEQ3vPEVZImsMh9U3DsL_jdw4lssKR-k7UtsLGSUXXpgHvjWGD0bCrTiWLqTQE8OCPKx57j9tDVeElWbVIHcziq_WcZeT-K7wLkVq5S-sc2TcuBDbRlOwL_7FyfbUBEP691dMqlLB9DGwwaPsUkAiNWjze5kPHoUhLEu4BUV_cZUhAlBKCuIRM_x-rYdhJSZ9IDX94nAv5boI0jS0ggACsn6op3XnCwALVQ05BujCCNkMVl91MLELaSO9roQTETQ8X3Yls3ijKr9HNccDkaxJYyzwYXHCg1gTOXY0Kr1W91GJ2P3KPgU8-Z__4ORaUwA01fc__1_ogtJn9nrbXwM_aXHFYZHA6l-l-rsEXJW2OjrjkcJtNvzuv_f8jYu8ksm88kScaJ16RKKKIQKKt8EE7a_6FWA2LQRz2iI9eud8maZ9v3mNa_M7wnPyG6g", "width": 4032}], "place_id": "ChIJP-CvWx77Qw0R-b4iPWz8IA0", "plus_code": {"compound_code": "39PG+MF La Acebeda, Spain", "global_code": "8CHR39PG+MF"}, "price_level": 1, "rating": 4.3, "reference": "ChIJP-CvWx77Qw0R-b4iPWz8IA0", "scope": "GOOGLE", "types": ["bar", "point_of_interest", "establishment"], "user_ratings_total": 38, "vicinity": "Calle de la Plazuela, 38, La Acebeda"}, {"business_status": "OPERATIONAL", "geometry": {"location": {"lat": 41.08666710000001, "lng": -3.6254963}, "viewport": {"northeast": {"lat": 41.0879975802915, "lng": -3.624154019708498}, "southwest": {"lat": 41.0852996197085, "lng": -3.626851980291503}}}, "icon": "https://maps.gstatic.com/mapfiles/place_api/icons/v1/png_71/generic_business-71.png", "icon_background_color": "#13B5C7", "icon_mask_base_uri": "https://maps.gstatic.com/mapfiles/place_api/icons/v2/generic_pinlet", "name": "La casa de la peña", "photos": [{"height": 3024, "html_attributions": ["<a href=\"https://maps.google.com/maps/contrib/101435323007056751956\">Sergio A. P.</a>"], "photo_reference": "AWn5SU4rll8XH3RnmdV9NfByhj11i5D-xxUwo6c81wIEtnFoXgGqEI7ILcYVAW6GBzo1WANsRiHRDx0KS2Bur2g8nw0Jgj3wgJiAv3qYjkfzYF3uhEQGqgZb9QYTy8258d3-WNELSnKqY0wX2-1vFv5h6oBl52GxlZr8eFrX3wqBzvxJSR_rV2-i9rGGnCB1ED7fUwYdC2GTGU4kdPEtIVavCYRzf2j6Wg7-6ZKTJdU2rqEpGkKBhwZaD5YIT7eOTy_FjKpsbhOP7a_j_VUNDSwYrrl56eMFJcKJTsOeXPedtTzYOfTuWjtQto45z_uMHApVRkNsyuNJcytYRz4hL4969g-Vdyg0F3O0mbMAW1bKgy3-VSfBgOK9B5zx8Vtn1a3vAP8BAD3Vh5Tedh5IEgrXDMS1zuGjvJv9xnX6aEmKh2GrvtLxIkG-hm4MNX4szp0OvYxUJr992urBe4cw-49RruiQJBsZyPpHGnusgJfR1jsOc7UvhKrqUgqSBdBOnPsGakjiQpI5zEWI6eY3Pqrtzmn2SsuhG3zwRyS-qR-B1VjVZdCFjm5llhqM-ltmuJXqHCNGi4YAUo5CMT4Mz3IosJgdl8SQ7BCr8Jdhq_ISsbdJ4qBS-09QlyNgldq6TF4zsg9EJA", "width": 4032}], "place_id": "ChIJpUgAQAD7Qw0ROv_QRabGbUI", "plus_code": {"compound_code": "39PF+MR La Acebeda, Spain", "global_code": "8CHR39PF+MR"}, "reference": "ChIJpUgAQAD7Qw0ROv_QRabGbUI", "scope": "GOOGLE", "types": ["point_of_interest", "establishment"], "vicinity": "Calle Puerto, La Acebeda"}, {"business_status": "OPERATIONAL", "geometry": {"location": {"lat": 41.08637909999999, "lng": -3.623849}, "viewport": {"northeast": {"lat": 41.0877256302915, "lng": -3.622519619708498}, "southwest": {"lat": 41.0850276697085, "lng": -3.625217580291502}}}, "icon": "https://maps.gstatic.com/mapfiles/place_api/icons/v1/png_71/generic_business-71.png", "icon_background_color": "#7B9EB0", "icon_mask_base_uri": "https://maps.gstatic.com/mapfiles/place_api/icons/v2/generic_pinlet", "name": "Asociacion de vecinos Amigos de La Acebeda", "opening_hours": {"open_now": false}, "photos": [{"height": 3456, "html_attributions": ["<a href=\"https://maps.google.com/maps/contrib/114322099034062727718\">Asociacion de vecinos Amigos de La Acebeda</a>"], "photo_reference": "AWn5SU7CejB7Hxkby5lfn2yDg17dDytQWG3bXgDnB0PHAN0RVlzBnYEWERS8qciMDTi-oqcmgIDJtzfSlAfS1cIF2rLRAs11js9hO9NN4sJ93jWqBOY-5D0vgGFS2Yfl91Oz0k6M5Ir5vcLwJymBCvFgbrHKeFY1YHFLRYkgtuyYhlXoWQ4fYaxQLe5nkbJnz3FzYyh6xsf-_0bF4EHs3U7lk4W1Zv_JKJmGNe0__RQL_OMidwXOQDIBwAPLe325sxTV9U0kyYKMgAuQsL-jVa5peKrydQrUrOcyJPujcGeJZnHotmFWbmesn5PQXybrNrPG6WnmES6SNow", "width": 5184}], "place_id": "ChIJbfEED177Qw0R3SJJjUjgJow", "plus_code": {"compound_code": "39PG+HF La Acebeda, Spain", "global_code": "8CHR39PG+HF"}, "reference": "ChIJbfEED177Qw0R3SJJjUjgJow", "scope": "GOOGLE", "types": ["point_of_interest", "establishment"], "vicinity": "La Acebeda"}, {"business_status": "OPERATIONAL", "geometry": {"location": {"lat": 41.08636630000001, "lng": -3.6237151}, "viewport": {"northeast": {"lat": 41.08770373029149, "lng": -3.622370969708498}, "southwest": {"lat": 41.08500576970849, "lng": -3.625068930291502}}}, "icon": "https://maps.gstatic.com/mapfiles/place_api/icons/v1/png_71/generic_business-71.png", "icon_background_color": "#7B9EB0", "icon_mask_base_uri": "https://maps.gstatic.com/mapfiles/place_api/icons/v2/generic_pinlet", "name": "Acebeda - Calle del Puerto 10", "photos": [{"height": 4000, "html_attributions": ["<a href=\"https://maps.google.com/maps/contrib/101846558503365605759\">DIEGO RAMOS</a>"], "photo_reference": "AWn5SU5bm7GatoP-_yswYzxDg0FikoTnxATebc-VsNa_QyK1vl-oOXdHWa-QgaicaFNwAfs4zUJ1jkc4vFqgb28w2ptoDnSN7zkqb1M2_6EB2ChKZig5t24e3yYVYoh-xzFhgx9VHemAWw1grYaNGTaAWZo-HPR9adK_VmDV1KR9A9BCdPd2tLU4tH4mGyTKiiJ-TXhTUL1uWxeJatrsE73sVe0hC192uQrm7RjlSuzr3Xf7d7dXchCRYCQeTRXP25m4bagZ8Q9SyMN0e_h1EiV1XXCxC5TZserLwqIyebHYYDo0VWLp8_0VkzymTfVa-wtq2jRv-PkM4S7w1Yg1LUneWPDnCIaeo9n9CKr31L7sStOBN_MOTYXd9bXOlSJM3GRdjYs9SJJDjY60UUWRotLCS_cZ2IaWOpmv283IOiQf6CryMOj71ehK2Ks7NuQW-X9sn08a-VyismKH1ZO2cJ2Jtb18e_ysgcjk_bzLIUljxNaDwzLcOwBew3hBRyGH_j-Xd_mn5KqPo-jMj6kGKo_eoxff8UscSOc5lBAjZuJj_8QC8LozXxOmb-m1nrpu9K4prybvHSmj2x4ztmG3LAlFFP-Ua5nM0M6rEKxrUE1r3Ni_j5Pe72QrtHoWjCkt5CYgsUhrfw", "width": 3000}], "place_id": "ChIJ08IkUB77Qw0RmXsQX90xbvc", "plus_code": {"compound_code": "39PG+GG La Acebeda, Spain", "global_code": "8CHR39PG+GG"}, "reference": "ChIJ08IkUB77Qw0RmXsQX90xbvc", "scope": "GOOGLE", "types": ["transit_station", "point_of_interest", "establishment"], "vicinity": "Spain"}, {"business_status": "OPERATIONAL", "geometry": {"location": {"lat": 41.0864714, "lng": -3.6234641}, "viewport": {"northeast": {"lat": 41.0877277302915, "lng": -3.622139469708498}, "southwest": {"lat": 41.0850297697085, "lng": -3.624837430291503}}}, "icon": "https://maps.gstatic.com/mapfiles/place_api/icons/v1/png_71/generic_business-71.png", "icon_background_color": "#7B9EB0", "icon_mask_base_uri": "https://maps.gstatic.com/mapfiles/place_api/icons/v2/generic_pinlet", "international_phone_number": "+34 689 99 39 49", "name": "CreaACción", "photos": [{"height": 768, "html_attributions": ["<a href=\"https://maps.google.com/maps/contrib/116292122367681909077\">CreaACción</a>"], "photo_reference": "AWn5SU6hLvrTCMc0OxvksmIcOKiMx-ECoe57QPonuNa5i1bhB-1J8j32waWrea2trf_gtpkyAZFRaxK3pKnhCRgUvh-wsD6cKHxgAFT_QdqD1lcSO3yPd0YbWL2HwcmFksKukcrmE3Igk0aNXJ1pVTRPnUVI3z0_ng7G6pFyh-TnsgHJn5w16FDjesq4RjrkShm_8z4noI9iU92_sl3I6ks7AEJ5BjsWKsOPbW2pEbWORGlHi2Df0YFzBN-KEXd9k55zBNghMNMuubJKpMf8tkHeZgNgirZo5qbcfejrFE99dxGCzb-ACb2-55EtXIHfiRBEsver6Jr19TA", "width": 1024}], "place_id": "ChIJtVdgs2L7Qw0RMO7JXb-VhB8", "plus_code": {"compound_code": "39PG+HJ La Acebeda, Spain", "global_code": "8CHR39PG+HJ"}, "reference": "ChIJtVdgs2L7Qw0RMO7JXb-VhB8", "scope": "GOOGLE", "types": ["point_of_interest", "school", "health", "establishment"], "vicinity": "Calle Puerto, 4, La Acebeda"}, {"business_status": "OPERATIONAL", "geometry": {"location": {"lat": 41.0875942, "lng": -3.623495699999999}, "viewport": {"northeast": {"lat": 41.0890064802915, "lng": -3.622336769708498}, "southwest": {"lat": 41.0863085197085, "lng": -3.625034730291502}}}, "icon": "https://maps.gstatic.com/mapfiles/place_api/icons/v1/png_71/generic_business-71.png", "icon_background_color": "#7B9EB0", "icon_mask_base_uri": "https://maps.gstatic.com/mapfiles/place_api/icons/v2/generic_pinlet", "name": "P6ug7jbujhhplarque", "place_id": "ChIJPUJNQDX7Qw0Rro7GxLovkzc", "plus_code": {"compound_code": "39QG+2J La Acebeda, Spain", "global_code": "8CHR39QG+2J"}, "rating": 5, "reference": "ChIJPUJNQDX7Qw0Rro7GxLovkzc", "scope": "GOOGLE", "types": ["point_of_interest", "establishment"], "user_ratings_total": 2, "vicinity": "Plaza Nicasio González Moren, 6, La Acebeda"}, {"business_status": "OPERATIONAL", "geometry": {"location": {"lat": 41.086398, "lng": -3.6233695}, "viewport": {"northeast": {"lat": 41.0876825802915, "lng": -3.622033519708498}, "southwest": {"lat": 41.0849846197085, "lng": -3.624731480291502}}}, "icon": "https://maps.gstatic.com/mapfiles/place_api/icons/v1/png_71/lodging-71.png", "icon_background_color": "#909CE1", "icon_mask_base_uri": "https://maps.gstatic.com/mapfiles/place_api/icons/v2/hotel_pinlet", "international_phone_number": "+34 649 92 61 46", "name": "Hotel Restaurante El Acebo", "photos": [{"height": 2160, "html_attributions": ["<a href=\"https://maps.google.com/maps/contrib/108991065925202119120\">Jesus</a>"], "photo_reference": "AWn5SU7ODerCh6BZK6vvg3vMDPVUmVx3ClJmAQ0FU-V_UzttSDvTtVsFWhG3svZ1dOIwQt2wAfAdnA9F9k49UHsFOhgYxRx8E3cN5l5GzLg7hUegeoLpfgTcQFmQoZ8hnS_P85uQ_bFkVhitwWqNLQ01dQ4BqQkRfrcAtxHHDnhOz1CGNohVVqgISWlITvGy7SZFP5HhEET_cj4WuIp2RMqa1ZZ0XM_kWVNAiNpu6SjPvkwgOSZb5frqdq-nLOlKiZ_wtGCRXJtPrGuAhA-jsZeVTc3sT0Rkh_eCOon34n7Fj3bmpHpLhcDkOl2aX1KcoBJ85RauIJk0T9rNqM3xb23LF4hpjC3t_OMg8ScMB9XIoN6iL34cXfUdy22-wZTA048KzalI3Yd52eE6jGjkBbDHRqtwLti2P5mK0p2hn8yoiwDHTsPpKOa51VIEwYRxjXi3KucILxDaANu7626VSMhX6_YamJLHwV8lpCDa0JqNuAHgITYTh2EBFNICuMkUf0Xa4IvntgiKFCXGYs2_wlya6dEB3USbxVKdHW4pYX0kEzkKtOuuUNsACav5NS0Ucdd2KVURregz1xnngene12ONhD4dFkRCO4uBKAxCL0uodzbqOTHJW0FCRIitAa8tvap0X0wFUxI3", "width": 3840}], "place_id": "ChIJI_IoTx77Qw0RpQmCCJ291Ew", "plus_code": {"compound_code": "39PG+HM La Acebeda, Spain", "global_code": "8CHR39PG+HM"}, "rating": 4, "reference": "ChIJI_IoTx77Qw0RpQmCCJ291Ew", "scope": "GOOGLE", "types": ["lodging", "point_of_interest", "establishment"], "user_ratings_total": 82, "vicinity": "Calle Puerto, 2, La Acebeda"}, {"business_status": "OPERATIONAL", "geometry": {"location": {"lat": 41.08669459999999, "lng": -3.6261457}, "viewport": {"northeast": {"lat": 41.0880761802915, "lng": -3.624787919708498}, "southwest": {"lat": 41.0853782197085, "lng": -3.627485880291502}}}, "icon": "https://maps.gstatic.com/mapfiles/place_api/icons/v1/png_71/generic_business-71.png", "icon_background_color": "#7B9EB0", "icon_mask_base_uri": "https://maps.gstatic.com/mapfiles/place_api/icons/v2/generic_pinlet", "name": "LOS SECRETOS DE LUA, Sierra Norte Madrid, Alojamientos Rurales", "opening_hours": {"open_now": false}, "photos": [{"height": 3000, "html_attributions": ["<a href=\"https://maps.google.com/maps/contrib/106794101391375836753\">LOS SECRETOS DE LUA, Sierra Norte Madrid, Alojamientos Rurales</a>"], "photo_reference": "AWn5SU55oCSqwdJHHe1Eyv8qCOvZWpF8Y8HBCa9cccVsBoW1SXKmuc31T9grDUW2OCvH9Ozy3a2LsUpdOsOmNB-JZc-OOdRIVjCtD9LlWKWat-oPXVkeaw6sH7AFH_X9y_riPqKhRaDxcB52uAAUg890TN7dLhKVXjnlESt29IL46usMj9rWiNoKtMiFLJcRC8FvbZx6eyRVgnIaxOMnnhMVlat5x8bRkaqaPPD9wy43TBK9yaNanMqWfccIMx6omdoQ73Pas8L3Vl5csChvguRYFGEalH3i-2CrmWj7fhQUm70ZRA7wybHqEzS3ZFg77DX8cacTWcOE", "width": 4000}], "place_id": "ChIJl35xeOf7Qw0R1Cbn6Tnc8RU", "plus_code": {"compound_code": "39PF+MG La Acebeda, Spain", "global_code": "8CHR39PF+MG"}, "rating": 4.1, "reference": "ChIJl35xeOf7Qw0R1Cbn6Tnc8RU", "scope": "GOOGLE", "types": ["point_of_interest", "establishment"], "user_ratings_total": 46, "vicinity": "Calle Puerto, 69, La Acebeda"}, {"business_status": "OPERATIONAL", "geometry": {"location": {"lat": 41.0885593, "lng": -3.6220665}, "viewport": {"northeast": {"lat": 41.0899108302915, "lng": -3.620720519708498}, "southwest": {"lat": 41.0872128697085, "lng": -3.623418480291502}}}, "icon": "https://maps.gstatic.com/mapfiles/place_api/icons/v1/png_71/parking-71.png", "icon_background_color": "#7B9EB0", "icon_mask_base_uri": "https://maps.gstatic.com/mapfiles/place_api/icons/v2/parking_pinlet", "name": "Parking del Camping La Acebeda", "opening_hours": {"open_now": true}, "photos": [{"height": 1920, "html_attributions": ["<a href=\"https://maps.google.com/maps/contrib/108991065925202119120\">Jesus</a>"], "photo_reference": "AWn5SU68gDhfN8Fang-fixRu9WEj8QKKt_7ZTIwFczzA2ITr0EyjMpAFx-0LXRY6fshMBoKvYEXPXUDbAnutps2NvFO_gOQ7ihv-2buyxe0AVrj4cvctpsCShlS4d6k0TP6EaiZxEMr2vbfT3xT4mwtzjIBuwMO6B4D1a4UEocI8dQaLg0GXmrfd2r5CkCOkMSnl7nUBFUjezrCJpgqAU6XS5Jo4jnZciFAS7QrSKSIxFAJOFXqHb10q10Qz3bKOr4ykYM1J5QyihmheQorlQlBFo8Vmb-ddyAXzXXLpG1Gg6A0MfY3asXjiErssYLHDYpCsfQJPZDNUGDeOCBOzvY-9EOA6rIRT4hk3ZBwnTa6IUCdnD3k7UjpVPfRmHugrsanzhhps07ZkLzWSGrsEiycjw71S_Pm_x9euebBwJLq67-Btl1wgKs3osmPV8njBhsPXJrPnyX6FrokGrNumT5S3ByKDKlHrPlR4jeByd6zTieSwB2GoaudVWEWoF26OVSvBUjoRQdS8UsC8KQA7cXCa7GpuwtmeKmuK_N0Ddo3gomf_-OqczcIWH-n8iobOVWpVkFMVzuxmLr2NAsVFoWrpigwBY2jeitU2722LZfFZSR6BCcWLJxmz1U66Hv47GIAs75YRjw", "width": 1080}], "place_id": "ChIJsY6ho2D7Qw0RUZLap0OvPeU", "plus_code": {"compound_code": "39QH+C5 La Acebeda, Spain", "global_code": "8CHR39QH+C5"}, "rating": 4.2, "reference": "ChIJsY6ho2D7Qw0RUZLap0OvPeU", "scope": "GOOGLE", "types": ["parking", "point_of_interest", "establishment"], "user_ratings_total": 5, "vicinity": "La Acebeda"}, {"business_status": "OPERATIONAL", "geometry": {"location": {"lat": 41.0891781, "lng": -3.6269373}, "viewport": {"northeast": {"lat": 41.0905187802915, "lng": -3.625448219708498}, "southwest": {"lat": 41.0878208197085, "lng": -3.628146180291502}}}, "icon": "https://maps.gstatic.com/mapfiles/place_api/icons/v1/png_71/airport-71.png", "icon_background_color": "#10BDFF", "icon_mask_base_uri": "https://maps.gstatic.com/mapfiles/place_api/icons/v2/airport_pinlet", "name": "Helipuerto de la Acebeda", "place_id": "ChIJuywLsor7Qw0Rnd386cBSCdU", "reference": "ChIJuywLsor7Qw0Rnd386cBSCdU", "scope": "GOOGLE", "types": ["airport", "point_of_interest", "establishment"], "vicinity": "39QF+M6, La Acebeda"}, {"business_status": "OPERATIONAL", "geometry": {"location": {"lat": 41.0893937, "lng": -3.6217933}, "viewport": {"northeast": {"lat": 41.0905436302915, "lng": -3.620257969708498}, "southwest": {"lat": 41.0878456697085, "lng": -3.622955930291503}}}, "icon": "https://maps.gstatic.com/mapfiles/place_api/icons/v1/png_71/generic_business-71.png", "icon_background_color": "#13B5C7", "icon_mask_base_uri": "https://maps.gstatic.com/mapfiles/place_api/icons/v2/generic_pinlet", "name": "Antiguo molino de agua", "opening_hours": {"open_now": true}, "photos": [{"height": 2750, "html_attributions": ["<a href=\"https://maps.google.com/maps/contrib/110697038288876209753\">Maksym Padun</a>"], "photo_reference": "AWn5SU4eFv-P9os80LRFDllXH_Oal3cu4Jt5zug-MPc1T8xKZYpBEA0s3FA1UKcmVw1U0OoJfk6NY4ps4JttGWl8rge-KEB0EgcG4UMAeCsW9y448oiE78HIP5WDTGKv3jpKaqEimv27TSYkHysAogOh9Uu_kyiMHylo-_XRRB-_lr0ODc1rFfzw2hQZlg4cEEAja8lxBQneKaht2Eb5owhzXO-YU9EU_XmCdiXOLa_pLPi7uQeNl5VazJH1l6ghwsiYEfZchwBr8HH2aTbpwSMClaNDDEgVudWDncDUPXEBm2BDCoj94xn1c1hn0B6cqt1xKA0RJ2kSlcTsVgwY6AdQ2W5OhJGR-rEO2lAtvhxmax3BL7P0XIaeGsPQ47gGHYqyTOdedt90p1n80pu0Ztbjsj83boKf7nb1tJuXbX7PDzogOK3rNnDwTgkuFEJWqUmBWVrXaW5B8_EDWxpIn7PGGXErSeEW3ACOfaeHJ4Ndsfme7_n-941RtAFOL3yDuskfVWcd2ZHSuzb56hBrVJ0VGPUhBYX6CyowhKF6BzZWCLnwByfvD-W9FwaacT2tnxzpKdDVYqfiMhLPI6ytdGxam8Wz6kIF-cIa24fyEvWmarxS6amT5NR--41tUtYutOQqcWBWQxmX", "width": 3666}], "place_id": "ChIJ0VP2jRr7Qw0RU4Sjvl43TMY", "plus_code": {"compound_code": "39QH+Q7 La Acebeda, Spain", "global_code": "8CHR39QH+Q7"}, "rating": 5, "reference": "ChIJ0VP2jRr7Qw0RU4Sjvl43TMY", "scope": "GOOGLE", "types": ["tourist_attraction", "point_of_interest", "establishment"], "user_ratings_total": 2, "vicinity": "Diseminado Cm Robregordo, 8, La Acebeda"}, {"business_status": "OPERATIONAL", "geometry": {"location": {"lat": 41.0853291, "lng": -3.6203654}, "viewport": {"northeast": {"lat": 41.08660663029149, "lng": -3.619066119708497}, "southwest": {"lat": 41.08390866970849, "lng": -3.621764080291502}}}, "icon": "https://maps.gstatic.com/mapfiles/place_api/icons/v1/png_71/cemetery_grave-71.png", "icon_background_color": "#7B9EB0", "icon_mask_base_uri": "https://maps.gstatic.com/mapfiles/place_api/icons/v2/cemetery_pinlet", "name": "Cemetery", "place_id": "ChIJAQB_SOD6Qw0Rngs5Se3NFOA", "plus_code": {"compound_code": "39PH+4V La Acebeda, Spain", "global_code": "8CHR39PH+4V"}, "reference": "ChIJAQB_SOD6Qw0Rngs5Se3NFOA", "scope": "GOOGLE", "types": ["cemetery", "point_of_interest", "establishment"], "vicinity": "Spain"}]