[{"business_status": "OPERATIONAL", "geometry": {"location": {"lat": 40.57503250000001, "lng": -3.9288201}, "viewport": {"northeast": {"lat": 40.57642898029151, "lng": -3.927440719708498}, "southwest": {"lat": 40.57373101970851, "lng": -3.930138680291503}}}, "icon": "https://maps.gstatic.com/mapfiles/place_api/icons/v1/png_71/bank-71.png", "icon_background_color": "#909CE1", "icon_mask_base_uri": "https://maps.gstatic.com/mapfiles/place_api/icons/v2/bank-intl_pinlet", "international_phone_number": "+34 918 54 93 82", "name": "Banco Sabadell", "opening_hours": {"open_now": false}, "photos": [{"height": 1080, "html_attributions": ["<a href=\"https://maps.google.com/maps/contrib/113281604337440327855\">Banco Sabadell</a>"], "photo_reference": "AWn5SU4bt_u1qSXs55j43Jy9b8MJe1_AfUMJLdP5ejfARoYCHnuQMarUlyPIyln6m1xK_XshjOXy0Yc9qNZWsvV1Ma8MwtuhCapOQweT5JmSGzOllCm5ptuFarSzNmM5zCdZhyPWHgvQFGpaiiCMwIlqj48UIKy8sVzG_0wXVxBR5pKiqQRjT3NzTRtRRp4jmZwLTrQd62XL8A46Nc5it-57JaX-Q2zXm_k69hjvpI_NO03fRZsI6r_RHwxXbx9ZBUqMR-9eybzZWEwOHlJ3YODAsVfgz7T_0qKJdHr6tzpOKbx4Px-XsCoL04g5gWrzFYnbmLkld-LgtG4", "width": 1920}], "place_id": "ChIJAQAAQBViLw0RWot-Zf_pnOg", "plus_code": {"compound_code": "H3GC+2F Torrelodones, Spain", "global_code": "8CGRH3GC+2F"}, "rating": 3.1, "reference": "ChIJAQAAQBViLw0RWot-Zf_pnOg", "scope": "GOOGLE", "types": ["bank", "atm", "accounting", "finance", "point_of_interest", "establishment"], "user_ratings_total": 53, "vicinity": "Camino de Valladolid, 3, 5-7, Torrelodones"}, {"business_status": "OPERATIONAL", "geometry": {"location": {"lat": 40.5756563, "lng": -3.9305027}, "viewport": {"northeast": {"lat": 40.57704623029149, "lng": -3.929120019708498}, "southwest": {"lat": 40.5743482697085, "lng": -3.931817980291502}}}, "icon": "https://maps.gstatic.com/mapfiles/place_api/icons/v1/png_71/bank-71.png", "icon_background_color": "#909CE1", "icon_mask_base_uri": "https://maps.gstatic.com/mapfiles/place_api/icons/v2/bank-intl_pinlet", "international_phone_number": "+34 918 59 54 02", "name": "Ibercaja Banco", "opening_hours": {"open_now": false}, "photos": [{"height": 900, "html_attributions": ["<a href=\"https://maps.google.com/maps/contrib/100239789236171216269\">Ibercaja Banco</a>"], "photo_reference": "AWn5SU4iRIdh_hCSwEZCB6d2tHpDjUwQy5l5xmHu31r8hohmcWVG-rfiXvU6EM8jeR5TDJFr--m11se5NwwgUJBXiKa8F_ZsGZTgz4Dojc9s16N8ZXNU8bsqIBCi5Pzn3rIbhkHw2M8uqFtxNR4Xw9upHVIMcN_Qb5E6F2uLn_Lyr4c2FV526Q20ZCl4ddMKh9RPhtRpnDuDaH6I-XTft5sLoI1BqbJBBOyAyLYJqtJAAYh9vdfaB88PmvJLNXeAcVvhBOW7VQpB80jYq3mkr5P2v7tCGQAkeGJeQKFwVW-rGEzIhxzMdTX84ri3kUHgWwu9cO9FT2zsDfA", "width": 1600}], "place_id": "ChIJH9BO9dx3QQ0RAIH4LrJRaVM", "plus_code": {"compound_code": "H3G9+7Q Torrelodones, Spain", "global_code": "8CGRH3G9+7Q"}, "rating": 3.4, "reference": "ChIJH9BO9dx3QQ0RAIH4LrJRaVM", "scope": "GOOGLE", "types": ["bank", "atm", "accounting", "finance", "point_of_interest", "establishment"], "user_ratings_total": 5, "vicinity": "Camino de Valladolid, 17, Torrelodones"}, {"business_status": "OPERATIONAL", "geometry": {"location": {"lat": 40.5766939, "lng": -3.930955000000001}, "viewport": {"northeast": {"lat": 40.57798673029149, "lng": -3.929645169708498}, "southwest": {"lat": 40.57528876970849, "lng": -3.932343130291502}}}, "icon": "https://maps.gstatic.com/mapfiles/place_api/icons/v1/png_71/bank-71.png", "icon_background_color": "#909CE1", "icon_mask_base_uri": "https://maps.gstatic.com/mapfiles/place_api/icons/v2/bank-intl_pinlet", "international_phone_number": "+34 918 59 11 62", "name": "Banco Santander", "opening_hours": {"open_now": false}, "photos": [{"height": 720, "html_attributions": ["<a href=\"https://maps.google.com/maps/contrib/116056535376303158528\">Banco Santander</a>"], "photo_reference": "AWn5SU55KYGEgE939OX7O1c2uwA6m4XkE-H6OB1cMJlNIlOJS9NLdZsm-SmXPsDfswHFzv536m-B0TmJY-tEjyk9jTvaOjOoLQdEE56Vn_wwYfQCtYP4IpTsrNfFdVJI-qO3tICd0PwykLClyAOQ5TOSoyN19IPC1QAEchTjlptPW4wyFPVyun3Rkln3cLRSuw8UQp6ZGo9Qug34l_hni1wlDKoEut-jzZTWuIwtO7L3VUTG6PToI8gFIga7D7qVsWBZ6pS8nDOXN5TKYkP4-jZ510rIL1UJFx_7gY3XvOoSwjtgH1nI2QxWrZqluoUQvYKoqxJUWJ-PLTU", "width": 1280}], "place_id": "ChIJxcfNltx3QQ0RxLU7GzwiaDs", "plus_code": {"compound_code": "H3G9+MJ Torrelodones, Spain", "global_code": "8CGRH3G9+MJ"}, "rating": 2.5, "reference": "ChIJxcfNltx3QQ0RxLU7GzwiaDs", "scope": "GOOGLE", "types": ["bank", "atm", "finance", "point_of_interest", "establishment"], "user_ratings_total": 47, "vicinity": "Calle Carlos Picabea, 10, Torrelodones"}, {"business_status": "OPERATIONAL", "geometry": {"location": {"lat": 40.57496139999999, "lng": -3.928373}, "viewport": {"northeast": {"lat": 40.5763194802915, "lng": -3.927061219708497}, "southwest": {"lat": 40.5736215197085, "lng": -3.929759180291502}}}, "icon": "https://maps.gstatic.com/mapfiles/place_api/icons/v1/png_71/atm-71.png", "icon_background_color": "#909CE1", "icon_mask_base_uri": "https://maps.gstatic.com/mapfiles/place_api/icons/v2/atm_pinlet", "international_phone_number": "+34 902 32 30 00", "name": "Sabadell Bank ATM", "opening_hours": {"open_now": true}, "place_id": "ChIJRbIbu913QQ0R0gb7zkrATBs", "plus_code": {"compound_code": "H3FC+XM Torrelodones, Spain", "global_code": "8CGRH3FC+XM"}, "rating": 5, "reference": "ChIJRbIbu913QQ0R0gb7zkrATBs", "scope": "GOOGLE", "types": ["atm", "finance", "point_of_interest", "establishment"], "user_ratings_total": 1, "vicinity": "Camino de Valladolid, 3,5, 7, Torrelodones"}, {"business_status": "OPERATIONAL", "geometry": {"location": {"lat": 40.578787, "lng": -3.9540023}, "viewport": {"northeast": {"lat": 40.58017673029151, "lng": -3.952613319708498}, "southwest": {"lat": 40.57747876970851, "lng": -3.955311280291502}}}, "icon": "https://maps.gstatic.com/mapfiles/place_api/icons/v1/png_71/atm-71.png", "icon_background_color": "#909CE1", "icon_mask_base_uri": "https://maps.gstatic.com/mapfiles/place_api/icons/v2/atm_pinlet", "international_phone_number": "+34 918 59 67 20", "name": "Bankia ATM", "opening_hours": {"open_now": true}, "photos": [{"height": 1920, "html_attributions": ["<a href=\"https://maps.google.com/maps/contrib/111324835818206974599\">Fernando Conde</a>"], "photo_reference": "AWn5SU771Xmn45a2DECXwAZ_pHEFqd1fVJqu0AJvbbU4IHJEqKoiJRTN3PyjhvNcecVIEEqcFUdOiIDyu4Z2ZKjH3hQzRtoE5PHlHO9yTlEULO6a0zxPc9VCroXKm2B95_bPo11xiKEyvQ6Szs2aecdlU_FaHRy0igcEvuqFCackM6E9yjOdt1GwwsImtJOmKkm3xB3LxyEJiBr-XQEOwEQTOdmtKGvJjGCrfVLN9byi4hyutaWQk6jNAys589P9Z29kEZ4mnjHmGt_U6XY4oPDRhExkscNXLwQnegjGmXE_vOA5UjubDd8UZ4YlPkA7q8j8FYJkH33JMKaPCf5vEccKxMkoorQtSVtLrKwpxSuN_YFlj8S7MlEmxMZtnzQR_te7aLejqoQeBte6j7dW7T0UNzuWuBY3-treo8KB0wfOvWrjkrUTMiZ55X09pTHZd0x_u60rY2p5LRVaP6Wdx_B3dSpexmCg801BcLB7iwHwyDEwmK4uSwe2hjAKmGAWWR1_B-6BpsdsWZzBxS_uqJ0wmatpggA6WKR16V-bqEfcRfmVMKzP0ucGYZqMlMGCLCoQvv3AYHvj32qkZz3vWzZMEeUAK1Mla6zrbxmnxQEe_uDnJlnaye5Q-Z72gdKsoizRBZuhiA", "width": 1080}], "place_id": "ChIJ68PMuTF2QQ0RAMUomomrfTc", "plus_code": {"compound_code": "H2HW+G9 Torrelodones, Spain", "global_code": "8CGRH2HW+G9"}, "rating": 5, "reference": "ChIJ68PMuTF2QQ0RAMUomomrfTc", "scope": "GOOGLE", "types": ["atm", "finance", "point_of_interest", "establishment"], "user_ratings_total": 1, "vicinity": "Calle Jesusa Lara, 29, Torrelodones"}, {"business_status": "OPERATIONAL", "geometry": {"location": {"lat": 40.62216069999999, "lng": -3.906248900000001}, "viewport": {"northeast": {"lat": 40.62346323029149, "lng": -3.904920469708498}, "southwest": {"lat": 40.62076526970849, "lng": -3.907618430291502}}}, "icon": "https://maps.gstatic.com/mapfiles/place_api/icons/v1/png_71/bank-71.png", "icon_background_color": "#909CE1", "icon_mask_base_uri": "https://maps.gstatic.com/mapfiles/place_api/icons/v2/bank-intl_pinlet", "international_phone_number": "+34 918 56 99 42", "name": "Banco Santander Agentes", "opening_hours": {"open_now": false}, "photos": [{"height": 720, "html_attributions": ["<a href=\"https://maps.google.com/maps/contrib/103500091520722762488\">Banco Santander Agentes</a>"], "photo_reference": "AWn5SU4W3GxRZAmr9y-QW3_R9X8rNztqsOMRkJrvYwjFwmjTVeMgAzKg6083-YpZ2OHhOIxy8Qn2_R6Mwp64FeivSNfImzET8dVCHSjOGI89o44_JHv8PK1Q5uDz-36l7gfPZ0sCxWI2doUp1xxFgZEfF2XAo5fwkp7xp_QGwDt9jV3-kIQXiSrVXXDHghpuZI6dfJrDp4vh5g6aLTiXcv9RvSIDPIX4DXvXEY4xjDhst4xQwCvvH3gSxCfusCXqKXVuQJIsvrHawrWA_jlKRI5JG8Tkc_9l73QubCt6TjG8g489w7KOsOx7HZOawkWRyLZNAN9bZsNR08I", "width": 1280}], "place_id": "ChIJSwWRf2J3QQ0R3eed1Fiyazc", "plus_code": {"compound_code": "J3CV+VG Hoyo de Manzanares, Spain", "global_code": "8CGRJ3CV+VG"}, "rating": 3.2, "reference": "ChIJSwWRf2J3QQ0R3eed1Fiyazc", "scope": "GOOGLE", "types": ["bank", "atm", "finance", "point_of_interest", "establishment"], "user_ratings_total": 5, "vicinity": "Plaza de la Iglesia, 2, Hoyo de Manzanares"}, {"business_status": "OPERATIONAL", "geometry": {"location": {"lat": 40.62182250000001, "lng": -3.9061491}, "viewport": {"northeast": {"lat": 40.6231723302915, "lng": -3.904849719708498}, "southwest": {"lat": 40.6204743697085, "lng": -3.907547680291502}}}, "icon": "https://maps.gstatic.com/mapfiles/place_api/icons/v1/png_71/atm-71.png", "icon_background_color": "#909CE1", "icon_mask_base_uri": "https://maps.gstatic.com/mapfiles/place_api/icons/v2/atm_pinlet", "name": "Punto Nickel - ESTANCO HOYO DE MANZANARES - 001", "opening_hours": {"open_now": false}, "place_id": "ChIJ8wy3RZd5QQ0RRAhfMmYIBBs", "plus_code": {"compound_code": "J3CV+PG Hoyo de Manzanares, Spain", "global_code": "8CGRJ3CV+PG"}, "reference": "ChIJ8wy3RZd5QQ0RRAhfMmYIBBs", "scope": "GOOGLE", "types": ["atm", "bank", "finance", "point_of_interest", "establishment"], "vicinity": "Plaza de la Iglesia, 6, Hoyo de Manzanares"}, {"business_status": "OPERATIONAL", "geometry": {"location": {"lat": 40.62149720000001, "lng": -3.9071968}, "viewport": {"northeast": {"lat": 40.6228880302915, "lng": -3.905863469708497}, "southwest": {"lat": 40.6201900697085, "lng": -3.908561430291501}}}, "icon": "https://maps.gstatic.com/mapfiles/place_api/icons/v1/png_71/atm-71.png", "icon_background_color": "#909CE1", "icon_mask_base_uri": "https://maps.gstatic.com/mapfiles/place_api/icons/v2/atm_pinlet", "international_phone_number": "+34 900 404 090", "name": "ATM CaixaBank - Cajero", "opening_hours": {"open_now": true}, "photos": [{"height": 382, "html_attributions": ["<a href=\"https://maps.google.com/maps/contrib/110479386172250105290\">ATM CaixaBank - Cajero</a>"], "photo_reference": "AWn5SU7sr8ASglL2UnjfdQWGoLEgJiJ6MUoDh5gsM5Ar3HoRx86zAHqa__YHU43QzuQ_jAwEmguP66hH9uOYdFl2MJ3FLPayZbijMAI3sZdadoa5pAAyzh7yijNj-KcAE2-dC82oXFPHs-dHhu_EsNT-ZY_rskKH04vVr_blv9L_m_U_Dkufbuj-SC5IqD-im7XrDuWi7QWkypACnRuBbJDH7oOJdF_YyWNsWcDbY3yJlpIZFoOZ67ULx9VVp1GkzgOfqJ4XGYfP5pS5SHLoL2dJ5qzkbIW8m3z-5_VY-rWvLBBfIyhzYGUs8MzOuNLJcInd8BnLjRYudqw", "width": 680}], "place_id": "ChIJRSpz82R3QQ0Rxbw2jgDeAwo", "plus_code": {"compound_code": "J3CV+H4 Hoyo de Manzanares, Spain", "global_code": "8CGRJ3CV+H4"}, "reference": "ChIJRSpz82R3QQ0Rxbw2jgDeAwo", "scope": "GOOGLE", "types": ["atm", "finance", "point_of_interest", "establishment"], "vicinity": "Calle Hurtada, 4, Hoyo de Manzanares"}, {"business_status": "OPERATIONAL", "geometry": {"location": {"lat": 40.6214777, "lng": -3.9072865}, "viewport": {"northeast": {"lat": 40.6228495302915, "lng": -3.905976419708497}, "southwest": {"lat": 40.6201515697085, "lng": -3.908674380291502}}}, "icon": "https://maps.gstatic.com/mapfiles/place_api/icons/v1/png_71/bank-71.png", "icon_background_color": "#909CE1", "icon_mask_base_uri": "https://maps.gstatic.com/mapfiles/place_api/icons/v2/bank-intl_pinlet", "international_phone_number": "+34 600 40 40 90", "name": "CaixaBank", "opening_hours": {"open_now": false}, "photos": [{"height": 1192, "html_attributions": ["<a href=\"https://maps.google.com/maps/contrib/117881242464356132597\">CaixaBank</a>"], "photo_reference": "AWn5SU7uN-Hsn8X8QzwHH9VkfF7gqd2GdW54TeCJVeLmX6z6KBJvvxqdzmwAGQgaZtNtbHCFIugrF5UhO4PQkpypu7E-RjfvUiUwkMFGbaSFss1kx6kchAGzaL-BjIB_gAMpFl9tnZ8UOOAFfi0DKziOEdjM7qTz9q7H_fGpH2K1CQz9U9qsyTdoJRVdZ1Pehltof54yxB0VmhZrH5FCJN6dwUhZLDHtD5AVjrvu2OugSNS56Qwv3A5KwGuCqgsF3UHo9yshzSfybt89C6LJOljrKnHwjLwoRPQtsGHLIG8T_xF8xIvBjsLDs7QTfSJkSlkFOTtRPcslieo", "width": 2120}], "place_id": "ChIJ_4fWipx3QQ0RJG3vqAvbGiw", "plus_code": {"compound_code": "J3CV+H3 Hoyo de Manzanares, Spain", "global_code": "8CGRJ3CV+H3"}, "rating": 2, "reference": "ChIJ_4fWipx3QQ0RJG3vqAvbGiw", "scope": "GOOGLE", "types": ["bank", "atm", "finance", "point_of_interest", "establishment"], "user_ratings_total": 4, "vicinity": "Calle Hurtada, 4, Hoyo de Manzanares"}, {"business_status": "OPERATIONAL", "geometry": {"location": {"lat": 40.6214678, "lng": -3.9079951}, "viewport": {"northeast": {"lat": 40.6227666802915, "lng": -3.906598419708497}, "southwest": {"lat": 40.6200687197085, "lng": -3.909296380291502}}}, "icon": "https://maps.gstatic.com/mapfiles/place_api/icons/v1/png_71/generic_business-71.png", "icon_background_color": "#7B9EB0", "icon_mask_base_uri": "https://maps.gstatic.com/mapfiles/place_api/icons/v2/generic_pinlet", "international_phone_number": "+34 918 56 95 05", "name": "Eurocaja Rural", "opening_hours": {"open_now": false}, "place_id": "ChIJp4jCECZ3QQ0RPQAKdZul0Tw", "plus_code": {"compound_code": "J3CR+HR Hoyo de Manzanares, Spain", "global_code": "8CGRJ3CR+HR"}, "rating": 5, "reference": "ChIJp4jCECZ3QQ0RPQAKdZul0Tw", "scope": "GOOGLE", "types": ["atm", "bank", "finance", "point_of_interest", "establishment"], "user_ratings_total": 4, "vicinity": "PZ DE LA, Plaza de Hontanilla, 2, Hoyo de Manzanares"}, {"business_status": "OPERATIONAL", "geometry": {"location": {"lat": 40.626345, "lng": -3.8802995}, "viewport": {"northeast": {"lat": 40.6276273302915, "lng": -3.878848719708498}, "southwest": {"lat": 40.6249293697085, "lng": -3.881546680291502}}}, "icon": "https://maps.gstatic.com/mapfiles/place_api/icons/v1/png_71/bank-71.png", "icon_background_color": "#909CE1", "icon_mask_base_uri": "https://maps.gstatic.com/mapfiles/place_api/icons/v2/bank-intl_pinlet", "international_phone_number": "+34 918 56 95 50", "name": "Oficina BBVA para empleados de Mº Defensa", "opening_hours": {"open_now": false}, "photos": [{"height": 720, "html_attributions": ["<a href=\"https://maps.google.com/maps/contrib/110634579496657955453\">Oficina BBVA para empleados de Mº Defensa</a>"], "photo_reference": "AWn5SU5FVjr3RhMjwkhK-PcNX7VYNO5sb6DMzGZ9fotZzSe4pmqzOozK1ub8m3juahhBBY0ABo2P-YOcOfWTQ9KNk3IBbf_PuZ9wWTBHIY5L1htEOc_IMgY3nT1e3PMal2H90lKbmOcLsQxNKq1CarVLJod9L_V6TuA9xdVITdGJysvgDVRzJGa715QSnGhUzdKIKlYESf9CZXHXSZejSN5AU02azzsicmiux_0s1jYw8irENZfXZLswhw9wMYnqkfYNBni76BtP9cHXzOAc06x6UE0n8Jfyqx8TKdUxbSzKJcv3bnqS1vqdz4RBDasZx3BKbe8r9TIfUBI", "width": 1280}], "place_id": "ChIJNSnAO-J5QQ0RNy6Aug_yD7U", "plus_code": {"compound_code": "J4G9+GV Hoyo de Manzanares, Spain", "global_code": "8CGRJ4G9+GV"}, "rating": 2, "reference": "ChIJNSnAO-J5QQ0RNy6Aug_yD7U", "scope": "GOOGLE", "types": ["bank", "atm", "accounting", "finance", "point_of_interest", "establishment"], "user_ratings_total": 5, "vicinity": "Ctra. Colmenar Viejo, M-618, Km. 14, Torrelodones"}, {"business_status": "OPERATIONAL", "geometry": {"location": {"lat": 40.57668899999999, "lng": -3.929202}, "viewport": {"northeast": {"lat": 40.5781240802915, "lng": -3.927919669708498}, "southwest": {"lat": 40.5754261197085, "lng": -3.930617630291502}}}, "icon": "https://maps.gstatic.com/mapfiles/place_api/icons/v1/png_71/bank-71.png", "icon_background_color": "#909CE1", "icon_mask_base_uri": "https://maps.gstatic.com/mapfiles/place_api/icons/v2/bank-intl_pinlet", "international_phone_number": "+34 912 24 94 26", "name": "BBVA", "opening_hours": {"open_now": false}, "photos": [{"height": 720, "html_attributions": ["<a href=\"https://maps.google.com/maps/contrib/113297700334329110440\">BBVA</a>"], "photo_reference": "AWn5SU7n9YPq2y4apVwuJzDRvERRktsoFt0bmZ2_509IfnsGV-9Ba98pMA2aEX2qICpZ6H_1SEzDLQXjZoZUjPGAmQcp7vZfhzrIbeuzDO4bdMz3PQSQK0O8UunFrCkTwyKn5Q_746OTJrjOdAh6avU82H1ek7cLoZdcemmrwmf0DFAOpMg7ThL69FC_qNa4W_jPs2RwPyJltGURt3QEM8pfPJMjynSzlw3IShrhPT91toPIpWfNyxfB4OjQb3MQqghPMX9gX-hIJx-cFwwgOB_0y2L_vz1jxCJKVHpR3MwC5zTX-yFjkVGApivtBBNIRLZDmg5Y2gz6HBo", "width": 1280}], "place_id": "ChIJd70gZJl3QQ0RTBTtpc9sQKg", "plus_code": {"compound_code": "H3GC+M8 Torrelodones, Spain", "global_code": "8CGRH3GC+M8"}, "rating": 2.8, "reference": "ChIJd70gZJl3QQ0RTBTtpc9sQKg", "scope": "GOOGLE", "types": ["bank", "atm", "accounting", "finance", "point_of_interest", "establishment"], "user_ratings_total": 58, "vicinity": "Pz. Del, Plaza del Caño, S/N, Torrelodones"}, {"business_status": "OPERATIONAL", "geometry": {"location": {"lat": 40.5765415, "lng": -3.9304677}, "viewport": {"northeast": {"lat": 40.5779033302915, "lng": -3.929115919708497}, "southwest": {"lat": 40.5752053697085, "lng": -3.931813880291502}}}, "icon": "https://maps.gstatic.com/mapfiles/place_api/icons/v1/png_71/atm-71.png", "icon_background_color": "#909CE1", "icon_mask_base_uri": "https://maps.gstatic.com/mapfiles/place_api/icons/v2/atm_pinlet", "international_phone_number": "+34 913 34 07 61", "name": "Cajero Euro Automatic Cash", "opening_hours": {"open_now": true}, "photos": [{"height": 900, "html_attributions": ["<a href=\"https://maps.google.com/maps/contrib/112938840877952867995\">Cajero Euro Automatic Cash</a>"], "photo_reference": "AWn5SU7jNhZjYRk4pRzjHY8nnAqTapCOg8UwKaq4N44TYe4EEqpqh7KYtAAMSEsM2I_AXp9IaUxJiAfT9VRIPX5B19gwEK80eV9_dmpFEUGnsieMfQd2iEUS2crswM2qOVVMVYiWh0e8KEpEC1ZyLMeLh-jwC0cJqRmJOvZA89TKtNcTkIJu1vYM2q-TIL4aVNjv6jAjbjNP9Dgs9X1CJidHcKLl-MaPwZrBxoT2vqXACaGW5WfnTUEWN4ZeL4th529gn1W5dsK7vfrT7uD7sCWStpqCAMRFTqYVTQkAjcRfv-ldsyJzeu_wTYNEiVB9NvmkXz_NSi28fWE", "width": 1600}], "place_id": "ChIJ1-tR-7t3QQ0RZzUWcblMqh0", "plus_code": {"compound_code": "H3G9+JR Torrelodones, Spain", "global_code": "8CGRH3G9+JR"}, "reference": "ChIJ1-tR-7t3QQ0RZzUWcblMqh0", "scope": "GOOGLE", "types": ["atm", "finance", "point_of_interest", "establishment"], "vicinity": "CASINO GRAN MADRID - SALA AMERICANA, Ctra N-Vi, Km 28, Torrelodones"}, {"business_status": "OPERATIONAL", "geometry": {"location": {"lat": 40.5758347, "lng": -3.9289111}, "viewport": {"northeast": {"lat": 40.5771610802915, "lng": -3.927369119708497}, "southwest": {"lat": 40.5744631197085, "lng": -3.930067080291502}}}, "icon": "https://maps.gstatic.com/mapfiles/place_api/icons/v1/png_71/atm-71.png", "icon_background_color": "#909CE1", "icon_mask_base_uri": "https://maps.gstatic.com/mapfiles/place_api/icons/v2/atm_pinlet", "international_phone_number": "+34 900 404 090", "name": "ATM CaixaBank - Cajero", "opening_hours": {"open_now": true}, "photos": [{"height": 681, "html_attributions": ["<a href=\"https://maps.google.com/maps/contrib/110376175073883684482\">ATM CaixaBank - Cajero</a>"], "photo_reference": "AWn5SU5z-ZnnEDFqlPXDDUxmYvh_lux7uGk4MTh6CjXFwrNB8ZadmtwisXvSe1x_OKS381xd3HSVaqbSkwUfiYj2zc1MqlgklcnBs98GE46c0qZ7AkkcUYg4z8n6z9Ao8WsloEoDwlqP3iITpoTd-L30oXzw5aFt8JcFUsKoIazQYiMfQcPc64aS1x5L1atJTSC7X8ScqkBD-sO2T_FN1yS5wuyaYKVNG7LTUlsLwD8h-Yx1SMt11DEoV-i8BI17bE33h1tJheS10y1F0iYmKh0WYlXsaPc4zJ-oYNUwLNvD7a1DHv2lnimkzaLZ2smvCVDcDRJzj72kq3Q", "width": 1024}], "place_id": "ChIJ9-mXbRB3QQ0R9gY42QKhUDc", "plus_code": {"compound_code": "H3GC+8C Torrelodones, Spain", "global_code": "8CGRH3GC+8C"}, "reference": "ChIJ9-mXbRB3QQ0R9gY42QKhUDc", "scope": "GOOGLE", "types": ["atm", "finance", "point_of_interest", "establishment"], "vicinity": "Calle Real, 2, Torrelodones"}, {"business_status": "OPERATIONAL", "geometry": {"location": {"lat": 40.5688603, "lng": -3.9202602}, "viewport": {"northeast": {"lat": 40.5699553802915, "lng": -3.919315019708498}, "southwest": {"lat": 40.5672574197085, "lng": -3.922012980291502}}}, "icon": "https://maps.gstatic.com/mapfiles/place_api/icons/v1/png_71/atm-71.png", "icon_background_color": "#909CE1", "icon_mask_base_uri": "https://maps.gstatic.com/mapfiles/place_api/icons/v2/atm_pinlet", "international_phone_number": "+34 913 34 07 61", "name": "Cajero Euro Automatic Cash", "opening_hours": {"open_now": true}, "photos": [{"height": 1068, "html_attributions": ["<a href=\"https://maps.google.com/maps/contrib/116053534956323263041\">Cajero Euro Automatic Cash</a>"], "photo_reference": "AWn5SU6vbUjMLab-Dvf8vkdmVaUMHtP6gfB0R8yqIa8698g0zkbXb_aZN7eZMLi7k0QPvg8fc76W17gHKVFaiWcMp21xjaPJU-F0IC3ffTROmXLiql11W4YVRr-5uaH4mv4YBgw_Kp6dSFosfgQejAg1JWIVu4D1dTp6BkwoyxQXkUkvZlxIQ7bB4L01sjcweoWC2_BgxeBEOId93-9j3bULil8sTDHBuTG4BWdC1nEQeUAuo-utQfHX7TyPpudQzYnjkSWQP_6R4Zodmhx2u7JYkhDrL6Tr-N-wKyi7GeYxFZ8ZfbW2hrXux_tGuEq3OpfqQuXLliDwPPA", "width": 1600}], "place_id": "ChIJC14WqBd3QQ0RSh4GUTt-tJs", "plus_code": {"compound_code": "H39H+GV Torrelodones, Spain", "global_code": "8CGRH39H+GV"}, "reference": "ChIJC14WqBd3QQ0RSh4GUTt-tJs", "scope": "GOOGLE", "types": ["atm", "finance", "point_of_interest", "establishment"], "vicinity": "Avenida de la Fontanilla, 1, Torrelodones"}, {"business_status": "OPERATIONAL", "geometry": {"location": {"lat": 40.568314, "lng": -3.9212458}, "viewport": {"northeast": {"lat": 40.56965373029149, "lng": -3.919857519708497}, "southwest": {"lat": 40.56695576970849, "lng": -3.922555480291502}}}, "icon": "https://maps.gstatic.com/mapfiles/place_api/icons/v1/png_71/atm-71.png", "icon_background_color": "#909CE1", "icon_mask_base_uri": "https://maps.gstatic.com/mapfiles/place_api/icons/v2/atm_pinlet", "international_phone_number": "+34 900 404 090", "name": "ATM CaixaBank - Cajero", "photos": [{"height": 900, "html_attributions": ["<a href=\"https://maps.google.com/maps/contrib/112555002422197240071\">ATM CaixaBank - Cajero</a>"], "photo_reference": "AWn5SU5R_A7z_8xqjvsPHwbPKKYcTxXK4UBdB8ZB16QBhq2T385A-ASSKbX3i2arJze3KATfLhUOsSTbH2wYeXEx5xzMLMndTeyd5dRGu5dZRSSZnrdBKuhjTGtZfXHZq88YXQsIk7lYWE1efGgUme4k7NalnWQM575F1kG2FQw3yba5cjs9CGDX_tSa3qg9IRbKigcNZ7yiAIty8veJrs6GRc6ur6nKKNBs3eFYW6rzcCa2qqGyrtUIwho7pV644qv4-QYkOrWY_T8O_3XVxbBtR8S0nfHeCBEQx_FhNtkvFrZWtSJooLMmS795VXKdCR072wwU5bUVcsg", "width": 1600}], "place_id": "ChIJxxIN3GOdQQ0R5Y90RPKvWsE", "plus_code": {"compound_code": "H39H+8G Torrelodones, Spain", "global_code": "8CGRH39H+8G"}, "reference": "ChIJxxIN3GOdQQ0R5Y90RPKvWsE", "scope": "GOOGLE", "types": ["atm", "finance", "point_of_interest", "establishment"], "vicinity": "Via De Servicio A6, Avenida de la Fontanilla, Km28, Torrelodones"}, {"business_status": "OPERATIONAL", "geometry": {"location": {"lat": 40.5792729, "lng": -3.9553736}, "viewport": {"northeast": {"lat": 40.5805481302915, "lng": -3.954034619708498}, "southwest": {"lat": 40.5778501697085, "lng": -3.956732580291502}}}, "icon": "https://maps.gstatic.com/mapfiles/place_api/icons/v1/png_71/atm-71.png", "icon_background_color": "#909CE1", "icon_mask_base_uri": "https://maps.gstatic.com/mapfiles/place_api/icons/v2/atm_pinlet", "international_phone_number": "+34 918 59 18 41", "name": "Cajero 4B", "opening_hours": {"open_now": true}, "place_id": "ChIJlfKwWjB2QQ0RfS5uP0UEzRY", "plus_code": {"compound_code": "H2HV+PV Torrelodones, Spain", "global_code": "8CGRH2HV+PV"}, "reference": "ChIJlfKwWjB2QQ0RfS5uP0UEzRY", "scope": "GOOGLE", "types": ["atm", "finance", "point_of_interest", "establishment"], "vicinity": "Calle Jesusa Lara, 28, Torrelodones"}, {"business_status": "OPERATIONAL", "geometry": {"location": {"lat": 40.5792778, "lng": -3.9553854}, "viewport": {"northeast": {"lat": 40.5805513802915, "lng": -3.954051669708498}, "southwest": {"lat": 40.5778534197085, "lng": -3.956749630291502}}}, "icon": "https://maps.gstatic.com/mapfiles/place_api/icons/v1/png_71/bank-71.png", "icon_background_color": "#909CE1", "icon_mask_base_uri": "https://maps.gstatic.com/mapfiles/place_api/icons/v2/bank-intl_pinlet", "international_phone_number": "+34 910 57 84 37", "name": "Banco Santander Agentes", "opening_hours": {"open_now": false}, "photos": [{"height": 720, "html_attributions": ["<a href=\"https://maps.google.com/maps/contrib/111439480035616513922\">Banco Santander Agentes</a>"], "photo_reference": "AWn5SU7wQu7P6BU_X1hIKZAbcGht5rsb-JUlr6-mnG8J4Ec-U-LS8MG_ySBqzUBTNzK2IxBfk7jxoBR4fvHdKW2A1MxKFrfBBZdHye2yj7YgGAwZbEQ7VSzuLzew6cMUH3wAzgBpIYmeZMykjxO9OTqL29Kp283R5-w5_uyh37DyK5yG3TLc49IpBEqLgu7bWLSQS2vZGhtCzRhNq9YL6QxTBDaj_6NpIb4EukhvBvDHlHY2IDl2WmtBUvfMP75pGPOtfMZhvgRbkmeje5cuW9x4wlhpQtVaByQGcCvBiD2Y3yxmlETgb3_wxyoUJv9dVvyegxyrsYoHOYM", "width": 1280}], "place_id": "ChIJqRYQTdx3QQ0RhCyjMPreYBs", "plus_code": {"compound_code": "H2HV+PR Torrelodones, Spain", "global_code": "8CGRH2HV+PR"}, "rating": 3.7, "reference": "ChIJqRYQTdx3QQ0RhCyjMPreYBs", "scope": "GOOGLE", "types": ["bank", "atm", "finance", "point_of_interest", "establishment"], "user_ratings_total": 12, "vicinity": "Calle Jesusa Lara, 28, Torrelodones"}, {"business_status": "OPERATIONAL", "geometry": {"location": {"lat": 40.56598, "lng": -3.913915000000001}, "viewport": {"northeast": {"lat": 40.5673344802915, "lng": -3.912563219708498}, "southwest": {"lat": 40.5646365197085, "lng": -3.915261180291502}}}, "icon": "https://maps.gstatic.com/mapfiles/place_api/icons/v1/png_71/atm-71.png", "icon_background_color": "#909CE1", "icon_mask_base_uri": "https://maps.gstatic.com/mapfiles/place_api/icons/v2/atm_pinlet", "international_phone_number": "+34 912 73 70 06", "name": "Cajero Automático Banco Santander", "opening_hours": {"open_now": true}, "photos": [{"height": 4208, "html_attributions": ["<a href=\"https://maps.google.com/maps/contrib/115546121196621554329\">Francisco Javier Benitez Alvarez</a>"], "photo_reference": "AWn5SU6Fqc2QLb2o21YhJa03pep7pN4P9rF16AsPwNAA_JrCLUHMxl1B4GHPTouAubpdgt2HUVF0-ybr8Kf_-oD9nqK1-JeYiZ88mVYUcX6QJVaqBtvLT3pf5Z_ytjgeKmb4ZqcymDk3FVPPuD-zfVCzJ70rrSJkoaDdaR9emdZJwXU1Y_E8OoqeHACsRXuSLbakXGhGidN8Glc5b2V9C15W0vzQRu-3WYdtU374rxw4Fa1hxbqLVjeezdR1xsG6yeYmpMqtE2SSIq0rqUHiU37LVBsTC4f4fthZQrKmHZOPRUWcPxbNodkvkuJN33e1E_ryGSC1_jWOYl9xgnxz4eBI_pPhQ_tb3D2K2iu5jBVQZgCYv5g9jhXx6FBLb6oVRw9hgJY9h_aKzIQHy_58JZObMv6FTjseU-8LWXS8aYAj2D4uhHPH2HPm9F5x546OHgQ0TWFwvmp-2ibZZjw6SxUSAsHjvw4x3_wXwGXztmcDlcpMut4LePtyy_sd-OZFCcXIuuYkuglF7vREZrDroUHkvjvuEMchtk5VETE8h2phqs_PbUELtY6Us7xgo-yDOe0X2SUJQ8mrfCN4Uuf7qvcov_Zif3PEE1iQxjeGrgDo3SK7jPs05duj4LFg832S6wXu8i7POlFQ", "width": 2368}], "place_id": "ChIJjw0eAFedQQ0Rq_FcHnIE5oU", "plus_code": {"compound_code": "H38P+9C Torrelodones, Spain", "global_code": "8CGRH38P+9C"}, "rating": 3, "reference": "ChIJjw0eAFedQQ0Rq_FcHnIE5oU", "scope": "GOOGLE", "types": ["atm", "finance", "point_of_interest", "establishment"], "user_ratings_total": 2, "vicinity": "CA Casino, Gran Madrid, 0, Torrelodones"}]