[{"business_status": "OPERATIONAL", "geometry": {"location": {"lat": 40.62874430000001, "lng": -3.3368417}, "viewport": {"northeast": {"lat": 40.6300617802915, "lng": -3.335480019708499}, "southwest": {"lat": 40.62736381970851, "lng": -3.338177980291503}}}, "icon": "https://maps.gstatic.com/mapfiles/place_api/icons/v1/png_71/park-71.png", "icon_background_color": "#4DB546", "icon_mask_base_uri": "https://maps.gstatic.com/mapfiles/place_api/icons/v2/tree_pinlet", "name": "Chopera De Valdeavero", "opening_hours": {"open_now": true}, "photos": [{"height": 1800, "html_attributions": ["<a href=\"https://maps.google.com/maps/contrib/108425569089111676773\">Jhony Aponte</a>"], "photo_reference": "AWn5SU4zLMmOOgyb2HCXTmUKce_eQVAfLFvgzy7VkR218yVBVLCUxYyHYe_4S1Mu-Cco5KhVZE8og8q_qNOIJA0jQeu8AJKp47N79Tx9zIxq91QN3EkJ1BngSGbVY836RW0X1jLinX8aOmzeTUDi4yg6NW58DY8biEOO3c93DQVQnqu-LX6HYuzF5QPQMjoe9SOtJFq4HTXRNPOqOPa448giOVRJhzGJ0FcUOmpVERjllymVL_OXm0DRwFrTdRmxlTnu7gPz1MTr7EdSOUmIAwWrdC_7KPXrWOKRo73UZwOW1zJG2_cplbxEsqWCFCEbtZPL3_TAcJYV3slg4zEkNVK5HMn51rNxu10oeiOC57KozX0e7BgLvl6Wwgoo63lIIdGsPjzuRmL7jhmJbHnHIXf1As1nrvT9zQjqBGju5DgcNajOhfXSdwRehXbmgm04E0CfOF_xCCoCIp5UyC952rFCYgJbM7qgDmkQd07ALcG0_ME-ix29RU6vAH8puM0BEzBoH4v7dONFXhGA_4lx_NYrNHVfPacY8xFRhxpKKjCjIbpBrISS9lIA1mIkHYj9oP9KXNkyJ3Rzqu46yzuijLPmFhulkQ7py-yPm4kGhc2Nl8PmgBbRS0tiNBN79bP4uInAz0UIy_CahYsxsOqvbWyJTUTtSYI", "width": 4000}], "place_id": "ChIJoWwgSYCzQw0RqYdzo17ueBs", "plus_code": {"compound_code": "JMH7+F7 Valdeavero, Spain", "global_code": "8CGRJMH7+F7"}, "rating": 4.4, "reference": "ChIJoWwgSYCzQw0RqYdzo17ueBs", "scope": "GOOGLE", "types": ["park", "point_of_interest", "establishment"], "user_ratings_total": 7, "vicinity": "Calle Álamo, Valdeavero"}, {"business_status": "OPERATIONAL", "geometry": {"location": {"lat": 40.63256380000001, "lng": -3.3376802}, "viewport": {"northeast": {"lat": 40.6339224802915, "lng": -3.336304969708498}, "southwest": {"lat": 40.6312245197085, "lng": -3.339002930291502}}}, "icon": "https://maps.gstatic.com/mapfiles/place_api/icons/v1/png_71/park-71.png", "icon_background_color": "#4DB546", "icon_mask_base_uri": "https://maps.gstatic.com/mapfiles/place_api/icons/v2/tree_pinlet", "name": "para perros Valdeavero Park", "place_id": "ChIJ782QBQCzQw0RoXHfeN7lkHc", "plus_code": {"compound_code": "JMM6+2W Valdeavero, Spain", "global_code": "8CGRJMM6+2W"}, "reference": "ChIJ782QBQCzQw0RoXHfeN7lkHc", "scope": "GOOGLE", "types": ["park", "point_of_interest", "establishment"], "vicinity": "Camino de Serracines, Valdeavero"}, {"business_status": "OPERATIONAL", "geometry": {"location": {"lat": 40.6342124, "lng": -3.3193956}, "viewport": {"northeast": {"lat": 40.63554448029149, "lng": -3.317980869708498}, "southwest": {"lat": 40.6328465197085, "lng": -3.320678830291502}}}, "icon": "https://maps.gstatic.com/mapfiles/place_api/icons/v1/png_71/park-71.png", "icon_background_color": "#4DB546", "icon_mask_base_uri": "https://maps.gstatic.com/mapfiles/place_api/icons/v2/tree_pinlet", "name": "para perros Park", "photos": [{"height": 2136, "html_attributions": ["<a href=\"https://maps.google.com/maps/contrib/109207405751157376630\">Alex Mujica (Alexplorer)</a>"], "photo_reference": "AWn5SU4DceQMmeIqrH5GVWqA_lB_U3MmCydcrFiUrSQCbT2NJ5_iYLLjcApVtKALD0luCW1rvCq0gMncGs5T7I7yqS-ChTOlGqSRHSTSAQ-f8RKg6-IqpdsgNGGJcRQNTW5pjudkDiPzL6abhflBmQUwzlY2qh3vfvIgMg-nx5S2lPQ7YtegLD6dRRXkgqJO2S56fUqCoqjhp6Iow9Iykj968CYR7m6VipErmmY7NiLhMUtCo00Qp87W5Acu4wPBZO5Ez-zKYNJJic0hZM-iTRY1pRq82U4_uE10ySiw_eUuMFiRLW5gJ3Qk1ieM9hqj2JG5OAWGoUmxHB8s8mhfiruiqPQPWzPTDm84V9-sLxqJqkaAsJ8kIfpQ-zun-SbcITvHfRD5RsQjzuKLlGBmxWp0mJt01JeA49-hR7fOVEGPvwVP004IePPS8VEs3CMUYY9v_uzf4NU8j2FNMrHvCLLqu-JMU9nexKg6LW2Zqy0m1cUO1CRP3rG3neVTleYxyeHBKLb2noZAtmJTE4kLuvlCVZfZQ3xxBwrOuplGVtg_r9DA6BVC-6iBZaqr5_X1DSTr_itlCv8Si8wn-LUsLjP_bhjBQskeRf2vTdRztR2lyFl9Z3KpheUjEg6AYnGH7bOk", "width": 4624}], "place_id": "ChIJN0Ar_iOzQw0Rkm9vFCxFzFs", "plus_code": {"compound_code": "JMMJ+M6 Valdeaveruelo, Spain", "global_code": "8CGRJMMJ+M6"}, "rating": 1.8, "reference": "ChIJN0Ar_iOzQw0Rkm9vFCxFzFs", "scope": "GOOGLE", "types": ["park", "point_of_interest", "establishment"], "user_ratings_total": 4, "vicinity": "Camino Villanueva, 449P, Valdeaveruelo"}, {"business_status": "OPERATIONAL", "geometry": {"location": {"lat": 40.63545499999999, "lng": -3.3179965}, "viewport": {"northeast": {"lat": 40.63685228029149, "lng": -3.316715369708497}, "southwest": {"lat": 40.63415431970849, "lng": -3.319413330291501}}}, "icon": "https://maps.gstatic.com/mapfiles/place_api/icons/v1/png_71/park-71.png", "icon_background_color": "#4DB546", "icon_mask_base_uri": "https://maps.gstatic.com/mapfiles/place_api/icons/v2/tree_pinlet", "name": "con pozos Park", "photos": [{"height": 2136, "html_attributions": ["<a href=\"https://maps.google.com/maps/contrib/109207405751157376630\">Alex Mujica (Alexplorer)</a>"], "photo_reference": "AWn5SU5M6Bj3N5oudOd54pmmYlgSi9wb2z3Ld4xKsZ-2XPTmIe2OrRlZNcloW1cvCiy2G3PZhidMZk1TklbeOh1CE-NIbl7fXUr8RXBb03Or-6MvQR0EeWYxXwCkViDYHMcqCF1C0iv9siA4629zy4PJWkJoo1XIWRD2ubQJmTly1GNLQT4kXoT9OTD2npj1JjUDLNXxQjhhbfOcD0K5UftrcdD4FbIKtzO5xcZWsezqe0NUdZkhlqsjLjNHetHUdtpjpm2ZGWTqnAemzccfHK2s5sXLsCAJ2zOGWX4ZqkDV-77WUCXLlexZcpaF-u1BJXJ47DO-GG3gfde83_Q5jE0gFXs1SdVMW8IJEypcSWrJQJtGVoPsWRRY7IbLcr03wRfCUkvWmvh5Rynqqv-i2t8G-zESQsn2-tm2LnS2qrWEY8Dw5khzOFLhT9aw9ehfpQCUgUMfKk3mhXQyg3XeMHzs8BaoSWeT820D4RObPYkSgtvTJwmnIBqU_PMj5ekcBJXmz2fA0pnzDHHLab9y9TgepKBEUTPPUmj96gfRwxvytYBP2utsdmINOcDxNPMLBwkWsomKikC5SPj0leuSknCrIHySuyoVbEkuBrla1QYVcuKFyoKCmdaGFNEsM3E5dBl4LDrsEb7B", "width": 4624}], "place_id": "ChIJB-NXwnOzQw0R_ZgvkFbFrPw", "plus_code": {"compound_code": "JMPJ+5R Valdeaveruelo, Spain", "global_code": "8CGRJMPJ+5R"}, "rating": 4, "reference": "ChIJB-NXwnOzQw0R_ZgvkFbFrPw", "scope": "GOOGLE", "types": ["park", "point_of_interest", "establishment"], "user_ratings_total": 1, "vicinity": "Paseo Chopera, 1, Valdeaveruelo"}, {"business_status": "OPERATIONAL", "geometry": {"location": {"lat": 40.6526633, "lng": -3.332323699999999}, "viewport": {"northeast": {"lat": 40.6542399802915, "lng": -3.331002969708497}, "southwest": {"lat": 40.65154201970851, "lng": -3.333700930291501}}}, "icon": "https://maps.gstatic.com/mapfiles/place_api/icons/v1/png_71/park-71.png", "icon_background_color": "#4DB546", "icon_mask_base_uri": "https://maps.gstatic.com/mapfiles/place_api/icons/v2/tree_pinlet", "name": "Skate Torrejon del Rey", "opening_hours": {"open_now": true}, "place_id": "ChIJc9Y2MjizQw0REPq0kzhYPP4", "plus_code": {"compound_code": "MM39+33 Torrejón del Rey, Spain", "global_code": "8CGRMM39+33"}, "reference": "ChIJc9Y2MjizQw0REPq0kzhYPP4", "scope": "GOOGLE", "types": ["park", "point_of_interest", "establishment"], "vicinity": "Avenida Señorío de Muriel, 22, Torrejón del Rey"}]