[{"business_status": "OPERATIONAL", "geometry": {"location": {"lat": 40.6316509, "lng": -4.007472}, "viewport": {"northeast": {"lat": 40.63309733029149, "lng": -4.005997669708498}, "southwest": {"lat": 40.63039936970849, "lng": -4.008695630291502}}}, "icon": "https://maps.gstatic.com/mapfiles/place_api/icons/v1/png_71/bank-71.png", "icon_background_color": "#909CE1", "icon_mask_base_uri": "https://maps.gstatic.com/mapfiles/place_api/icons/v2/bank-intl_pinlet", "international_phone_number": "+34 918 51 54 04", "name": "BBVA", "opening_hours": {"open_now": false}, "photos": [{"height": 720, "html_attributions": ["<a href=\"https://maps.google.com/maps/contrib/111622598506749617559\">BBVA</a>"], "photo_reference": "AWn5SU7OUVTZEzWFuUbnBi4S_T5zbk_hCAwALU-rYqOGAb3dJw3hfp-TOeIpA5zfrMz6MRnH2DKme27ulppyCmsqNoXSZzwaDpLREIU-_d9MlLJaZLvXd5GzLVxevTjt-1gnQWGjN8oT3guyD54yXmElwQd_g6aJhruEIVo1q1RYNXdqTNSa0HYTDAi37qwEOhrAUjOf4J9nABzSO5fwl0sbg0Fn6x738OfBvobz05R0SpsO7dcjQfVj2JsVr6kAgs4AGJ-u-rAzJ0vVp7DFenKZ2IywSkdDuNrRlU3xKu4e6GEfI63ik_0SaRmQB6l-YDJN3mDJPOw2jWw", "width": 1280}], "place_id": "ChIJubd3WxN0QQ0RuYvgWsGWuTk", "plus_code": {"compound_code": "JXJV+M2 Collado Villalba, Spain", "global_code": "8CGQJXJV+M2"}, "rating": 2.3, "reference": "ChIJubd3WxN0QQ0RuYvgWsGWuTk", "scope": "GOOGLE", "types": ["bank", "atm", "accounting", "finance", "point_of_interest", "establishment"], "user_ratings_total": 238, "vicinity": "Calle Batalla de Bailén, 15, Collado Villalba"}, {"business_status": "OPERATIONAL", "geometry": {"location": {"lat": 40.63151939999999, "lng": -4.004971300000001}, "viewport": {"northeast": {"lat": 40.63279438029149, "lng": -4.003616219708497}, "southwest": {"lat": 40.6300964197085, "lng": -4.006314180291501}}}, "icon": "https://maps.gstatic.com/mapfiles/place_api/icons/v1/png_71/bank-71.png", "icon_background_color": "#909CE1", "icon_mask_base_uri": "https://maps.gstatic.com/mapfiles/place_api/icons/v2/bank-intl_pinlet", "international_phone_number": "+34 918 06 73 13", "name": "Bankinter", "opening_hours": {"open_now": false}, "photos": [{"height": 4032, "html_attributions": ["<a href=\"https://maps.google.com/maps/contrib/109344267587617645969\">Gábor Hasznos</a>"], "photo_reference": "AWn5SU44kyyxbuBZzMOa8o_2nCI_WBPaGmdZV4HDpkaw0HW8vU0IdTnXi1d17UsYPu3I8-Rev_f1d9v-ObxjSxpHD-x1Ymk5Q3tfgNoHf83ECKtJ3sYr4NwfsFj2uQVMPRFN0zW6b2cASJPgI60MLqX7wrd-AEelj2HouFDwHXv7B0XV9LmbWLPifDRpZjacvjGRLwWoyxwcZgZcP2uoCWB98cqH9OdwhAdQE1Q4j-nsvhIBes99G5PF3o35MW4k-ONiZYtn7SFZOjjFwq93hfL2M7e3PEV9aAPMtho0rkWVAUGqSbKTFjJ3EYCnQU66PuidafcxGzzeifGSsy4gfNvgap7orv7b7S9RDwtDibLThZH_UhisIzTdxIeKPDMryBeBuXVaD0itCcS4PmmfLQ4mOZJHJmT3ty-3dNVdWyPJo-EbZaceOt4DWEexPO4amyMVTaMTJ3oedVc6lI1s0q21yTOwira4-Se4r5l9r0xITin-E0W8GfF_KjB5KIJL-2YMGS9Tyt6EEH37ZEOvRZDcM_wpKMTRbfOjj82A1ZJrA2LmFYj7ia043Uytx1jWydt3IKJHXXnvqA6KQ3SbV4bSkljEl3wnhiqL1RzToGlD9_SKtdsZgkk4e7wZlx_TUuQwBXQtg6adFszK5vTb-HpcNA", "width": 3024}], "place_id": "ChIJreHaiRN0QQ0RNxmZAizHGcE", "plus_code": {"compound_code": "JXJW+J2 Collado Villalba, Spain", "global_code": "8CGQJXJW+J2"}, "rating": 2.9, "reference": "ChIJreHaiRN0QQ0RNxmZAizHGcE", "scope": "GOOGLE", "types": ["bank", "atm", "finance", "point_of_interest", "establishment"], "user_ratings_total": 40, "vicinity": "Calle Real, 59, Collado Villalba"}, {"business_status": "OPERATIONAL", "geometry": {"location": {"lat": 40.6575794, "lng": -4.0244595}, "viewport": {"northeast": {"lat": 40.6589682302915, "lng": -4.023159919708498}, "southwest": {"lat": 40.65627026970851, "lng": -4.025857880291502}}}, "icon": "https://maps.gstatic.com/mapfiles/place_api/icons/v1/png_71/bank-71.png", "icon_background_color": "#909CE1", "icon_mask_base_uri": "https://maps.gstatic.com/mapfiles/place_api/icons/v2/bank-intl_pinlet", "international_phone_number": "+34 918 57 28 16", "name": "BBVA", "opening_hours": {"open_now": false}, "photos": [{"height": 720, "html_attributions": ["<a href=\"https://maps.google.com/maps/contrib/110673521761057463811\">BBVA</a>"], "photo_reference": "AWn5SU7N--PnRBH6TWPRaRj2ObHHxoub16tLcSJ_BnJ2d91RrYMs9NTSVZ_AWAD2n7LAaBjYnsZfhK1kvzJ1SyoLWXZNI2r2tVmmE_jPOYWMg8L69Otjupv7vjkU86yABE2qjq2yafxPULIie1JBJwAN0i7f7uqEg8-BXvz-IcpDpBu-eIi2MdExgPGo5RzFGZ7LdYjCTsUkvNnMBMgeEoyQMBawD6nlA985ZSPa9CbmvsrxOkQafU_m-ef5xZMGCor3l3BaatMotpx0O9l9QPywTE52M2_1fDbYEHeMi06pPjHKmx0k0bRRfhtAf94GxTfvDKBPmKOhxqA", "width": 1280}], "place_id": "ChIJjSGklpxzQQ0RMNARUHatQyE", "plus_code": {"compound_code": "MX5G+26 Alpedrete, Spain", "global_code": "8CGQMX5G+26"}, "rating": 2, "reference": "ChIJjSGklpxzQQ0RMNARUHatQyE", "scope": "GOOGLE", "types": ["bank", "atm", "accounting", "finance", "point_of_interest", "establishment"], "user_ratings_total": 35, "vicinity": "Casa Cultura, Calle Maestro, C/V, 7, Alpedrete"}, {"business_status": "OPERATIONAL", "geometry": {"location": {"lat": 40.6776422, "lng": -3.9727851}, "viewport": {"northeast": {"lat": 40.6790341302915, "lng": -3.971425869708498}, "southwest": {"lat": 40.6763361697085, "lng": -3.974123830291502}}}, "icon": "https://maps.gstatic.com/mapfiles/place_api/icons/v1/png_71/bank-71.png", "icon_background_color": "#909CE1", "icon_mask_base_uri": "https://maps.gstatic.com/mapfiles/place_api/icons/v2/bank-intl_pinlet", "international_phone_number": "+34 618 95 29 90", "name": "BBVA - Agente Autorizado", "opening_hours": {"open_now": false}, "photos": [{"height": 720, "html_attributions": ["<a href=\"https://maps.google.com/maps/contrib/112315507474809684472\">BBVA - Agente Autorizado</a>"], "photo_reference": "AWn5SU7sES93qS9xNfk6ZLff6aLd_mZ-OAatqvomOp1DeRhXsyhn3uQDMLKgXbaZV_u9ScUW8r-fj-pC0NbbPNiyRMnPTY8xvnJbpgmWyhg1ufuF1n82OhgroKquHv4zSW2a47nhBffRsQa87tF6LGeJRD1360d0pK1NtU9y0TsxkL4Rq1BOVz_ydXSYwoP9UnAewTy1qOugvhSriDIvoyK9mjnA-gFDgiq1cxNyhtbalEW4OElfTbulxnWAFrzeSwOnMOXX0wADSlKtniU6n4t4tuq0TENRfhiRdFamOfN_Ip0IukHmVihTQGi8ltDpJHnw08gw3RdPjdQ", "width": 1280}], "place_id": "ChIJU_Tv-nFxQQ0R6-5VIO7rW40", "plus_code": {"compound_code": "M2HG+3V Moralzarzal, Spain", "global_code": "8CGRM2HG+3V"}, "rating": 4.6, "reference": "ChIJU_Tv-nFxQQ0R6-5VIO7rW40", "scope": "GOOGLE", "types": ["bank", "atm", "finance", "point_of_interest", "establishment"], "user_ratings_total": 20, "vicinity": "Camino de Alpedrete, Moralzarzal"}, {"business_status": "OPERATIONAL", "geometry": {"location": {"lat": 40.65807, "lng": -4.024689999999999}, "viewport": {"northeast": {"lat": 40.65932788029149, "lng": -4.023278969708498}, "southwest": {"lat": 40.65662991970849, "lng": -4.025976930291502}}}, "icon": "https://maps.gstatic.com/mapfiles/place_api/icons/v1/png_71/bank-71.png", "icon_background_color": "#909CE1", "icon_mask_base_uri": "https://maps.gstatic.com/mapfiles/place_api/icons/v2/bank-intl_pinlet", "international_phone_number": "+34 918 57 51 26", "name": "Banco Santander", "opening_hours": {"open_now": false}, "photos": [{"height": 720, "html_attributions": ["<a href=\"https://maps.google.com/maps/contrib/105362576594811759109\">Banco Santander</a>"], "photo_reference": "AWn5SU6O7T3jEuSx1sphx6u3gqnH0Xrojp3kpOQTXd3HaHIlL5tF-y0v7ipLoDLVtetJ4vNPrkQehKFQbReCNurOj6qUryGfB9FrdeQhIfIxX18TYZt-FWFuAfd0md6IW8tkVNLODGInmkFCajNkrOiuzzclnd9urjpU6136UEU9aCa_bd1wvWs-U94-70GkXhZTEn0jCJsBVOTzkxIVsgemykmAJUVK-nRlJtCOJpFj48gNoYYyLBoC8fOqFhkLSjm2xQgUaDEKYtg2WbdqXTMcVXkQBYlh1qrmFYWZBtyVkGakscfpwxXo6ymr7evLTL2iKxFU7owZ9zk", "width": 1280}], "place_id": "ChIJITldI4NzQQ0RG2u3YLa3vIE", "plus_code": {"compound_code": "MX5G+64 Alpedrete, Spain", "global_code": "8CGQMX5G+64"}, "rating": 2.2, "reference": "ChIJITldI4NzQQ0RG2u3YLa3vIE", "scope": "GOOGLE", "types": ["bank", "atm", "finance", "point_of_interest", "establishment"], "user_ratings_total": 32, "vicinity": "Calle del Maestro, 4, Alpedrete"}, {"business_status": "OPERATIONAL", "geometry": {"location": {"lat": 40.6933655, "lng": -4.024967999999999}, "viewport": {"northeast": {"lat": 40.6946864802915, "lng": -4.023568669708497}, "southwest": {"lat": 40.6919885197085, "lng": -4.026266630291501}}}, "icon": "https://maps.gstatic.com/mapfiles/place_api/icons/v1/png_71/bank-71.png", "icon_background_color": "#909CE1", "icon_mask_base_uri": "https://maps.gstatic.com/mapfiles/place_api/icons/v2/bank-intl_pinlet", "international_phone_number": "+34 918 59 80 27", "name": "Banco Santander Agentes", "opening_hours": {"open_now": false}, "photos": [{"height": 720, "html_attributions": ["<a href=\"https://maps.google.com/maps/contrib/104181473019767427825\">Banco Santander Agentes</a>"], "photo_reference": "AWn5SU5d-8YicqAfa8ptF_q7vIURjLfs14AN4ljKKeQQtSK3FI5HbK6vZxcs0pGC00Nps_rf-H83dflDPjTVQk319RwpnWZdhPO0ia66UxhhjPgimBcwn7RaclFlMZXOZNTmL7JlYGg_UI2EOE2w3bsJoU3hc-5CD001nHH_oIp3DVxBh_QhUjOw8zdZwmrsUgAFqPUck9TU7knuCAQ9_mnwjP4-3PIbiu6uMpx9dVUTlPgQ0dpzaweZcyvino2p4qhAEBgDZlVzqH0kqQiYm-IuQnPHxpiVO2RmhXdIpjEj7Fp9Jk6hIiQD5AAgKEMpUEMEvvZO6NvVcmg", "width": 1280}], "place_id": "ChIJ4X9B6FZyQQ0RwYgWtSSiX3s", "plus_code": {"compound_code": "MXVG+82 Collado Mediano, Spain", "global_code": "8CGQMXVG+82"}, "rating": 3.3, "reference": "ChIJ4X9B6FZyQQ0RwYgWtSSiX3s", "scope": "GOOGLE", "types": ["bank", "atm", "finance", "point_of_interest", "establishment"], "user_ratings_total": 14, "vicinity": "Calle Real, 6, Collado Mediano"}, {"business_status": "OPERATIONAL", "geometry": {"location": {"lat": 40.6362842, "lng": -4.0081472}, "viewport": {"northeast": {"lat": 40.6376311302915, "lng": -4.007224869708498}, "southwest": {"lat": 40.6349331697085, "lng": -4.009922830291503}}}, "icon": "https://maps.gstatic.com/mapfiles/place_api/icons/v1/png_71/atm-71.png", "icon_background_color": "#909CE1", "icon_mask_base_uri": "https://maps.gstatic.com/mapfiles/place_api/icons/v2/atm_pinlet", "international_phone_number": "+34 912 06 66 55", "name": "Cajero Automático Ing Direct", "opening_hours": {"open_now": false}, "photos": [{"height": 4032, "html_attributions": ["<a href=\"https://maps.google.com/maps/contrib/101376449976527562424\">Pepo Businesss</a>"], "photo_reference": "AWn5SU5lhETPx7PB-vgRI4yXWpZzSEL4sabzY5LhCOGWAGfQ-2j8JS55G8Ph9QtPszBMFOPF7GKUXk7OYKuRl0wVUVHQBWtnXE9H9XqJc4o7ql-9nBivhvc09RlNIn56ItqmV-RpphFyUj_wT_1ZV8Llsk-l9_y4FBNeLUdLtS8tstjFoCJTvLfTMQPDHQZyAMCMBUDs6ibWjcIfMflTj9h4Y9O6EkUyaA53w88-R_CJY3C5lgnxzmZINQkWEdQbM-UFRFSLsa7EbjfRk6BPZWxulC2urz8ukNn1HKqWlYQAM2QlYsJjVfLV4w6ywe7FNzS99hBylbIlzu6EAEHGirB6uUYoEUiybXIdmju8v3Kw3ceEmlBn1BAocDaiC4ixPLRpukmqO_gqZAgeMyAb3Q48pxq55HvlPYhzVpg_1Jy-0WQxIGz_Du-VH1UVS3NXAjjfGostT46mB0w6B2skThoLhUVtu6SmuAGjp7bccwMTTalzjdDqbuLXPgRCM2pgKNRWI18OTUk2bYmMDGGkgRbPkbb23CjkrylEpyRUvOwSmxlhIROXPv_vkPvnt_udLykBjDW-JD2Ek591iBxzOLM-bkfzuzeqkhyBG1CZz0qGpJtzXFwd0397mX5h9levkW0AaIKcWFlO", "width": 3024}], "place_id": "ChIJAQDAVm10QQ0RAbacptZHR7s", "plus_code": {"compound_code": "JXPR+GP Collado Villalba, Spain", "global_code": "8CGQJXPR+GP"}, "rating": 1.4, "reference": "ChIJAQDAVm10QQ0RAbacptZHR7s", "scope": "GOOGLE", "types": ["atm", "finance", "point_of_interest", "establishment"], "user_ratings_total": 70, "vicinity": "Calle Rincón de las Eras, 3, Collado Villalba"}, {"business_status": "OPERATIONAL", "geometry": {"location": {"lat": 40.6314578, "lng": -4.005246099999999}, "viewport": {"northeast": {"lat": 40.6327999302915, "lng": -4.003970819708497}, "southwest": {"lat": 40.6301019697085, "lng": -4.006668780291502}}}, "icon": "https://maps.gstatic.com/mapfiles/place_api/icons/v1/png_71/bank-71.png", "icon_background_color": "#909CE1", "icon_mask_base_uri": "https://maps.gstatic.com/mapfiles/place_api/icons/v2/bank-intl_pinlet", "international_phone_number": "+34 918 50 66 67", "name": "ABANCA", "opening_hours": {"open_now": false}, "photos": [{"height": 1080, "html_attributions": ["<a href=\"https://maps.google.com/maps/contrib/104599745445419064163\">ABANCA</a>"], "photo_reference": "AWn5SU4rQbw59uDpN_GX5QKettak7J5DHi0pk735s-F-zDUrUQODJrLtcq30UwRuQVri79TdrZGfSfQoSWNQ0UL9Bi4x9TQ6j_K8jvUyeiAbZ8_kL7HaGa_lVAkLkThvIz0p3WMU4CJ8PN4S5_7EizVq9olZyavpwRlJRxy9sz06u8ek_k7j0_8lczIpVJVlhHAUb9-5qJZR4-kSOPGNBL6tbkM5k9G6kfieFPkeHQVzoy9L7fxR266P6mpfHAIyHrdFXCusMkNhj0zHZifWHhZQeTWTU0lkCxVIPTEATa0F-OhKxNuiZP4riaXMMGNDxj5XjqZYf6hZojs", "width": 1920}], "place_id": "ChIJkdgIiRN0QQ0RurKCkwvnnmY", "plus_code": {"compound_code": "JXJV+HW Collado Villalba, Spain", "global_code": "8CGQJXJV+HW"}, "rating": 3.7, "reference": "ChIJkdgIiRN0QQ0RurKCkwvnnmY", "scope": "GOOGLE", "types": ["bank", "atm", "finance", "point_of_interest", "establishment"], "user_ratings_total": 118, "vicinity": "Calle Real, 59 Bis, Collado Villalba"}, {"business_status": "OPERATIONAL", "geometry": {"location": {"lat": 40.6300511, "lng": -4.0027599}, "viewport": {"northeast": {"lat": 40.63132968029149, "lng": -4.001476719708497}, "southwest": {"lat": 40.62863171970849, "lng": -4.004174680291502}}}, "icon": "https://maps.gstatic.com/mapfiles/place_api/icons/v1/png_71/bank-71.png", "icon_background_color": "#909CE1", "icon_mask_base_uri": "https://maps.gstatic.com/mapfiles/place_api/icons/v2/bank-intl_pinlet", "international_phone_number": "+34 912 86 13 60", "name": "Kutxabank", "opening_hours": {"open_now": false}, "photos": [{"height": 4032, "html_attributions": ["<a href=\"https://maps.google.com/maps/contrib/102160449230583751419\">Elurra B</a>"], "photo_reference": "AWn5SU4qpgIkXqMpF-wU7MMvWfUEJg97YS_kRHfSK95XzuD3geSihAZfgCcagp9Pp_Su6hYFdh1ixfXRn0BZbMvBFbYIB8k7Vrt9Tis-Xm1OLt_pEPSk2zvwXOSDONV5iCaiIwbYN5PQKp6IPTUklgMoHpRZwUY2sxni75QLG82LB0q2NlDyL0drVQ0sk4rB4zeWQSN8IXkhRdIj73Ckix9dHfT020VNZxkV4EKcQvuB34MISLxcd6kZ93_s2IT7tu5GLqcronrRFNaUFyTqowdeLTO79i_a8xHCRPUfWHQO8Md9cECddGkBw3WamDfyD9tDeso20a4BeY1kBvwuajIySu_9mtjS5QR6cjeSGFnbCtEXnJZQ4JBpjHig1M90BUXdKy2mHaCIPZXNAlH_GfMyx2HWUip6YhRyPlRPNWvaiQhCrM3OiRZdlyclygomcuZbT04ZYXKXvLAWDjurQ2DO8hP3BWouPZl4Ta04mv2JEFM_TClpyi3FX-nsEGjcEgp-xXlslb0KGokIhdhgBwlbg8h21fvW2GRkQyDISvNJbrKLp68HPKH78Ox-G8hm4TA73t7hJqUJ0aO62uo70SQTe_XoK5JMccQqrP7B4aPWtCw__rQ-lgdPJfF7v5bFIgJ3E5jF4Z2sinFdIwd2grgM7WgFeJk", "width": 3024}], "place_id": "ChIJq_2YmRZ0QQ0RU-u0y4kAHFY", "plus_code": {"compound_code": "JXJW+2V Collado Villalba, Spain", "global_code": "8CGQJXJW+2V"}, "rating": 4.6, "reference": "ChIJq_2YmRZ0QQ0RU-u0y4kAHFY", "scope": "GOOGLE", "types": ["bank", "atm", "accounting", "finance", "point_of_interest", "establishment"], "user_ratings_total": 161, "vicinity": "Avenida de Honorio Lozano, 43, Collado Villalba"}, {"business_status": "OPERATIONAL", "geometry": {"location": {"lat": 40.62775949999999, "lng": -4.0083759}, "viewport": {"northeast": {"lat": 40.6290910802915, "lng": -4.007397769708499}, "southwest": {"lat": 40.6263931197085, "lng": -4.010095730291503}}}, "icon": "https://maps.gstatic.com/mapfiles/place_api/icons/v1/png_71/bank-71.png", "icon_background_color": "#909CE1", "icon_mask_base_uri": "https://maps.gstatic.com/mapfiles/place_api/icons/v2/bank-intl_pinlet", "international_phone_number": "+34 918 51 81 48", "name": "Sabadell Bank", "opening_hours": {"open_now": false}, "photos": [{"height": 1080, "html_attributions": ["<a href=\"https://maps.google.com/maps/contrib/105008220667894481990\">Banco Sabadell</a>"], "photo_reference": "AWn5SU7dfbwvmgwfLXPATMPM-CkYnNLh4F-53Bzuq0U0y6gs_pg4_2yr21ld8pglnMdJd5xOjRrisuqtaJ1RA-ufFKr-l75ksAKssvn4NVWGYgnxkmDqLsp9jm8BUSjouiUK1PSBMFgGlMGbSTVZzw6ixV8d_mMZiixCBK1__S0OQXevk96yqLTqrNr9zXw7Wj5NSN1jM3qM7mDIY24DFHTHnpsJqsi1dt0m8DaiGJJysweBGBO5WGyk0zfxHJMD1R07pstuYqhf8QR5fnHbl1atJ1ByFC_fY85cSEk2WHIMX2AHki6ijQ_Iepo--dtc7YQL2rqqHcM6oGs", "width": 1920}], "place_id": "ChIJR7psENKONg0RxvMB9OtWPEQ", "plus_code": {"compound_code": "JXHR+4J Collado Villalba, Spain", "global_code": "8CGQJXHR+4J"}, "rating": 1.7, "reference": "ChIJR7psENKONg0RxvMB9OtWPEQ", "scope": "GOOGLE", "types": ["bank", "atm", "accounting", "finance", "point_of_interest", "establishment"], "user_ratings_total": 48, "vicinity": "Calle Real, 9, Collado Villalba"}, {"business_status": "OPERATIONAL", "geometry": {"location": {"lat": 40.6794144, "lng": -3.972619400000001}, "viewport": {"northeast": {"lat": 40.6807831302915, "lng": -3.971218369708498}, "southwest": {"lat": 40.67808516970851, "lng": -3.973916330291502}}}, "icon": "https://maps.gstatic.com/mapfiles/place_api/icons/v1/png_71/bank-71.png", "icon_background_color": "#909CE1", "icon_mask_base_uri": "https://maps.gstatic.com/mapfiles/place_api/icons/v2/bank-intl_pinlet", "international_phone_number": "+34 918 57 74 86", "name": "Banco Santander", "opening_hours": {"open_now": false}, "photos": [{"height": 720, "html_attributions": ["<a href=\"https://maps.google.com/maps/contrib/106338510228364859431\">Banco Santander</a>"], "photo_reference": "AWn5SU5Caqf8SJkRhO_5nIgdVN4q_uoP9W9X_onEAv899C8M3lMSaFS8k0n0HgydTQ5o5qPow31Y_lyVh1Z5hYbH1r6O_XgdIaXywUlfEuyB7EUEWWv0iByx69St74DRyXuIVnSheCg7-C3P7KQV4GVD0FQN9Zt9YiTCWpO0rT3WMnAluZhxtsOK55q_-6F0ZiA-m4HUSY0o3CEca1Xcn9I1BRIs5ApoyzOQ97NM7IFidD57QyzX3BaFZzzg_wmjON8G9-LY5a7kXwoTGzyAd7aLpWDoBMgRZwJSjYYknv-fJw-seHNgZMi0Hf10PnUAiXDZ0406EjyrGWo", "width": 1280}], "place_id": "ChIJi47HFXBxQQ0RZVphNlp4eT0", "plus_code": {"compound_code": "M2HG+QX Moralzarzal, Spain", "global_code": "8CGRM2HG+QX"}, "rating": 3.7, "reference": "ChIJi47HFXBxQQ0RZVphNlp4eT0", "scope": "GOOGLE", "types": ["bank", "atm", "finance", "point_of_interest", "establishment"], "user_ratings_total": 18, "vicinity": "Plaza de la Fragua, 2, Moralzarzal"}, {"business_status": "OPERATIONAL", "geometry": {"location": {"lat": 40.6800294, "lng": -3.9712227}, "viewport": {"northeast": {"lat": 40.6814394302915, "lng": -3.969920469708498}, "southwest": {"lat": 40.6787414697085, "lng": -3.972618430291503}}}, "icon": "https://maps.gstatic.com/mapfiles/place_api/icons/v1/png_71/atm-71.png", "icon_background_color": "#909CE1", "icon_mask_base_uri": "https://maps.gstatic.com/mapfiles/place_api/icons/v2/atm_pinlet", "international_phone_number": "+34 900 404 090", "name": "ATM CaixaBank - Cajero", "opening_hours": {"open_now": true}, "photos": [{"height": 681, "html_attributions": ["<a href=\"https://maps.google.com/maps/contrib/102458980393514865997\">ATM CaixaBank - Cajero</a>"], "photo_reference": "AWn5SU4kEbxJXVBoIsVc0ouYlphNVR_UuKfbtcPd9OlL7_M_CymdlogRPuReYU4I9eRRz0JLfnPnmSsD5uHgBjWqHcPwAVawM3JVpD2O9tZJeXi3QHr6dEaenId89h4ZUgSGPo831GUcXeW5khkECQSpCpOoG0eBlCtDD7vrUcK4vBLzmTevzy4dKgPFNShlPSMoygiaQZy6KxPIWJqK5dYvPxikuS-XtneC6AnBpBiW7EihNARK_18z2hxxljY06bo4H-foeVV-rQ_ZcDaUpKDMC5-j3mTKLYJujA6HQbXajHhvbJ14hZ0UvK89VEE0r2_r2N_q0Fje", "width": 1024}], "place_id": "ChIJsc0mT5BxQQ0RBWp7l274PTw", "plus_code": {"compound_code": "M2JH+2G Moralzarzal, Spain", "global_code": "8CGRM2JH+2G"}, "reference": "ChIJsc0mT5BxQQ0RBWp7l274PTw", "scope": "GOOGLE", "types": ["atm", "finance", "point_of_interest", "establishment"], "vicinity": "Calle de la Huerta, 22, Moralzarzal"}, {"business_status": "OPERATIONAL", "geometry": {"location": {"lat": 40.6786, "lng": -3.9708331}, "viewport": {"northeast": {"lat": 40.6799467802915, "lng": -3.969484619708497}, "southwest": {"lat": 40.6772488197085, "lng": -3.972182580291502}}}, "icon": "https://maps.gstatic.com/mapfiles/place_api/icons/v1/png_71/atm-71.png", "icon_background_color": "#909CE1", "icon_mask_base_uri": "https://maps.gstatic.com/mapfiles/place_api/icons/v2/atm_pinlet", "name": "Punto Nickel - ALFERTEL SL", "opening_hours": {"open_now": false}, "place_id": "ChIJPwkbzpx1QQ0RJd_Gmrqvg-0", "plus_code": {"compound_code": "M2HH+CM Collado Villalba, Spain", "global_code": "8CGRM2HH+CM"}, "reference": "ChIJPwkbzpx1QQ0RJd_Gmrqvg-0", "scope": "GOOGLE", "types": ["atm", "bank", "finance", "point_of_interest", "establishment"], "vicinity": "TRAVESIA DE LA VENTA, 1-3, Collado Villalba"}, {"business_status": "OPERATIONAL", "geometry": {"location": {"lat": 40.71511349999999, "lng": -3.989845499999999}, "viewport": {"northeast": {"lat": 40.71644388029149, "lng": -3.988466669708498}, "southwest": {"lat": 40.71374591970849, "lng": -3.991164630291502}}}, "icon": "https://maps.gstatic.com/mapfiles/place_api/icons/v1/png_71/atm-71.png", "icon_background_color": "#909CE1", "icon_mask_base_uri": "https://maps.gstatic.com/mapfiles/place_api/icons/v2/atm_pinlet", "international_phone_number": "+34 900 404 090", "name": "ATM CaixaBank - Cajero", "opening_hours": {"open_now": true}, "photos": [{"height": 681, "html_attributions": ["<a href=\"https://maps.google.com/maps/contrib/109321112422699743984\">ATM CaixaBank - Cajero</a>"], "photo_reference": "AWn5SU7Pjr0bGzhzz1CkrmA1HM35R67lxpVbttuafuXUj9h5j6SD3yiQt_eY9IyQ29qrgi3t_63bFd8yrJDycbVA7IZA1g9UcmAHr3H3bVOXlUzvCGYvkdrgT_0zVS2Nkf2a1eLcHgAlD5dCrAAwR21Q4MF9L6iiH8GA_HbiA7-saETpjCnra_6_89DRk_mlIyT8Uo5F92u7kATYGP2XZkLlqvVSXYuBpQa4b1ShHK8fFNwqbCjgjo-hQ56cp1I2BzdO5SlTx_TQvLxzGLBFsLqNKb1lLhrvOKMfyvps0_6hfLtMCI9mxEyQB7LKFxHvtTll1JBl-qt_p6U", "width": 1024}], "place_id": "ChIJ1WqnQS5zQQ0RM__Fmtvb2MY", "plus_code": {"compound_code": "P286+23 Becerril de la Sierra, Spain", "global_code": "8CGRP286+23"}, "reference": "ChIJ1WqnQS5zQQ0RM__Fmtvb2MY", "scope": "GOOGLE", "types": ["atm", "finance", "point_of_interest", "establishment"], "vicinity": "Travesía de San Sebastián, 9, Becerril de la Sierra"}, {"business_status": "OPERATIONAL", "geometry": {"location": {"lat": 40.6990938, "lng": -3.931735800000001}, "viewport": {"northeast": {"lat": 40.70042198029149, "lng": -3.930308869708498}, "southwest": {"lat": 40.6977240197085, "lng": -3.933006830291502}}}, "icon": "https://maps.gstatic.com/mapfiles/place_api/icons/v1/png_71/atm-71.png", "icon_background_color": "#909CE1", "icon_mask_base_uri": "https://maps.gstatic.com/mapfiles/place_api/icons/v2/atm_pinlet", "international_phone_number": "+34 900 404 090", "name": "ATM CaixaBank - Cajero", "opening_hours": {"open_now": true}, "photos": [{"height": 681, "html_attributions": ["<a href=\"https://maps.google.com/maps/contrib/110475504936823606030\">ATM CaixaBank - Cajero</a>"], "photo_reference": "AWn5SU62RghV1uPxSIBYPGnZMfXRWSNlyBiw89l08lEY_KAJjvfbRibEAmz6Yo8Xvp7WFEvSjScQEUjcAT1RJqvqjdICEHbVhaEvJo-GRsovv-s6WESrVpaMK4BvTHGL_WmmaTc100DBJV7GSxODqw76dYeGoboOxtW9TMh52KtydzdMaEEV-xT3fiIj3oxoKxskaYg1I4qr4_LMM3i-zzlz5aYY1CbynrJ2nufI_FrfGjB3FD6fBdQmRC-uQOKu2vjZiwLVfjalwJnNJX44ndPOQ6VaJdQnpD-kn0dc5gZbljLxNHl5OPwPSILuGV-EYGKlRcUX8tqlfTI", "width": 1024}], "place_id": "ChIJkYi41iFxQQ0RdbZdnjeqXpQ", "plus_code": {"compound_code": "M3X9+J8 Cerceda, Spain", "global_code": "8CGRM3X9+J8"}, "reference": "ChIJkYi41iFxQQ0RdbZdnjeqXpQ", "scope": "GOOGLE", "types": ["atm", "finance", "point_of_interest", "establishment"], "vicinity": "Avenida de los Canteros, 2, Cerceda"}, {"business_status": "OPERATIONAL", "geometry": {"location": {"lat": 40.7160333, "lng": -3.9896889}, "viewport": {"northeast": {"lat": 40.7173378302915, "lng": -3.988408519708497}, "southwest": {"lat": 40.7146398697085, "lng": -3.991106480291502}}}, "icon": "https://maps.gstatic.com/mapfiles/place_api/icons/v1/png_71/bank-71.png", "icon_background_color": "#909CE1", "icon_mask_base_uri": "https://maps.gstatic.com/mapfiles/place_api/icons/v2/bank-intl_pinlet", "international_phone_number": "+34 659 12 06 89", "name": "BBVA - Agente Autorizado", "opening_hours": {"open_now": false}, "photos": [{"height": 720, "html_attributions": ["<a href=\"https://maps.google.com/maps/contrib/103601302453351896543\">BBVA - Agente Autorizado</a>"], "photo_reference": "AWn5SU63bZO6W99c-ge2lVNBaXwGtqN8JKCByVZ5AO_EdMa8rJ69MdgFpjCa_14PfRvT8mJXEmEYZK3eU_0szj-ZFeR0jUchTxyfk0EXsbTMYgs0eKEMeMR1zRBjKsnoRqmUsXObqsCIrJ0xwRfn6dU7ib1vzvMRWUAA-vqJ5kogN3xsoKfDG7-mRF_nNl5mYziPM6qckVocDQ89EYsJwr2CV81OG2kEP1621Dl474BiMHuqfIby9uarbeoUx5Doq4Z_PtQfKJLK2bAk-ASZe6PwW1Eg01pCGfIBQnhBbINRdm3iLp8fsjx8Pu0I_5QI3S7gc5x6iDLz4VE", "width": 1280}], "place_id": "ChIJXzj2Um1zQQ0RKOyt9IfI9Iw", "plus_code": {"compound_code": "P286+C4 Becerril de la Sierra, Spain", "global_code": "8CGRP286+C4"}, "rating": 4.5, "reference": "ChIJXzj2Um1zQQ0RKOyt9IfI9Iw", "scope": "GOOGLE", "types": ["bank", "atm", "finance", "point_of_interest", "establishment"], "user_ratings_total": 15, "vicinity": "Avenida de Calvo Sotelo, 20, Becerril de la Sierra"}, {"business_status": "OPERATIONAL", "geometry": {"location": {"lat": 40.6451224, "lng": -3.9913371}, "viewport": {"northeast": {"lat": 40.64645483029149, "lng": -3.989984919708497}, "southwest": {"lat": 40.6437568697085, "lng": -3.992682880291502}}}, "icon": "https://maps.gstatic.com/mapfiles/place_api/icons/v1/png_71/atm-71.png", "icon_background_color": "#909CE1", "icon_mask_base_uri": "https://maps.gstatic.com/mapfiles/place_api/icons/v2/atm_pinlet", "name": "Punto Nickel - ESTANCO MARIA ANGELES", "opening_hours": {"open_now": false}, "place_id": "ChIJlehsNJV1QQ0RqpBexq3aOsM", "plus_code": {"compound_code": "J2W5+2F Collado Villalba, Spain", "global_code": "8CGRJ2W5+2F"}, "rating": 5, "reference": "ChIJlehsNJV1QQ0RqpBexq3aOsM", "scope": "GOOGLE", "types": ["atm", "bank", "finance", "point_of_interest", "establishment"], "user_ratings_total": 2, "vicinity": "Calle Anacleto López, 4, Collado Villalba"}, {"business_status": "OPERATIONAL", "geometry": {"location": {"lat": 40.64435150000001, "lng": -3.9911173}, "viewport": {"northeast": {"lat": 40.6456122802915, "lng": -3.989718169708498}, "southwest": {"lat": 40.6429143197085, "lng": -3.992416130291503}}}, "icon": "https://maps.gstatic.com/mapfiles/place_api/icons/v1/png_71/atm-71.png", "icon_background_color": "#909CE1", "icon_mask_base_uri": "https://maps.gstatic.com/mapfiles/place_api/icons/v2/atm_pinlet", "international_phone_number": "+34 900 404 090", "name": "ATM CaixaBank - Cajero", "opening_hours": {"open_now": true}, "photos": [{"height": 681, "html_attributions": ["<a href=\"https://maps.google.com/maps/contrib/111975562342862071111\">ATM CaixaBank - Cajero</a>"], "photo_reference": "AWn5SU4yYNWzR-C9HNbTTP5mMzsHdkVj2mukyxwgtLQxP1JiL6QripMO7lngiXRUX1SevzGhEo-V9j-GTRtNTc_ZC07QY3e0UiQRZeb-qD8bjt5Wv-74h-BWDkqkM98BXKESoJIoWtqg6O6EyT3JwdoijTCYfu5eUWDnJ1iEDCbtTyptToJAv52pLcXlsFvaRkOndTbAeQHOSPFm3vXVFhws8maTTlzviYTiVrTtGZ3gj299VSr2YQKkSKabGPkW3UNDrQKHOm59uBOecf-1sRHZckJgwDhmEYIRtTgzVdHWWjc03aYCKGm7gd_CcWIYLhFKUVyDQHJa4AY", "width": 1024}], "place_id": "ChIJP0YRlGN1QQ0RLsdZQRsgr7s", "plus_code": {"compound_code": "J2V5+PH Collado Villalba, Spain", "global_code": "8CGRJ2V5+PH"}, "reference": "ChIJP0YRlGN1QQ0RLsdZQRsgr7s", "scope": "GOOGLE", "types": ["atm", "finance", "point_of_interest", "establishment"], "vicinity": "Pl. De Los, Plaza Cuatro Caños, 4, Collado Villalba"}, {"business_status": "OPERATIONAL", "geometry": {"location": {"lat": 40.692734, "lng": -4.0263915}, "viewport": {"northeast": {"lat": 40.69411223029149, "lng": -4.025002619708498}, "southwest": {"lat": 40.6914142697085, "lng": -4.027700580291502}}}, "icon": "https://maps.gstatic.com/mapfiles/place_api/icons/v1/png_71/atm-71.png", "icon_background_color": "#909CE1", "icon_mask_base_uri": "https://maps.gstatic.com/mapfiles/place_api/icons/v2/atm_pinlet", "international_phone_number": "+34 900 404 090", "name": "ATM CaixaBank - Cajero", "opening_hours": {"open_now": true}, "photos": [{"height": 681, "html_attributions": ["<a href=\"https://maps.google.com/maps/contrib/114339620870605292173\">ATM CaixaBank - Cajero</a>"], "photo_reference": "AWn5SU4YCmVqQIGiRQPc4XaGX1kBhU3Q1NLnMxTUHER-CYO2T5ov3-Uq3i5wqkd-EVWjwdLlj6GWF57QAUZarUqP645GdwbKm-eC-QC0ugo2iqRsAGk1fygolqZthFZSLHFyHC6PfbD1iCEOZ6mFiEzhzvxc81XQVc7m6eruT6g8snUQ9RSJsJh92xlSm5biabshnrqKtddhyk9htvNUYsHEYrBDxF561TohsiB-DFIAZJRjMpG6FySgpAIOrMKdr1ZMH3boz2PjBGGPijCSxVb4vW-Z4LRE6Dm4MJbjmT7xEF30GocUPe9b1ykyl3ubD6-RQNzDfSnSlaQ", "width": 1024}], "place_id": "ChIJ-2sMRo1zQQ0RdsuAQoP-6Gk", "plus_code": {"compound_code": "MXVF+3C Collado Mediano, Spain", "global_code": "8CGQMXVF+3C"}, "reference": "ChIJ-2sMRo1zQQ0RdsuAQoP-6Gk", "scope": "GOOGLE", "types": ["atm", "finance", "point_of_interest", "establishment"], "vicinity": "Calle Real, 25, Collado Mediano"}, {"business_status": "OPERATIONAL", "geometry": {"location": {"lat": 40.65989379999999, "lng": -4.0266392}, "viewport": {"northeast": {"lat": 40.6612188302915, "lng": -4.025298869708497}, "southwest": {"lat": 40.6585208697085, "lng": -4.027996830291501}}}, "icon": "https://maps.gstatic.com/mapfiles/place_api/icons/v1/png_71/atm-71.png", "icon_background_color": "#909CE1", "icon_mask_base_uri": "https://maps.gstatic.com/mapfiles/place_api/icons/v2/atm_pinlet", "international_phone_number": "+34 900 404 090", "name": "ATM CaixaBank - Cajero", "opening_hours": {"open_now": true}, "photos": [{"height": 681, "html_attributions": ["<a href=\"https://maps.google.com/maps/contrib/100206861274904973417\">ATM CaixaBank - Cajero</a>"], "photo_reference": "AWn5SU44LsQsPQKlmsLSVveAoNFGoWYEsx2ETTfLRIG9pA0EpyX-AfA4t7RYNOGneR68QtDVIERQao4szAgrE1-1sduvkOOQiPyZg47sfBROBXkbB5l0Vu90_RRBCTiTTwxVAWQJsp2xbbkYlms3FabivrJqY5XUyea-neLI1fMKyIXNIlU73_2UBLGMqvbemd6SufCxC210IEhNnBsaR7eUvAbUuvEFhd0yfZy4LFDmI-M7rcYw_U7gHq_ZhlDV4F4MChZ5AmC_CJbHdrmATTHfsTWDpYB2rksmx1UHtJNQ3gvcbDY2Br_BxCohbF4RErX6ZmjVeJWhaCU", "width": 1024}], "place_id": "ChIJo5bSYz1zQQ0Rb5KnQlWRaZQ", "plus_code": {"compound_code": "MX5F+X8 Alpedrete, Spain", "global_code": "8CGQMX5F+X8"}, "reference": "ChIJo5bSYz1zQQ0Rb5KnQlWRaZQ", "scope": "GOOGLE", "types": ["atm", "finance", "point_of_interest", "establishment"], "vicinity": "Avenida de los Canteros, 8, Alpedrete"}]