[{"business_status": "OPERATIONAL", "geometry": {"location": {"lat": 40.4560085, "lng": -3.4798936}, "viewport": {"northeast": {"lat": 40.45733178029149, "lng": -3.478639019708498}, "southwest": {"lat": 40.4546338197085, "lng": -3.481336980291502}}}, "icon": "https://maps.gstatic.com/mapfiles/place_api/icons/v1/png_71/generic_business-71.png", "icon_background_color": "#7B9EB0", "icon_mask_base_uri": "https://maps.gstatic.com/mapfiles/place_api/icons/v2/generic_pinlet", "international_phone_number": "+34 902 42 22 42", "name": "Terminal Pza.España-Est.Torrejón", "photos": [{"height": 1200, "html_attributions": ["<a href=\"https://maps.google.com/maps/contrib/114861500808864646382\">Miguel Rosán</a>"], "photo_reference": "AWn5SU4HPiXZCZyVQWhrt0reELAFBBVpKEk0QInHgMxYkLG7BU_wNlt0etJqiRt9JeccgfzNO_1jEndhYjRKWZcS29sUgMehCtqxWUmFrA5SAOosh_aVRXMZwPujQzeJ8rLqJQLZEWYk6wqYUSMN66H1Jtbp-ELyDpiYaJ1CR-UXorgHf5JFiLmVCYRggxHhmHC4dxnUAu2Etzm8gEuzMlAI0lgDxZVEgXw2o-gv3qJORN0S64FuQ5Ti3jRjDALkiK3LYkPT3qf4w9moBcsxH2eFCBaVyHgynypkHj9QkDnTy_2Lb9go880NdcSZ29vzBturJ5V0NQu-5ejziIkNbdht0ct17vCv1rEeh_UbOcF2wcvve4keKMe4csw52UMlEa5XvUzkk87E11tpzZtE9Gm16uwf1XasGNb38_E4uxgWt_OahDSHEpFRKTAs87FlhGZYBnR4WuBZINeeYQbV7AqB5kUyWNcCmhQKfNlG7PYyFd8sJQQyjqgsJGFbH7b9SeIAnw_8at_XIToCryGCFrUARA8qu0XGbSCZf1ekIidQ-9tkNiJWbNQa5JTa-Hb0KKlojl9ohw-WhwwZ1aehQJ303DxOFJCYNekcq0sOHHhjz_qM8FhLzsfZjfPtJh-fK6Ko", "width": 1800}], "place_id": "ChIJDZrQsB03Qg0Rnvylw6Dpxmw", "plus_code": {"compound_code": "FG4C+C2 Torrejón de Ardoz, Spain", "global_code": "8CGRFG4C+C2"}, "rating": 2.4, "reference": "ChIJDZrQsB03Qg0Rnvylw6Dpxmw", "scope": "GOOGLE", "types": ["transit_station", "point_of_interest", "establishment"], "user_ratings_total": 18, "vicinity": "Estación de Autobuses, Plaza De España, 14, Torrejón de Ardoz, Madrid"}, {"business_status": "OPERATIONAL", "geometry": {"location": {"lat": 40.4428, "lng": -3.5339602}, "viewport": {"northeast": {"lat": 40.4440196802915, "lng": -3.532573669708498}, "southwest": {"lat": 40.4413217197085, "lng": -3.535271630291501}}}, "icon": "https://maps.gstatic.com/mapfiles/place_api/icons/v1/png_71/train-71.png", "icon_background_color": "#10BDFF", "icon_mask_base_uri": "https://maps.gstatic.com/mapfiles/place_api/icons/v2/train_rail_1_pinlet", "name": "San Fernando", "photos": [{"height": 1080, "html_attributions": ["<a href=\"https://maps.google.com/maps/contrib/100824696388200225810\">A. M.C.</a>"], "photo_reference": "AWn5SU4pITdobNVb86bbkN8jRY3_DBifI1Om5ea-F_8O8UsWbWSWRy_fafhpy6QdArdIL3xGJsA0xoQ_qepfOUijBLYZvSAlx68AsBiznbWrnebduIkFvmEoLBbnwIlrgZd6btOx6l8FdkNlkAmtZM0JZ9CPe0mmc4PoJxhXTj1rjNRFglTBERmudmDl_SDP7iOOxQl1NGvU5BufUWxJTK2p8eNA1KX0_MAqx2Gzx39cyQ-Ra_jjoTRY_lMT7axxR-6X5MC3L1urcMh4Zor90t7LTsCmfxKnz7yy-_0ra61Lm3AFv3vmhUcSmbiHl4IH5bZhPnsk1bJG-Xns6rKszHjfowNJYsT_KP6i7yKhs8s6dAxvb16DvLDaDsfe1nJ2tE6H8FlESxw3cSwkMm_351ZKTPSlQwZL_aItTe1isjLQQqwztXnS-lyBEOyJDCE7K03DeVvhtTEr1vVa0047TouQvS3zckqlmy2hvmMqgz8JbRky4qvhTZSr9aAT0uzzH_X_sgJyJEBqJ6mw3buMGbJg8DXAbkebkJtnhcYeltZ-vF3aAQrB7qj1LyOKmfwbPMKkUKv0hIO9Eyb31aYEIs2Y6ERqQxSHzzQk8bErei_Q6Pnq-ihBcbJ8Lg6-IMqnuQDjaIBnXA", "width": 1920}], "place_id": "ChIJB1H-xfMwQg0RZewT9r6_A84", "plus_code": {"compound_code": "CFV8+4C Coslada, Spain", "global_code": "8CGRCFV8+4C"}, "rating": 3.4, "reference": "ChIJB1H-xfMwQg0RZewT9r6_A84", "scope": "GOOGLE", "types": ["train_station", "transit_station", "point_of_interest", "establishment"], "user_ratings_total": 146, "vicinity": "Spain"}, {"business_status": "OPERATIONAL", "geometry": {"location": {"lat": 40.3950068, "lng": -3.488401999999999}, "viewport": {"northeast": {"lat": 40.39628303029151, "lng": -3.487147419708499}, "southwest": {"lat": 40.39358506970851, "lng": -3.489845380291503}}}, "icon": "https://maps.gstatic.com/mapfiles/place_api/icons/v1/png_71/generic_business-71.png", "icon_background_color": "#7B9EB0", "icon_mask_base_uri": "https://maps.gstatic.com/mapfiles/place_api/icons/v2/generic_pinlet", "name": "Miguel Hernández-Antonio Gaudí", "photos": [{"height": 2464, "html_attributions": ["<a href=\"https://maps.google.com/maps/contrib/106256480469847626026\">Fernando Olmos Balzanti</a>"], "photo_reference": "AWn5SU5zRU4QD3ekbRjDppuK23XQLqqAzRB1HvEGc1wV0OMsRxpAm7qF1Ye9Rq8qBLZuKDs9K7SauppByPi6WO70wv4EuU-0JLBT13J9BaHmV6SlO2u81tNnNjA1PPOPRfT_-X3PtInv67ATPx32fMiknTtU3y9zulye9_AS25abrEGbZaNjYPknQt-mFjMaZsac-kdXHMU3nzMgITok_pw_PiyPZUCJZYxE54DacReyUMysmlcB848kYo3M60qABapaPU7W76DgpA9ca-RjwnatMxE-DG-Okj1K8Z_s0xfYSdVaH6aBhGasI2oCoR2MiRf6BYeY54nKJm3NnKFP-ek_xo_zgzV7bqsfalmVzszt5sjUaL3pAVIND7u6Awt4aE9Uw80p1lS_x7xkjBmFP4gUDlGrdVdqxImKaIsrdyRJzLW1SW6p7Jf4RW0ap3M3tiwoxgpyhqo484ww-3Ydjq1sI-wUz0KwZgPMG-TLhjPhIOVDN56V7cjzQgtsIcZa9_oaGF3Iyt4ljBqPi4k9_bd06dcdEOZnhz_twnDKIrepkTEMPtRRafjMKeYQxSk9KUtQvtQGYyrWpRcZVsQyVrdf0dVdj0hQGuM076clK87gVbf1ngeCjYZGnxV_IarKklfp2FQSkw", "width": 3280}], "place_id": "ChIJY8caOpI5Qg0RWJ7exh-eTUQ", "plus_code": {"compound_code": "9GW6+2J Mejorada del Campo, Spain", "global_code": "8CGR9GW6+2J"}, "rating": 4.8, "reference": "ChIJY8caOpI5Qg0RWJ7exh-eTUQ", "scope": "GOOGLE", "types": ["transit_station", "point_of_interest", "establishment"], "user_ratings_total": 5, "vicinity": "Spain"}, {"business_status": "OPERATIONAL", "geometry": {"location": {"lat": 40.3980239, "lng": -3.4843467}, "viewport": {"northeast": {"lat": 40.3993761802915, "lng": -3.482977069708498}, "southwest": {"lat": 40.3966782197085, "lng": -3.485675030291501}}}, "icon": "https://maps.gstatic.com/mapfiles/place_api/icons/v1/png_71/bus-71.png", "icon_background_color": "#10BDFF", "icon_mask_base_uri": "https://maps.gstatic.com/mapfiles/place_api/icons/v2/bus_share_taxi_pinlet", "name": "Av.Concordia-Mayor", "place_id": "ChIJKeuPlpQ5Qg0R91J7OJO_IJE", "plus_code": {"compound_code": "9GX8+67 Mejorada del Campo, Spain", "global_code": "8CGR9GX8+67"}, "rating": 5, "reference": "ChIJKeuPlpQ5Qg0R91J7OJO_IJE", "scope": "GOOGLE", "types": ["bus_station", "transit_station", "point_of_interest", "establishment"], "user_ratings_total": 1, "vicinity": "Spain"}, {"business_status": "OPERATIONAL", "geometry": {"location": {"lat": 40.39587119999999, "lng": -3.484237}, "viewport": {"northeast": {"lat": 40.3972095802915, "lng": -3.482880269708498}, "southwest": {"lat": 40.3945116197085, "lng": -3.485578230291502}}}, "icon": "https://maps.gstatic.com/mapfiles/place_api/icons/v1/png_71/generic_business-71.png", "icon_background_color": "#7B9EB0", "icon_mask_base_uri": "https://maps.gstatic.com/mapfiles/place_api/icons/v2/generic_pinlet", "name": "Miguel Hernández-Av.Concordia", "place_id": "ChIJCbltaZQ5Qg0RcZPfMfCBDwM", "plus_code": {"compound_code": "9GW8+88 Mejorada del Campo, Spain", "global_code": "8CGR9GW8+88"}, "rating": 1, "reference": "ChIJCbltaZQ5Qg0RcZPfMfCBDwM", "scope": "GOOGLE", "types": ["transit_station", "point_of_interest", "establishment"], "user_ratings_total": 1, "vicinity": "Spain"}, {"business_status": "OPERATIONAL", "geometry": {"location": {"lat": 40.3946922, "lng": -3.490367499999999}, "viewport": {"northeast": {"lat": 40.39604903029149, "lng": -3.489042819708498}, "southwest": {"lat": 40.39335106970849, "lng": -3.491740780291502}}}, "icon": "https://maps.gstatic.com/mapfiles/place_api/icons/v1/png_71/generic_business-71.png", "icon_background_color": "#7B9EB0", "icon_mask_base_uri": "https://maps.gstatic.com/mapfiles/place_api/icons/v2/generic_pinlet", "name": "PºArenero-Abogados Laboralistas", "photos": [{"height": 6936, "html_attributions": ["<a href=\"https://maps.google.com/maps/contrib/103002455222539294286\">BIKOTRAVEL</a>"], "photo_reference": "AWn5SU4IvkYzAmpt1_zLlmNKIknEX4H_Jzoe53Nf4fnSnUK7ZVhliRdf4GlRIR9nqzphsAMJjq7_o4rxptddQ5sNKs3_1U-ji9nq0X0VyPJ3dC1DlViOdF7Ye4vy7vYMxqj9fVnaHG-_WCyJv7notbrXuuQH3TL9pzfK3mi_Kujv1TsxDEw8Bhj_bvnK4vdmKZW4WmVlgfRHeiP8eJ1Dv5obpSTQ08YP7pts0BO3YZYMSEwaFNdG5JjxVnWjUnWpFmQgpeRIs9x2_hEx_0cuSj6tsJLQ_Ei66s_6Axu6ie4FSTb9Z6zdGc2p4M7ggurAE1rox0lTn7AUvwWY_3TbTLU_MIER8gXDo9L6f2ZKKWL6kUyVKN5_E3VyqhLdOq53QQkWl0YLw89q95LnS05ebMyfQTpzD9f1BjNjHqW9Rc38GHG8wwYA-oAdyqvNgJTW8ixwHdlRTGzZfYG0z7pqKxfQgDUMO4waHC3lSVhyhuIl_36FrreDvsOrGDziHlmDzsKAsCziLV71S4KcLFMvbavvRSRYi99anykU3bTRparXm2jjf_UVXt7OWhe5Hqn-VvE6_A1i-Y8ZsbPVqj9E_poWyp4JHUZUPHxyKIfWDdfj7eRZ3pov6L2KIYJRRcu7ENoRy_VUgQ", "width": 9248}], "place_id": "ChIJzw60CZI5Qg0RKJ8YT0G0NjQ", "plus_code": {"compound_code": "9GV5+VV Mejorada del Campo, Spain", "global_code": "8CGR9GV5+VV"}, "rating": 5, "reference": "ChIJzw60CZI5Qg0RKJ8YT0G0NjQ", "scope": "GOOGLE", "types": ["transit_station", "point_of_interest", "establishment"], "user_ratings_total": 2, "vicinity": "Spain"}, {"business_status": "OPERATIONAL", "geometry": {"location": {"lat": 40.39815969999999, "lng": -3.484170899999999}, "viewport": {"northeast": {"lat": 40.39950803029149, "lng": -3.482825319708498}, "southwest": {"lat": 40.3968100697085, "lng": -3.485523280291502}}}, "icon": "https://maps.gstatic.com/mapfiles/place_api/icons/v1/png_71/generic_business-71.png", "icon_background_color": "#7B9EB0", "icon_mask_base_uri": "https://maps.gstatic.com/mapfiles/place_api/icons/v2/generic_pinlet", "name": "Av.Concordia-Ciudad de Atenas", "place_id": "ChIJJaYQlpQ5Qg0RefZM6isB9lE", "plus_code": {"compound_code": "9GX8+78 Mejorada del Campo, Spain", "global_code": "8CGR9GX8+78"}, "rating": 4.5, "reference": "ChIJJaYQlpQ5Qg0RefZM6isB9lE", "scope": "GOOGLE", "types": ["transit_station", "point_of_interest", "establishment"], "user_ratings_total": 2, "vicinity": "Spain"}, {"business_status": "OPERATIONAL", "geometry": {"location": {"lat": 40.3951965, "lng": -3.4839965}, "viewport": {"northeast": {"lat": 40.39654083029151, "lng": -3.482586819708498}, "southwest": {"lat": 40.39384286970851, "lng": -3.485284780291502}}}, "icon": "https://maps.gstatic.com/mapfiles/place_api/icons/v1/png_71/generic_business-71.png", "icon_background_color": "#7B9EB0", "icon_mask_base_uri": "https://maps.gstatic.com/mapfiles/place_api/icons/v2/generic_pinlet", "name": "Av.Juan Gris-Miguel Hernández", "place_id": "ChIJUxvkFZQ5Qg0RE4E2OfqQfjg", "plus_code": {"compound_code": "9GW8+3C Mejorada del Campo, Spain", "global_code": "8CGR9GW8+3C"}, "rating": 4.7, "reference": "ChIJUxvkFZQ5Qg0RE4E2OfqQfjg", "scope": "GOOGLE", "types": ["transit_station", "point_of_interest", "establishment"], "user_ratings_total": 3, "vicinity": "Spain"}, {"business_status": "OPERATIONAL", "geometry": {"location": {"lat": 40.3950624, "lng": -3.4837599}, "viewport": {"northeast": {"lat": 40.3964113802915, "lng": -3.482416069708498}, "southwest": {"lat": 40.39371341970851, "lng": -3.485114030291502}}}, "icon": "https://maps.gstatic.com/mapfiles/place_api/icons/v1/png_71/generic_business-71.png", "icon_background_color": "#7B9EB0", "icon_mask_base_uri": "https://maps.gstatic.com/mapfiles/place_api/icons/v2/generic_pinlet", "name": "Av.Juan Gris-Miguel Hernández", "photos": [{"height": 4160, "html_attributions": ["<a href=\"https://maps.google.com/maps/contrib/115718867919409082307\">atemprana ortopedia</a>"], "photo_reference": "AWn5SU4UFs3c_THPUxXkKu_9eUvzZWctncuxHdUf5zrVaPHm4lY3N1XjHNlTk7X_vQ3DmGm2Om7KQ_epz8FPCTpFVclWx4YTGqrFhvk_jYBDXqF5sWQlnRzRrbMLtSVDIx0O-BHP3vj9Fh9hnYdISH4gCtRAfoEqTNm5W0DVETJsHHVCwPqyO_fcCa8wYMsqPRsqJu9W4SAqZcvj3coBG2shO9ko6ZXjU6OrskNwUNlXJYp3Ivv-w-uLUWGARDUazNVQAxt-YCEJqV3p4AF_6ynDKckc5G7QrIWgtPWYOLclcDM9gTKf4Orjszd_YTPb22_qeKNdyx1sJ6p8s1FO86PGV_zLEDLWI202xUNvUrDyERb5YZyQXxUbpDj_KghF6ZwwqAW_6CT5dW1gSwDCKvlXgxfFpjcZeZjKDDbAvxRssDSkSM2zT5vNGTIhJf-pfbuYRYkn3_cffKY1y-0hOS67R1JR8qynYTi7ngO0LfM3jgu1mXWhQ7DcnTotRzaAHPfxjPBz3ZmBgInbkRDV5jcG8bP3mhtkDGyYiTOHEselvLNKYdwN9dL5KsMzYoIwFyAch9O87CGrGwINlLNGeviknd4vOfq5sCxaFfA4DylWSgQrHtoJBpJ7ajgHMPUUL1Y2", "width": 3120}], "place_id": "ChIJN8jTPZQ5Qg0R7i2MoNPfNdQ", "plus_code": {"compound_code": "9GW8+2F Mejorada del Campo, Spain", "global_code": "8CGR9GW8+2F"}, "rating": 5, "reference": "ChIJN8jTPZQ5Qg0R7i2MoNPfNdQ", "scope": "GOOGLE", "types": ["transit_station", "point_of_interest", "establishment"], "user_ratings_total": 2, "vicinity": "Spain"}, {"business_status": "OPERATIONAL", "geometry": {"location": {"lat": 40.3932457, "lng": -3.4872935}, "viewport": {"northeast": {"lat": 40.3946166302915, "lng": -3.485895369708498}, "southwest": {"lat": 40.3919186697085, "lng": -3.488593330291502}}}, "icon": "https://maps.gstatic.com/mapfiles/place_api/icons/v1/png_71/generic_business-71.png", "icon_background_color": "#7B9EB0", "icon_mask_base_uri": "https://maps.gstatic.com/mapfiles/place_api/icons/v2/generic_pinlet", "name": "Antonio Gaudí-Antonio Machado", "photos": [{"height": 3456, "html_attributions": ["<a href=\"https://maps.google.com/maps/contrib/113567462606374129265\">José Rodríguez</a>"], "photo_reference": "AWn5SU5wBP4lXnJsozjWFDP2p7do2-prOHFosovfvIwMzzHDpG26-8Qdm-LAAmOZK--n73d6aXOr-2eudi3lXvxK2DLV3_CafV6g0xbFrIf0-ZimK3qNvg5AEgtGhkBOSeFGo4vpA0Bc1SJoSWP3kiQ1uxsVMM5ws6XH2qi9q-AzsZjavWnXaZ86grlQ7sqNFcLNq82sq7x7wB-fsYQJ6BDdiJGQ9Zkfr6fnJMbsNa13wDcPEOKRFOLtZ59OoYq_puUis9hNGIJhesyd5ZAo_Knp-k-aaVA4bCerSd9eNYAiaFA2y1Eeslwfq_XoZYXHqR0WXFY2SbnKhvecONURNj6Th6ibT-jmD6cOukvexUxrbkcYF0JS-kwhfoDQpcIEU578T81ojkXunVQNKhcefBLfDvwhLW-PBX0_fOV1MQZq5_FXCk2DqjaYjD3mOBQgiGWWsduYYrGmICF7wcFvelvZ2gDNFXHKuaJhrawP7LlUDqGDkm5_BAMM2Rx1zWvjOAF3rXyr_f-DVMuIIThKkHha4u6CN2uSsuGixTT3F2qhFklvPPv2E5NZSdTAnu6wyp9U6zu8n3kOxCmU_kvycF-qZ40TNR2Q_6Umu-0ATrWNagDHhivhM5mir9zxJfxWA-pBMHiZx5JD", "width": 4608}], "place_id": "ChIJf1UNcZE5Qg0RAtkaVPZ_lz8", "plus_code": {"compound_code": "9GV7+73 Mejorada del Campo, Spain", "global_code": "8CGR9GV7+73"}, "rating": 5, "reference": "ChIJf1UNcZE5Qg0RAtkaVPZ_lz8", "scope": "GOOGLE", "types": ["transit_station", "point_of_interest", "establishment"], "user_ratings_total": 2, "vicinity": "Spain"}, {"business_status": "OPERATIONAL", "geometry": {"location": {"lat": 40.4001926, "lng": -3.4849396}, "viewport": {"northeast": {"lat": 40.4015222302915, "lng": -3.483557319708499}, "southwest": {"lat": 40.39882426970851, "lng": -3.486255280291502}}}, "icon": "https://maps.gstatic.com/mapfiles/place_api/icons/v1/png_71/generic_business-71.png", "icon_background_color": "#7B9EB0", "icon_mask_base_uri": "https://maps.gstatic.com/mapfiles/place_api/icons/v2/generic_pinlet", "name": "Av.Concordia-Marqués de Hinojares", "place_id": "ChIJdZVFWes5Qg0RoTAClb42_uo", "plus_code": {"compound_code": "CG28+32 Mejorada del Campo, Spain", "global_code": "8CGRCG28+32"}, "reference": "ChIJdZVFWes5Qg0RoTAClb42_uo", "scope": "GOOGLE", "types": ["transit_station", "point_of_interest", "establishment"], "vicinity": "Spain"}, {"business_status": "OPERATIONAL", "geometry": {"location": {"lat": 40.40013930000001, "lng": -3.484750699999999}, "viewport": {"northeast": {"lat": 40.4014913302915, "lng": -3.483384769708498}, "southwest": {"lat": 40.3987933697085, "lng": -3.486082730291502}}}, "icon": "https://maps.gstatic.com/mapfiles/place_api/icons/v1/png_71/generic_business-71.png", "icon_background_color": "#7B9EB0", "icon_mask_base_uri": "https://maps.gstatic.com/mapfiles/place_api/icons/v2/generic_pinlet", "name": "Av.Concordia-Trébol", "place_id": "ChIJPRekW-s5Qg0RZG8TkkQuqIA", "plus_code": {"compound_code": "CG28+33 Mejorada del Campo, Spain", "global_code": "8CGRCG28+33"}, "rating": 4, "reference": "ChIJPRekW-s5Qg0RZG8TkkQuqIA", "scope": "GOOGLE", "types": ["transit_station", "point_of_interest", "establishment"], "user_ratings_total": 4, "vicinity": "Spain"}, {"business_status": "OPERATIONAL", "geometry": {"location": {"lat": 40.4002844, "lng": -3.4845279}, "viewport": {"northeast": {"lat": 40.4016698802915, "lng": -3.483135869708498}, "southwest": {"lat": 40.3989719197085, "lng": -3.485833830291502}}}, "icon": "https://maps.gstatic.com/mapfiles/place_api/icons/v1/png_71/generic_business-71.png", "icon_background_color": "#7B9EB0", "icon_mask_base_uri": "https://maps.gstatic.com/mapfiles/place_api/icons/v2/generic_pinlet", "name": "Av.Europa-Concordia", "place_id": "ChIJm7dRQ-s5Qg0RndAR4I7GnEs", "plus_code": {"compound_code": "CG28+45 Mejorada del Campo, Spain", "global_code": "8CGRCG28+45"}, "reference": "ChIJm7dRQ-s5Qg0RndAR4I7GnEs", "scope": "GOOGLE", "types": ["transit_station", "point_of_interest", "establishment"], "vicinity": "Spain"}, {"business_status": "OPERATIONAL", "geometry": {"location": {"lat": 40.40036629999999, "lng": -3.4843163}, "viewport": {"northeast": {"lat": 40.4016890802915, "lng": -3.482998219708498}, "southwest": {"lat": 40.3989911197085, "lng": -3.485696180291502}}}, "icon": "https://maps.gstatic.com/mapfiles/place_api/icons/v1/png_71/generic_business-71.png", "icon_background_color": "#7B9EB0", "icon_mask_base_uri": "https://maps.gstatic.com/mapfiles/place_api/icons/v2/generic_pinlet", "name": "Av.Europa-Concordia", "place_id": "ChIJ6YLHQ-s5Qg0Rdm5SBi7FkGY", "plus_code": {"compound_code": "CG28+47 Mejorada del Campo, Spain", "global_code": "8CGRCG28+47"}, "reference": "ChIJ6YLHQ-s5Qg0Rdm5SBi7FkGY", "scope": "GOOGLE", "types": ["transit_station", "point_of_interest", "establishment"], "vicinity": "Spain"}, {"business_status": "OPERATIONAL", "geometry": {"location": {"lat": 40.3955452, "lng": -3.4931428}, "viewport": {"northeast": {"lat": 40.3968889802915, "lng": -3.491848169708498}, "southwest": {"lat": 40.3941910197085, "lng": -3.494546130291502}}}, "icon": "https://maps.gstatic.com/mapfiles/place_api/icons/v1/png_71/generic_business-71.png", "icon_background_color": "#7B9EB0", "icon_mask_base_uri": "https://maps.gstatic.com/mapfiles/place_api/icons/v2/generic_pinlet", "name": "Ctra.M208-Los Pinos", "photos": [{"height": 3264, "html_attributions": ["<a href=\"https://maps.google.com/maps/contrib/117587647431313146070\">Mariano Del Olmo Marco</a>"], "photo_reference": "AWn5SU5PhCFDbihtuxEk_8rrfhuHUNXKOqstNVz0-bnkl2iEHyA6bd2iAJhXxVFm016UQC9lLa3vGz8KThANzTZwcMtNv-z2SZoU6glsHaDQlc-aKitYCT-xW-OBDmvrGYmc1bINNsAc_l802VnE4EGuM1bkVdiHBnr17WCeEMi9PY_rsAGzNvBPoDLSTH6DW3cRhwY7y_19YmO57JS5wG3RsI94_lHQ3cU_bq2oCy3Hj8eFyMnME_wrciXFdvgBeA7nYXUjDUmbNVlKtuY2WA0yfX7Zqzvs2N_uJjLBH0zWoX8cEz_e0yRZknODmhm2BhXclVJMZYwdwjyh-v-9njnSqqH13h97R5OZ1Jd4vJdPZHHVH2lKBIqm_l9hDBSoUudQiDwhESS5OQebxwt2hmiuh_vgkyu2r0IOLM-qeW3pCcykKruuz6t00A2KVOm3aqR3E7SwfeyPj1NRXLF6b9Au7qa5OmEZ6Uu046WwOO-xBGyCpmRqtPN3HStx_rsbUIe9nLOlk8HsOlpq-lMf-6AJwNWRGS7H3DzqxiGrEeqZWN3wqI_UodP33NmsZEeYNmxqtAgZncoNbVCoUgKBaisFRizj6-HBKiqYvF07kSZbD9wd8MPJsIfVnqhEgt1g6lEp", "width": 2448}], "place_id": "ChIJD1iyTow5Qg0R1_p8rvNqoQo", "plus_code": {"compound_code": "9GW4+6P Mejorada del Campo, Spain", "global_code": "8CGR9GW4+6P"}, "reference": "ChIJD1iyTow5Qg0R1_p8rvNqoQo", "scope": "GOOGLE", "types": ["transit_station", "point_of_interest", "establishment"], "vicinity": "Spain"}, {"business_status": "OPERATIONAL", "geometry": {"location": {"lat": 40.3955353, "lng": -3.4933666}, "viewport": {"northeast": {"lat": 40.39688968029149, "lng": -3.491961019708498}, "southwest": {"lat": 40.39419171970849, "lng": -3.494658980291502}}}, "icon": "https://maps.gstatic.com/mapfiles/place_api/icons/v1/png_71/generic_business-71.png", "icon_background_color": "#7B9EB0", "icon_mask_base_uri": "https://maps.gstatic.com/mapfiles/place_api/icons/v2/generic_pinlet", "name": "Ctra.M208-Los Pinos", "place_id": "ChIJtRNNT4w5Qg0R6eHUAMEB3HI", "plus_code": {"compound_code": "9GW4+6M Mejorada del Campo, Spain", "global_code": "8CGR9GW4+6M"}, "reference": "ChIJtRNNT4w5Qg0R6eHUAMEB3HI", "scope": "GOOGLE", "types": ["transit_station", "point_of_interest", "establishment"], "vicinity": "Spain"}, {"business_status": "OPERATIONAL", "geometry": {"location": {"lat": 40.3926206, "lng": -3.4838367}, "viewport": {"northeast": {"lat": 40.39396973029151, "lng": -3.482477869708498}, "southwest": {"lat": 40.39127176970851, "lng": -3.485175830291502}}}, "icon": "https://maps.gstatic.com/mapfiles/place_api/icons/v1/png_71/generic_business-71.png", "icon_background_color": "#7B9EB0", "icon_mask_base_uri": "https://maps.gstatic.com/mapfiles/place_api/icons/v2/generic_pinlet", "name": "Av.Juan Gris-Francisco de Goya", "photos": [{"height": 2448, "html_attributions": ["<a href=\"https://maps.google.com/maps/contrib/115797242987202186968\">Francisco Lucena banegas</a>"], "photo_reference": "AWn5SU4t3KJAWEFfEAe-WcC0BF8Be6HyWPPUD8VemRxadr7R57mWUbNjsHAZC0IOKY_zV-5Wv94hQ6Despc0ZWFWvsFwlgl56UlVTlgHdxWMmFvxNtGoGgC2DDgUfZiMu9XGh-iDjJbFykyEJ01lrirUKB7KtvabUG_lInmHWzUL8r1XYbChpNTwvdvz5xaS1l3ZWzwd3H9SZBYB2pjrdzN-qoK91dBEHY0sYB7C_JudBMdHCzBVKHB_reNzqDJiT0AJDCV5__BhRMIfR8_Wp28Q5mytLT6_-BcyPIKfYV5y9kZL73m9FH2lZ4k9m6hDNoOzliyxr17Wbn8fp31AAGXPTBE1fVf9axnkFVYxXwOgQj4aa4bMYHfwAtdlS_RA4lGhAj-bscJSb0eLcPHja9PcEi0gfX0VLIu8S2PUYFd89j2JQRzHCC1uK_63TnWUUno8qMXNT6z9dmR5hoic-hYLQuMMHee3gWDPXtcG7AfIlJfOapCbqjA4VlSty5WrwoIkPndu-QjdKznbpyk10wQkmKl3v7u8BkeR8MvEuorVGTJ1I6weJTOEDTW5D1HSznh4zQjIKHjMAp0DCrdbE5Bm_wG-pwi7aVcj7myOYQiKQGjZRzf_cZUpeEHA-_3sbbkd", "width": 3264}], "place_id": "ChIJ8Zt1wpY5Qg0RfGouvP6PnJU", "plus_code": {"compound_code": "9GV8+2F Mejorada del Campo, Spain", "global_code": "8CGR9GV8+2F"}, "rating": 5, "reference": "ChIJ8Zt1wpY5Qg0RfGouvP6PnJU", "scope": "GOOGLE", "types": ["transit_station", "point_of_interest", "establishment"], "user_ratings_total": 3, "vicinity": "Spain"}, {"business_status": "OPERATIONAL", "geometry": {"location": {"lat": 40.39822789999999, "lng": -3.4807777}, "viewport": {"northeast": {"lat": 40.39954778029149, "lng": -3.479462219708499}, "southwest": {"lat": 40.39684981970849, "lng": -3.482160180291503}}}, "icon": "https://maps.gstatic.com/mapfiles/place_api/icons/v1/png_71/generic_business-71.png", "icon_background_color": "#7B9EB0", "icon_mask_base_uri": "https://maps.gstatic.com/mapfiles/place_api/icons/v2/generic_pinlet", "name": "Av.Europa-Oslo", "place_id": "ChIJy6XLQpU5Qg0RhIf2DHwAKO0", "plus_code": {"compound_code": "9GX9+7M Mejorada del Campo, Spain", "global_code": "8CGR9GX9+7M"}, "reference": "ChIJy6XLQpU5Qg0RhIf2DHwAKO0", "scope": "GOOGLE", "types": ["transit_station", "point_of_interest", "establishment"], "vicinity": "Spain"}, {"business_status": "OPERATIONAL", "geometry": {"location": {"lat": 40.3924409, "lng": -3.483729299999999}, "viewport": {"northeast": {"lat": 40.3937899802915, "lng": -3.482373669708498}, "southwest": {"lat": 40.3910920197085, "lng": -3.485071630291502}}}, "icon": "https://maps.gstatic.com/mapfiles/place_api/icons/v1/png_71/generic_business-71.png", "icon_background_color": "#7B9EB0", "icon_mask_base_uri": "https://maps.gstatic.com/mapfiles/place_api/icons/v2/generic_pinlet", "name": "Av.Juan Gris-Francisco de Goya", "place_id": "ChIJOZrl6JY5Qg0R7Q2dQp2TQsc", "plus_code": {"compound_code": "9GR8+XG Mejorada del Campo, Spain", "global_code": "8CGR9GR8+XG"}, "rating": 4, "reference": "ChIJOZrl6JY5Qg0R7Q2dQp2TQsc", "scope": "GOOGLE", "types": ["transit_station", "point_of_interest", "establishment"], "user_ratings_total": 2, "vicinity": "Spain"}, {"business_status": "OPERATIONAL", "geometry": {"location": {"lat": 40.3922539, "lng": -3.491752}, "viewport": {"northeast": {"lat": 40.3936028802915, "lng": -3.490403669708498}, "southwest": {"lat": 40.3909049197085, "lng": -3.493101630291502}}}, "icon": "https://maps.gstatic.com/mapfiles/place_api/icons/v1/png_71/generic_business-71.png", "icon_background_color": "#7B9EB0", "icon_mask_base_uri": "https://maps.gstatic.com/mapfiles/place_api/icons/v2/generic_pinlet", "name": "PºArenero-Adolfo Marsillach", "place_id": "ChIJA6_0Ro45Qg0RfUTjOoydOMg", "plus_code": {"compound_code": "9GR5+W7 Mejorada del Campo, Spain", "global_code": "8CGR9GR5+W7"}, "reference": "ChIJA6_0Ro45Qg0RfUTjOoydOMg", "scope": "GOOGLE", "types": ["transit_station", "point_of_interest", "establishment"], "vicinity": "Spain"}]