[{"business_status": "OPERATIONAL", "geometry": {"location": {"lat": 40.4946973, "lng": -3.1814457}, "viewport": {"northeast": {"lat": 40.49606233029149, "lng": -3.180109419708499}, "southwest": {"lat": 40.49336436970849, "lng": -3.182807380291503}}}, "icon": "https://maps.gstatic.com/mapfiles/place_api/icons/v1/png_71/bank-71.png", "icon_background_color": "#909CE1", "icon_mask_base_uri": "https://maps.gstatic.com/mapfiles/place_api/icons/v2/bank-intl_pinlet", "international_phone_number": "+34 949 27 21 48", "name": "Eurocaja Rural", "opening_hours": {"open_now": false}, "place_id": "ChIJNWw-dExRQg0RF2tikwpVPDg", "plus_code": {"compound_code": "FRV9+VC Pozo de Guadalajara, Spain", "global_code": "8CGRFRV9+VC"}, "rating": 2.4, "reference": "ChIJNWw-dExRQg0RF2tikwpVPDg", "scope": "GOOGLE", "types": ["bank", "atm", "finance", "point_of_interest", "establishment"], "user_ratings_total": 14, "vicinity": "Calle Mayor, 23, Pozo de Guadalajara"}, {"business_status": "OPERATIONAL", "geometry": {"location": {"lat": 40.49467, "lng": -3.18155}, "viewport": {"northeast": {"lat": 40.4960083302915, "lng": -3.180186969708498}, "southwest": {"lat": 40.4933103697085, "lng": -3.182884930291502}}}, "icon": "https://maps.gstatic.com/mapfiles/place_api/icons/v1/png_71/bank-71.png", "icon_background_color": "#909CE1", "icon_mask_base_uri": "https://maps.gstatic.com/mapfiles/place_api/icons/v2/bank-intl_pinlet", "international_phone_number": "+34 600 40 40 90", "name": "CaixaBank", "opening_hours": {"open_now": false}, "photos": [{"height": 1192, "html_attributions": ["<a href=\"https://maps.google.com/maps/contrib/104944211108307642447\">CaixaBank</a>"], "photo_reference": "AWn5SU4SNoHYAsVoMFb3QDN_LLUkg641ayIc5rpm6jGUVlVJGHUdKI8Ncojy6Ado7Df9WJRituZTTidEEkcueGt6qGAwJZK4BkuQNS-DTSSUv8ObGQMu2Uj2eEaCZ0wWMXi9mrcG0I2yhqJpRYqlQMMDLW7lRyV74rU3PVRX_M8h5AHkhCXhdaY4V-OCSH53R-ygv2vRVkUGMMdbfuRltGuqk5NU6s1jOOrJiFkc8oc5mjpJ8D-MVUtRtmG2nK2O7xl0THt3Ab4miIibgnV4vDwYMPB3dxCVJhQlx6FqmLihRF0M2D49XCD6yy55sRbwtWju40D4a023vMY", "width": 2120}], "place_id": "ChIJ3b9TdExRQg0RA-fmqiwVYlE", "plus_code": {"compound_code": "FRV9+V9 Pozo de Guadalajara, Spain", "global_code": "8CGRFRV9+V9"}, "rating": 2.6, "reference": "ChIJ3b9TdExRQg0RA-fmqiwVYlE", "scope": "GOOGLE", "types": ["bank", "finance", "point_of_interest", "establishment"], "user_ratings_total": 22, "vicinity": "Calle Mayor, 25, Pozo de Guadalajara"}, {"business_status": "OPERATIONAL", "geometry": {"location": {"lat": 40.4620808, "lng": -3.174419899999999}, "viewport": {"northeast": {"lat": 40.4633946802915, "lng": -3.173038719708498}, "southwest": {"lat": 40.4606967197085, "lng": -3.175736680291501}}}, "icon": "https://maps.gstatic.com/mapfiles/place_api/icons/v1/png_71/bank-71.png", "icon_background_color": "#909CE1", "icon_mask_base_uri": "https://maps.gstatic.com/mapfiles/place_api/icons/v2/bank-intl_pinlet", "international_phone_number": "+34 949 27 25 02", "name": "Ibercaja Banco", "opening_hours": {"open_now": false}, "photos": [{"height": 900, "html_attributions": ["<a href=\"https://maps.google.com/maps/contrib/109218527706406288914\">Ibercaja Banco</a>"], "photo_reference": "AWn5SU6MEr9xDbCvq7el97SzE4H2skjZHSQmiOHV1J6Z9biwt6bEA5sXRyu56RQ6O9CSKNrqIrB8KEggeQf7TDL571QCYWHkWWKLYsWJr5JVoY1Svb8ZJf3fdkcMKkOhIK2wyqYcxSY8B_IOLW49EacV_qL_Q54p1K5Qhg5ETANLQ9iqn_iZ6KIPWAQI-NxS5cJMzsByyGjVFbbaQBKt0JvOPHRhj1iAS-A6tRzQdhUdAXBQkap4YURLvxwY0MDS1dtEIRcr70anIPgYgzInh8MYSrH2H_zSsw5bEYDqOjW5v8kKtDcACq2zYF8LSh5NvPnEIKFuh5zWK7w", "width": 1600}], "place_id": "ChIJ4-UnSCxXQg0RkAgKbCHa3Js", "plus_code": {"compound_code": "FR6G+R6 Pioz, Spain", "global_code": "8CGRFR6G+R6"}, "rating": 2.7, "reference": "ChIJ4-UnSCxXQg0RkAgKbCHa3Js", "scope": "GOOGLE", "types": ["bank", "atm", "accounting", "finance", "point_of_interest", "establishment"], "user_ratings_total": 14, "vicinity": "Carretera de Loranca, 14, Pioz"}]