[{"business_status": "OPERATIONAL", "geometry": {"location": {"lat": 40.5945315, "lng": -4.128931699999999}, "viewport": {"northeast": {"lat": 40.5960328802915, "lng": -4.127495519708498}, "southwest": {"lat": 40.5933349197085, "lng": -4.130193480291502}}}, "icon": "https://maps.gstatic.com/mapfiles/place_api/icons/v1/png_71/shopping-71.png", "icon_background_color": "#4B96F3", "icon_mask_base_uri": "https://maps.gstatic.com/mapfiles/place_api/icons/v2/shoppingcart_pinlet", "international_phone_number": "+34 912 17 04 53", "name": "Supermercados Dia", "opening_hours": {"open_now": false}, "photos": [{"height": 648, "html_attributions": ["<a href=\"https://maps.google.com/maps/contrib/111123439049210486661\">Supermercados Dia</a>"], "photo_reference": "AWn5SU6D_-D4rSj1Xl5b5HQv26xY1BbKbZYZy4h7FJ-m8coY1ceWkYmtmObg0nq2vL_7HMstgIykT-g0PT1eC2Zxn4fYAvkFudTA7BvrLmz5FQRjEF4op8Bpk3RIov1VCwppZYTiFO3iyp4t-ez5xcKTSaTCry5_jHliQWrSadT6FnbqZ-cNErCuGb4hoWKnYHkBABid4YsKC99v1mrn83674NrhcSKouKTBEfJZEWyIL8HFtJYHvqYNmGCwTq2dLkF9sXb-Ebb4mjF6v-W8tT2f5IR1NjghewlT9E5tU8LIPbSpPq1wO0nBiz9uJ7Ju0XgNeQZ2sPL_R_E", "width": 1066}], "place_id": "ChIJJRCwsEkKQQ0R6iaX6rezxb0", "plus_code": {"compound_code": "HVVC+RC El Escorial, Spain", "global_code": "8CGQHVVC+RC"}, "rating": 4, "reference": "ChIJJRCwsEkKQQ0R6iaX6rezxb0", "scope": "GOOGLE", "types": ["supermarket", "convenience_store", "bakery", "point_of_interest", "grocery_or_supermarket", "food", "store", "establishment"], "user_ratings_total": 789, "vicinity": "Calle Concha Núñez, El Escorial"}, {"business_status": "OPERATIONAL", "geometry": {"location": {"lat": 40.591785, "lng": -4.1486431}, "viewport": {"northeast": {"lat": 40.5930982302915, "lng": -4.147307669708499}, "southwest": {"lat": 40.5904002697085, "lng": -4.150005630291504}}}, "icon": "https://maps.gstatic.com/mapfiles/place_api/icons/v1/png_71/shopping-71.png", "icon_background_color": "#4B96F3", "icon_mask_base_uri": "https://maps.gstatic.com/mapfiles/place_api/icons/v2/shoppingcart_pinlet", "international_phone_number": "+34 912 17 04 53", "name": "Supermercados Dia", "opening_hours": {"open_now": false}, "photos": [{"height": 768, "html_attributions": ["<a href=\"https://maps.google.com/maps/contrib/117102207772912389526\">Supermercados Dia</a>"], "photo_reference": "AWn5SU5xv9INfKdSFUDZLgrD_MnY-YXm_NERa95jrFZacYwm16-uSUOIPqXQjG1qkA02d0-Hv278E-T5P2nL5BWbyTESUu5Fx7COy9fsAJtF-hc_UYxeQHvUbRAW1KxLgCeeIhZIF2elJswxPJ-F0mx914kWt_5trTZLUYJMjaIf-yk66STZdIpMSOGbbTaZLJJj2Dn_Vmv_nMD4kbvTbVbSKrablS89wLA57AX4AAgvJCO6MgH1F_sUacGPeUz4GtNk-x9jebIyY7TvLO6Pmh9m1rcwO1An3mfaxEO1fILGB_aCNEGp6Gw-xxKlez-6R7IA18nQMrcw2Uw", "width": 1024}], "place_id": "ChIJTfefiSgKQQ0Rrgs9D_OtiME", "plus_code": {"compound_code": "HVR2+PG San Lorenzo de El Escorial, Spain", "global_code": "8CGQHVR2+PG"}, "rating": 3.6, "reference": "ChIJTfefiSgKQQ0Rrgs9D_OtiME", "scope": "GOOGLE", "types": ["supermarket", "convenience_store", "bakery", "point_of_interest", "grocery_or_supermarket", "food", "store", "establishment"], "user_ratings_total": 157, "vicinity": "Calle del Rey, s/n, San Lorenzo de El Escorial"}, {"business_status": "OPERATIONAL", "geometry": {"location": {"lat": 40.5879391, "lng": -4.128875}, "viewport": {"northeast": {"lat": 40.58933743029149, "lng": -4.127414219708498}, "southwest": {"lat": 40.58663946970849, "lng": -4.130112180291501}}}, "icon": "https://maps.gstatic.com/mapfiles/place_api/icons/v1/png_71/shopping-71.png", "icon_background_color": "#4B96F3", "icon_mask_base_uri": "https://maps.gstatic.com/mapfiles/place_api/icons/v2/convenience_pinlet", "international_phone_number": "+34 610 58 58 10", "name": "Huevos Frescos", "opening_hours": {"open_now": false}, "place_id": "ChIJwWDBtJsLQQ0RZd1K1HdrWMQ", "plus_code": {"compound_code": "HVQC+5F El Escorial, Spain", "global_code": "8CGQHVQC+5F"}, "reference": "ChIJwWDBtJsLQQ0RZd1K1HdrWMQ", "scope": "GOOGLE", "types": ["convenience_store", "point_of_interest", "food", "store", "establishment"], "vicinity": "Calle baltasar porreno, 3, bajo, El Escorial"}, {"business_status": "OPERATIONAL", "geometry": {"location": {"lat": 40.5916112, "lng": -4.1472809}, "viewport": {"northeast": {"lat": 40.59289628029151, "lng": -4.145950869708498}, "southwest": {"lat": 40.59019831970851, "lng": -4.148648830291502}}}, "icon": "https://maps.gstatic.com/mapfiles/place_api/icons/v1/png_71/shopping-71.png", "icon_background_color": "#4B96F3", "icon_mask_base_uri": "https://maps.gstatic.com/mapfiles/place_api/icons/v2/convenience_pinlet", "name": "Comer X Comer", "opening_hours": {"open_now": false}, "photos": [{"height": 3376, "html_attributions": ["<a href=\"https://maps.google.com/maps/contrib/112533328068196149684\">richard coaquira</a>"], "photo_reference": "AWn5SU4AWI3grAR0mpaTKOav6icALo1lG61UrvzpBB2CVtNNgKWJAp72if4MuQH3G8Z3TeruGoaxqHoCzTdeUdgRYSgBmp8iuw5jLDoQ9obqseEOuWLjEVEVFsBdZ9MRoEb3sEW5a5QNw-fP7qyplNm_GjozaipYk5pzQMo5ivAGqgtY6rTno0OPmoGfZEsQZkRWnKWoPUaNxMsep2Jx4hi_Ph-EZghOrIcTTZPmzGIdA8u4J6fJs2T03dwrfuEyvogjblpPVckMFgfiEqs1uWSs5gFaBn9C_weJ-ZMa0zd7Xf6X_eyEvQJXcU4zXVrcmlB8sudcdoTvvvcybqn4zIBzf8mlO-DjayrcsEjDMMSHh9S65XOPVak5FXrFRICJQqssMcYJIsVxAQ3Y4s5BBDwsghqxmBaMaB-0Y7RUYKm_agki8nU63V6pJh2L_IVTsy15lCesj4Pxi9n-vTbUCXNTcTAIaQnWCkXj8_3_W4_Z_I4r0gSrc7ZWJfa7zLBdWuycr8pV6I4TjWaes7osajEi1BwKIQZNcbgqXNC7dqshTG-TSgBuJH0HyBy2c0Yzr8k3UT_H_gVCKab0k9QJTzOLwz9qgjwDUFtMTuGzpEpijl_KR6-6Lj0ByLEvpgJdgJ5OJdu_Ww", "width": 5984}], "place_id": "ChIJ9bDAvCgKQQ0RayAbclKfJ7c", "plus_code": {"compound_code": "HVR3+J3 San Lorenzo de El Escorial, Spain", "global_code": "8CGQHVR3+J3"}, "rating": 4.6, "reference": "ChIJ9bDAvCgKQQ0RayAbclKfJ7c", "scope": "GOOGLE", "types": ["convenience_store", "point_of_interest", "food", "store", "establishment"], "user_ratings_total": 19, "vicinity": "Calle Duque de Medinaceli, 1, San Lorenzo de El Escorial"}, {"business_status": "OPERATIONAL", "geometry": {"location": {"lat": 40.5931178, "lng": -4.1462644}, "viewport": {"northeast": {"lat": 40.59448588029149, "lng": -4.144969619708498}, "southwest": {"lat": 40.59178791970849, "lng": -4.147667580291502}}}, "icon": "https://maps.gstatic.com/mapfiles/place_api/icons/v1/png_71/shopping-71.png", "icon_background_color": "#4B96F3", "icon_mask_base_uri": "https://maps.gstatic.com/mapfiles/place_api/icons/v2/convenience_pinlet", "name": "Bazar y alimentación", "photos": [{"height": 3024, "html_attributions": ["<a href=\"https://maps.google.com/maps/contrib/103338318831804176053\">Sergio Mayer</a>"], "photo_reference": "AWn5SU7zC5v0vp14NxK4qrPA_e5ESXa56ilgDRW5YLa7Orro-9k_Us_dZcF48nhpNb2xJzm2Z7Bbj7D11gj3ujKrZEyT7nrfHiKbIj4_Vr-h22FNc0FR_2yemS4YK8o5foIn3te0zC2ea276j7fhC8y2CfDrpT6fxW2cJ351e6vPqFe-N5IWENAsWhnl5_FfBlZk3us2wM_3kpIGRbwk4OoTU8qDIaW03b-2A-wfCS6wMGTCLl8V95QLyIzME6QHdB57mt-1g-pYL8WRsi8LVz_KnLpUPrBKWRaz8t7zW5Pp1qy1ZdCr76-ciopZ-e9B8J0qmyF_vXa9IK3L0DkmVoOxPd41WQkmauW417dAyD8yVcfr3mP8jzxBN5b_03qoV6aHN6I_SxVT7gtyUP-ScSe2EbeYiFJ4_HV0fw9LgGUCprs4crSizze9nOTRd6Cga-x4cWKMgaFAJywnYmbTa7IfMGucdsHIkJ1StU2EDGk8wIhjCGbwXkbnF3gJv0btot7T_cecGyZTyB7lTjAWu91hWx9DAS1jIHl6D8oOcIs3pOpuC70x-QjAYGkhNXHHGzIlvgpByQdyrELIsOEtjyguIEgrYAR4xVs0Ckc3hENtRZKBdmHglFRJlQBe00WObEbP", "width": 4032}], "place_id": "ChIJDeEczFkLQQ0RILCBclL3uO4", "plus_code": {"compound_code": "HVV3+6F San Lorenzo de El Escorial, Spain", "global_code": "8CGQHVV3+6F"}, "rating": 5, "reference": "ChIJDeEczFkLQQ0RILCBclL3uO4", "scope": "GOOGLE", "types": ["convenience_store", "point_of_interest", "food", "store", "establishment"], "user_ratings_total": 1, "vicinity": "Calle de Velázquez, 4, San Lorenzo de El Escorial"}, {"business_status": "OPERATIONAL", "geometry": {"location": {"lat": 40.59181919999999, "lng": -4.1486731}, "viewport": {"northeast": {"lat": 40.59323593029148, "lng": -4.147374969708499}, "southwest": {"lat": 40.59053796970849, "lng": -4.150072930291502}}}, "icon": "https://maps.gstatic.com/mapfiles/place_api/icons/v1/png_71/shopping-71.png", "icon_background_color": "#4B96F3", "icon_mask_base_uri": "https://maps.gstatic.com/mapfiles/place_api/icons/v2/shoppingcart_pinlet", "international_phone_number": "+34 609 10 92 57", "name": "Frutasdelrey.es", "opening_hours": {"open_now": false}, "photos": [{"height": 810, "html_attributions": ["<a href=\"https://maps.google.com/maps/contrib/115828330879066487058\">Frutasdelrey.es</a>"], "photo_reference": "AWn5SU60j1c7lgQS-Ulqd8et067mkmWoFwOHh-S5mrxNmTF3oB0mlwG-7ydvameoq3Cd8xxE3aFKwu35nKqLPQu5X3OfZhsYnB95NxKPdR4pBGlFLw_ONwr5no5JKCedqosjbqxO9VgjdCRCtbvG1JaGqyMDc19VSaZ7g9q_QgBWIU0KCZEH2O72aQWytsWRzRMJKahDjb_P5cSBC-8dzT_mHG2vUZ5AGgW9X85tDXQ7A55CmLNTmBi7b6TQ3fsBR0GenWqqtIV3ZaALIUGPpY1SbJuXwJkH0HIIC_rO-AkEtNLhN15ozqOBR9o1azXpi6JlgHuo2Va1eK8", "width": 1440}], "place_id": "ChIJTUZz0cgLQQ0RHnqUrmF-yS8", "plus_code": {"compound_code": "HVR2+PG San Lorenzo de El Escorial, Spain", "global_code": "8CGQHVR2+PG"}, "rating": 5, "reference": "ChIJTUZz0cgLQQ0RHnqUrmF-yS8", "scope": "GOOGLE", "types": ["convenience_store", "point_of_interest", "grocery_or_supermarket", "food", "store", "establishment"], "user_ratings_total": 3, "vicinity": "Mercado Publico, Calle del Rey, 7, San Lorenzo de El Escorial"}, {"business_status": "OPERATIONAL", "geometry": {"location": {"lat": 40.59491019999999, "lng": -4.1469379}, "viewport": {"northeast": {"lat": 40.59625283029149, "lng": -4.145641969708498}, "southwest": {"lat": 40.59355486970849, "lng": -4.148339930291502}}}, "icon": "https://maps.gstatic.com/mapfiles/place_api/icons/v1/png_71/shopping-71.png", "icon_background_color": "#4B96F3", "icon_mask_base_uri": "https://maps.gstatic.com/mapfiles/place_api/icons/v2/convenience_pinlet", "name": "Bazar de alimentación", "place_id": "ChIJ5TZTVb4LQQ0RAfcHVJr8Vdc", "plus_code": {"compound_code": "HVV3+X6 San Lorenzo de El Escorial, Spain", "global_code": "8CGQHVV3+X6"}, "rating": 5, "reference": "ChIJ5TZTVb4LQQ0RAfcHVJr8Vdc", "scope": "GOOGLE", "types": ["convenience_store", "point_of_interest", "food", "store", "establishment"], "user_ratings_total": 1, "vicinity": "Paseo de Miguel de Unamuno, 8, San Lorenzo de El Escorial"}, {"business_status": "OPERATIONAL", "geometry": {"location": {"lat": 40.5912987, "lng": -4.1498769}, "viewport": {"northeast": {"lat": 40.59260303029149, "lng": -4.148527169708498}, "southwest": {"lat": 40.5899050697085, "lng": -4.151225130291503}}}, "icon": "https://maps.gstatic.com/mapfiles/place_api/icons/v1/png_71/shopping-71.png", "icon_background_color": "#4B96F3", "icon_mask_base_uri": "https://maps.gstatic.com/mapfiles/place_api/icons/v2/convenience_pinlet", "international_phone_number": "+34 910 18 93 39", "name": "Udaco Florida Blanca", "opening_hours": {"open_now": false}, "photos": [{"height": 3060, "html_attributions": ["<a href=\"https://maps.google.com/maps/contrib/111058332676931670155\">Udaco Florida Blanca</a>"], "photo_reference": "AWn5SU7PhuQi7ofUrpoqWd7dGGQyN0lWClMcTkvtbU7lxC7QLklhoisdNyXYdk-3yyuhWWvCvggqxEeahSdIAC-h9tCDYf8Z8LD866FylnGe_VdQJm90D7rski1MAaRDLMGPRMsJIBvjtwO9J-ZzHS7tGdhxryO2xtRrg_4Ar10rGrXxxRLz4DCokahzEymcWp__q18pF29VbEYfuOKOzAoQPmfKyWoKRNC3LFKDC_DhbyKcZcAEOFLwBH3HW2ttkvGvUaRHh_rLaoRit2o1_DSd5_3JFAt4FkXkao6ZMYj1XCQNsV8yGooJ0eJWIIIsF6ipU7VKBs9Wujo", "width": 4080}], "place_id": "ChIJMQy8cygKQQ0RWbAEiYKMkjU", "plus_code": {"compound_code": "HVR2+G2 San Lorenzo de El Escorial, Spain", "global_code": "8CGQHVR2+G2"}, "rating": 5, "reference": "ChIJMQy8cygKQQ0RWbAEiYKMkjU", "scope": "GOOGLE", "types": ["convenience_store", "point_of_interest", "food", "store", "establishment"], "user_ratings_total": 6, "vicinity": "Calle Floridablanca, 36, San Lorenzo de El Escorial"}, {"business_status": "OPERATIONAL", "geometry": {"location": {"lat": 40.6030861, "lng": -4.1287932}, "viewport": {"northeast": {"lat": 40.6043006802915, "lng": -4.127192069708498}, "southwest": {"lat": 40.6016027197085, "lng": -4.129890030291501}}}, "icon": "https://maps.gstatic.com/mapfiles/place_api/icons/v1/png_71/shopping-71.png", "icon_background_color": "#4B96F3", "icon_mask_base_uri": "https://maps.gstatic.com/mapfiles/place_api/icons/v2/shoppingcart_pinlet", "international_phone_number": "+34 912 17 04 53", "name": "Supermercados Dia", "opening_hours": {"open_now": false}, "photos": [{"height": 1959, "html_attributions": ["<a href=\"https://maps.google.com/maps/contrib/116312980068346207896\">Supermercados Dia</a>"], "photo_reference": "AWn5SU6sAY1VSYttdZb0AJr_mn8XX4TXplkFRe3PSFBqSkIMYwLcZnAUxMMsDwKYPrRSzx5dNqMBpP-kVRPv6KndDdKxuIFApMwbLvGjGn_FMbJr9Az2nwrWxBYYGMA29etO3fj4SBvxnYDAwAoGCf9sCN6hexhyklU82YqHJ-ecSRL-JeTCTrBnie5bDpGSSqpr5hwUONoWL0Z2VcInYn9NAIRwx31sEL8xYnSFKl83ECvTJIf7Xi3ZzToi60HeMA4Jin70f99hd9Al9xjyimDHPrl7CKnIQ7suxHKw0NSmCA9NuuZR9SL-4bzHtziwWk9Vz024WFTl6UY", "width": 1523}], "place_id": "ChIJCQMTXeoLQQ0RzQQcSgebugE", "plus_code": {"compound_code": "JV3C+6F San Lorenzo de El Escorial, Spain", "global_code": "8CGQJV3C+6F"}, "rating": 4.1, "reference": "ChIJCQMTXeoLQQ0RzQQcSgebugE", "scope": "GOOGLE", "types": ["supermarket", "convenience_store", "bakery", "point_of_interest", "grocery_or_supermarket", "food", "store", "establishment"], "user_ratings_total": 279, "vicinity": "Urbanización El Zaburdión, Calle las Pozas, 181, San Lorenzo de El Escorial"}, {"business_status": "OPERATIONAL", "geometry": {"location": {"lat": 40.6032234, "lng": -4.1284263}, "viewport": {"northeast": {"lat": 40.60430503029151, "lng": -4.126947869708498}, "southwest": {"lat": 40.60160706970851, "lng": -4.129645830291502}}}, "icon": "https://maps.gstatic.com/mapfiles/place_api/icons/v1/png_71/shopping-71.png", "icon_background_color": "#4B96F3", "icon_mask_base_uri": "https://maps.gstatic.com/mapfiles/place_api/icons/v2/convenience_pinlet", "international_phone_number": "+34 606 80 25 57", "name": "esgranel", "opening_hours": {"open_now": false}, "photos": [{"height": 4000, "html_attributions": ["<a href=\"https://maps.google.com/maps/contrib/111236393911783530664\">esgranel</a>"], "photo_reference": "AWn5SU5a70mlEXrO-TqJ_k4iWNihSJI1mxT76FTXSQeWaDIWAf5Tdn-v6h0tBtLhdu4zVaOHFYpe2AGv9CmrIgtEVy75au2GD_0K2AOhnxr0GsHDbiwfxEhA6Zj3-ptDllQNtNkU5fKFKxg8gBphYRYNbdV4OIj2qhyxxJ4G-ii4pBiGmdlbCTVsRf2ydAe4QCf2uj7rc7wGiwA5d1XqgELRqGjhiiKABKurceIJtIqVSmPuqnllPsKIc146fdBD_3veXUfXsXeg20CqLXVn7PcWKjXHyebpzjZ9qWXhQaFajSwGjbFylq51_jNrTI5L-vaZX5kAJB4ahpM", "width": 1844}], "place_id": "ChIJWyOgj6sLQQ0R7-Ikm4G85Jw", "plus_code": {"compound_code": "JV3C+7J San Lorenzo de El Escorial, Spain", "global_code": "8CGQJV3C+7J"}, "rating": 4.9, "reference": "ChIJWyOgj6sLQQ0R7-Ikm4G85Jw", "scope": "GOOGLE", "types": ["convenience_store", "point_of_interest", "food", "store", "establishment"], "user_ratings_total": 23, "vicinity": "Calle las Pozas, 181, local 20, San Lorenzo de El Escorial"}]