[{"geometry": {"location": {"lat": 40.3015944, "lng": -4.4426499}, "viewport": {"northeast": {"lat": 40.31428411452327, "lng": -4.424653541609475}, "southwest": {"lat": 40.2934555954428, "lng": -4.458899798774559}}}, "icon": "https://maps.gstatic.com/mapfiles/place_api/icons/v1/png_71/geocode-71.png", "icon_background_color": "#7B9EB0", "icon_mask_base_uri": "https://maps.gstatic.com/mapfiles/place_api/icons/v2/generic_pinlet", "name": "Cadalso de los Vidrios", "photos": [{"height": 1080, "html_attributions": ["<a href=\"https://maps.google.com/maps/contrib/103480316147472641636\">Jose DOMINGUEZ NUÑEZ HERRADOR</a>"], "photo_reference": "AWn5SU64VStpWbeOTpVK_G5Oy1WTO1C8qOYGVWmMGT25yNmp0nen0ycY1NtWOF3tdzOVpM_8HH1aSBp7UrFD3eYAhl6ronDYk_6ndQdk1rAog6Q40cHZYzS-MUz0PB1O2_OpKf3WHksqi3H_Di6CojTDkrZoOJJvfSl7aZWLcYk5BOgSnp82XU-L58aFBF9oWGSg05hPflSp9lKtMb-B3FMB2YP3oqAe6ynIv5BgjXIPfSo_vAgxO6w89SaRodagnt5gVgKPj-rXtUIL1jBOZ0hc4xpEdDbP8YKlmyFyAOOuzZHfCzHQehYNsO3koZmRMr2H5-ncUOT3JvbHPnLEarRtlTK08GwSSKh16bFLNB2_ALmePvB5aW3BtjCr7e7piwHvVE3a5ux0sttjqUsKvpfnkOqOR-IqHOoTeDpxtSJQAJoIQ0xGJHa-JBIa6lN_bJPr4c9jEPc4ApIkQr02GeeX--XTD1Ztf7A5twxOIAGLK907vBfrUeNhm0VaWAu8hqOj8caN9X2oNI5Va5zCVEMDnDUZnj0YLDNWegGYr4twtqlSNHqzEME8QLbjqGm1APX4y6rgO0sFO0MG-cHPd3ixqNKfmbKivDBBhi0rirN_J_-QcVjuY1vUIBNyrK1nDjovvk-jiA", "width": 1440}], "place_id": "ChIJkZtF4n9MQA0RTW4QZXOQLd8", "reference": "ChIJkZtF4n9MQA0RTW4QZXOQLd8", "scope": "GOOGLE", "types": ["locality", "political"], "vicinity": "Cadalso de los Vidrios"}, {"business_status": "OPERATIONAL", "geometry": {"location": {"lat": 40.3027179, "lng": -4.441332099999999}, "viewport": {"northeast": {"lat": 40.3040371802915, "lng": -4.439982719708497}, "southwest": {"lat": 40.3013392197085, "lng": -4.442680680291502}}}, "icon": "https://maps.gstatic.com/mapfiles/place_api/icons/v1/png_71/bank-71.png", "icon_background_color": "#909CE1", "icon_mask_base_uri": "https://maps.gstatic.com/mapfiles/place_api/icons/v2/bank-intl_pinlet", "international_phone_number": "+34 616 56 98 27", "name": "BBVA - Agente Autorizado", "opening_hours": {"open_now": false}, "photos": [{"height": 720, "html_attributions": ["<a href=\"https://maps.google.com/maps/contrib/116640132785158682502\">BBVA - Agente Autorizado</a>"], "photo_reference": "AWn5SU4BRbzymy-WNCpOO4-dR6fzp7v_R76wMf9gEorXFWWhcWY3Y9nIPMIRuJeHx66Pqfuof1KBlimCbc8Sw3hyI2ePNYeliWgIfrBce8G43jOvmrNw21QZ4Gfc0ZaAlf0tyf6EofAjMo0RDW_JLwIaR44jUAuaEsu3QmlvlRMm-N2ABtwCcVwWxLRsEv1Lzh2mErbhv08_dnVn9SnCq5ywUc6_84z0Ujz0kjmtK6GoZ_H9h8xqJoFJ8cecz3ZlFRmUpqCp2M_KYsHv9t3K9Gf2FEBxnUjSmg-sEkXomUow8c0GMsLZg1we1-zbPYTupQVEnJxRSWa0maA", "width": 1280}], "place_id": "ChIJ59jGq4FLQA0RGQ6Qu7YP6zA", "plus_code": {"compound_code": "8H35+3F Cadalso de los Vidrios, Spain", "global_code": "8CGQ8H35+3F"}, "rating": 3.7, "reference": "ChIJ59jGq4FLQA0RGQ6Qu7YP6zA", "scope": "GOOGLE", "types": ["bank", "atm", "finance", "point_of_interest", "establishment"], "user_ratings_total": 19, "vicinity": "Calle Pedro Álvarez, 4, Cadalso de los Vidrios"}, {"business_status": "OPERATIONAL", "geometry": {"location": {"lat": 40.3028162, "lng": -4.449622499999999}, "viewport": {"northeast": {"lat": 40.3041706802915, "lng": -4.448228519708498}, "southwest": {"lat": 40.3014727197085, "lng": -4.450926480291503}}}, "icon": "https://maps.gstatic.com/mapfiles/place_api/icons/v1/png_71/generic_business-71.png", "icon_background_color": "#7B9EB0", "icon_mask_base_uri": "https://maps.gstatic.com/mapfiles/place_api/icons/v2/generic_pinlet", "international_phone_number": "+34 667 51 84 80", "name": "Casa Rural el Reencuentro", "opening_hours": {"open_now": true}, "photos": [{"height": 3448, "html_attributions": ["<a href=\"https://maps.google.com/maps/contrib/100641619342395555950\">Casa Rural el Reencuentro &quot;Grupo Mirando a Gredos&quot;</a>"], "photo_reference": "AWn5SU61c9Z-Dx8UCSllJyHkehoo-jHQvwR9R6XulxlaqpzweVqiGgTNEMOIWLVDnhlOgvmdG9c4hscB66MS3KV9zKK5RzUcKTpTNHZbnH9HqjXBTPpxvAm-J9Vt66H_IQ49pRU7CkcUfLIB1FURUPI05-alBiBvFI9MH8Z6sSgTlXnu6WHe6Ds9Ns1U_5wce3xU_hSWA9Sku3ohPdBbdmVTiqCB8jFWZTIOuZa8J1T5z60S9X2kBggys3SgNl5SJ85LrZmMaF71dwD2gpycuoTg3FnG8k0PuXjuU0e-MgHehi73fSbl-5WLUkRcL1PU3wP7i2WXwAngkqs", "width": 4592}], "place_id": "ChIJowSFfIhLQA0R0boIrPOUaa0", "plus_code": {"compound_code": "8H32+45 Cadalso de los Vidrios, Spain", "global_code": "8CGQ8H32+45"}, "rating": 4.4, "reference": "ChIJowSFfIhLQA0R0boIrPOUaa0", "scope": "GOOGLE", "types": ["lodging", "point_of_interest", "establishment"], "user_ratings_total": 35, "vicinity": "Calle Chopo, 7, Cadalso de los Vidrios"}, {"business_status": "OPERATIONAL", "geometry": {"location": {"lat": 40.3074846, "lng": -4.4328297}, "viewport": {"northeast": {"lat": 40.3087865302915, "lng": -4.431442319708498}, "southwest": {"lat": 40.3060885697085, "lng": -4.434140280291502}}}, "icon": "https://maps.gstatic.com/mapfiles/place_api/icons/v1/png_71/generic_business-71.png", "icon_background_color": "#7B9EB0", "icon_mask_base_uri": "https://maps.gstatic.com/mapfiles/place_api/icons/v2/generic_pinlet", "international_phone_number": "+34 667 51 84 80", "name": "Casa Rural Mirando a Gredos", "opening_hours": {"open_now": true}, "photos": [{"height": 3448, "html_attributions": ["<a href=\"https://maps.google.com/maps/contrib/104997963010500807878\">Casa Rural Mirando a Gredos</a>"], "photo_reference": "AWn5SU6nee2IVPWo_vqulI0A_mhGEbL5NIoDYnyTfBTxhB4S6bIN3hhGalTDc6oF36CoWGFBJz856p5cTR0kxVfjvcvkTs9Dudp8dStBgyfvYG0kNPZCdB4kIlAI5Ns9kVs6XKgIh_MTspX377X6BnnvPBLZEt1kPpFZWpjOZ2a8vq6sajja-H3hADKSchYC47aSErM8DAFpz3PvpC0yzwAbFJcck0LYCtWyI3LQaJkIAzvh16AkIWATLJ7AX5iPCHx4qujjMQq1iccxMgELhR_gvlkD_abaAsZwwL6qtG5vGfXH9fxqCC4TkMX7U6A4M0FOinxADl1kcUA", "width": 4592}], "place_id": "ChIJ_8uNO4JMQA0Rrxn-L-7SucQ", "plus_code": {"compound_code": "8H48+XV Cadalso de los Vidrios, Spain", "global_code": "8CGQ8H48+XV"}, "rating": 4.8, "reference": "ChIJ_8uNO4JMQA0Rrxn-L-7SucQ", "scope": "GOOGLE", "types": ["lodging", "point_of_interest", "establishment"], "user_ratings_total": 71, "vicinity": "Avenida Prado Higuera, 61, Cadalso de los Vidrios"}, {"business_status": "OPERATIONAL", "geometry": {"location": {"lat": 40.2622702, "lng": -4.4700426}, "viewport": {"northeast": {"lat": 40.2636186802915, "lng": -4.468671169708498}, "southwest": {"lat": 40.2609207197085, "lng": -4.471369130291503}}}, "icon": "https://maps.gstatic.com/mapfiles/place_api/icons/v1/png_71/lodging-71.png", "icon_background_color": "#909CE1", "icon_mask_base_uri": "https://maps.gstatic.com/mapfiles/place_api/icons/v2/hotel_pinlet", "international_phone_number": "+34 675 02 12 73", "name": "Finca La Atalaya", "photos": [{"height": 3024, "html_attributions": ["<a href=\"https://maps.google.com/maps/contrib/104053005635161397610\">Jose manuel Deobarro gonazalez</a>"], "photo_reference": "AWn5SU4nZn30ngvK2bNw4CIZThxafhqNTlSL8-snoQE_-f0gCu2fOewDQcegpOSiJogYQntxYfrhmiFOhikHkC6i2wxxa6N3OTsyVETJp420FnoYnDN8PkUeq_msiWVrFYEJyv0yio0tK_T_RrljBKfW5FkOXMNJUgn5csq_Z-1Ng071u8IA2_8nManclk39y2IGkfM1E0JXSndBorPgCfdvWyXnaN9ET7rvjEfz5N2k0WRDYP0WlDasS69U5ZhNUw38mU9pHFtYzJLvfm_h9ZikmHQITPX6Xiz3vV0Q1XeK8XRgzifJPCh1hFg_1McQGChT_BJ3vdqKfVNcG0VSSdUYTjzTfsibVug0Acrvfa_aHKkjpDyXGwwGPrdQo0c8G2teO-bOfo5JrJ1y44yfQnQGoZtnk2u05RzzVDQttWf6DVxmx64Hz2WEsJjsJc7jtYH1JVAH32ovNVx25C6gp7rX6v4urWLzSj0EI74VaictSHCSZ_dttn_EF5YVzY9gkliWPQmHzTUXPn__qBRl-bNWlxLioPJ-7Y7EEFKplUWcGAu1xLS-xBcKHISGBZ_CXLaDppOE1beN1qMFs6qFqClGSlqiXRI9-HIz_Svxjki7ec9smwkVfraElghfSIx-Q_hy", "width": 4032}], "place_id": "ChIJsbRaZy1KQA0ROjgVxQ_9vLQ", "plus_code": {"compound_code": "7G6H+WX Cadalso de los Vidrios, Spain", "global_code": "8CGQ7G6H+WX"}, "rating": 4.3, "reference": "ChIJsbRaZy1KQA0ROjgVxQ_9vLQ", "scope": "GOOGLE", "types": ["lodging", "point_of_interest", "establishment"], "user_ratings_total": 6, "vicinity": "Crta. M-542 km 2'5, Cadalso de los Vidrios"}, {"business_status": "OPERATIONAL", "geometry": {"location": {"lat": 40.30022879999999, "lng": -4.444889499999999}, "viewport": {"northeast": {"lat": 40.3016534802915, "lng": -4.443526869708498}, "southwest": {"lat": 40.2989555197085, "lng": -4.446224830291503}}}, "icon": "https://maps.gstatic.com/mapfiles/place_api/icons/v1/png_71/generic_business-71.png", "icon_background_color": "#7B9EB0", "icon_mask_base_uri": "https://maps.gstatic.com/mapfiles/place_api/icons/v2/generic_pinlet", "international_phone_number": "+34 918 64 14 96", "name": "HERMANOS SANCHEZ COLINO", "opening_hours": {"open_now": false}, "photos": [{"height": 256, "html_attributions": ["<a href=\"https://maps.google.com/maps/contrib/109602382325517139662\">HERMANOS SANCHEZ COLINO</a>"], "photo_reference": "AWn5SU7fSkSfYZe49gp9n3cp2r6GBkL5lqdOIEztf84KDmkU_Ke50uJud-QbRG-V7SvCeC7ysFfdfoNdrDeMp-xCRtsYrt_FwOc_vvLeMoEkXAjbaJC06-QG0OlHtsG-RakEWWAUvnVxuEe4r3wCTWakfpMcEfPc5poUpvTCAphxTwXLNoInI-vyX1XGkye_GhTQ5n4ql1Og1g1q-LCG6QH62UosyuQi5HTNFZRAkY3Tpan2CXEUuIzjikhKl88UBJi8phkvdF92moDJavpBVxnDYoK4z4EYyAnJz8PnTADqn40WOji4ebHYjj9Hl_YsFXk2Urp-uTtclkM", "width": 320}], "place_id": "ChIJDyLnoIZLQA0ReFwuBwtz-t8", "plus_code": {"compound_code": "8H24+32 Cadalso de los Vidrios, Spain", "global_code": "8CGQ8H24+32"}, "rating": 4, "reference": "ChIJDyLnoIZLQA0ReFwuBwtz-t8", "scope": "GOOGLE", "types": ["general_contractor", "point_of_interest", "establishment"], "user_ratings_total": 4, "vicinity": "Calle Cervantes, 11, Cadalso de los Vidrios"}, {"business_status": "OPERATIONAL", "geometry": {"location": {"lat": 40.3014946, "lng": -4.4407427}, "viewport": {"northeast": {"lat": 40.30289653029151, "lng": -4.439389269708498}, "southwest": {"lat": 40.30019856970851, "lng": -4.442087230291503}}}, "icon": "https://maps.gstatic.com/mapfiles/place_api/icons/v1/png_71/civic_building-71.png", "icon_background_color": "#7B9EB0", "icon_mask_base_uri": "https://maps.gstatic.com/mapfiles/place_api/icons/v2/civic-bldg_pinlet", "international_phone_number": "+34 918 64 03 28", "name": "Oficina de Correos", "opening_hours": {"open_now": false}, "photos": [{"height": 900, "html_attributions": ["<a href=\"https://maps.google.com/maps/contrib/100688934094702077671\">Oficina de Correos</a>"], "photo_reference": "AWn5SU4lm2soXF38fAYyH8z1EYCf6zVF57KEOr5triVOdapHbemKboX83fqGyzcwKvz-LA9y1NZkc2EP8PFzxi6zucq_A9ZEe43yhGZIT7E1mzvOw5_EO3A41SCTBG5Z_7Fy-PtvEFv7_FPvWPgBVY3XB3UoLZRsAjQkMNgMX5PJXL-taI53tK_L6mxSTwrdZmTIHN8FYGl34xLI9SqLJQXChpw6s6qHmQ8TyF4Y5kr-o4gTvxPiBd8o402q2M61zzlumahhIV1ICntEtZUIlIY-y0GgNXiF_az-2P-5mWBC1wcOQ6DkTJ1Rxtx44PkrRSzA8Ts5BXRl4cY", "width": 1600}], "place_id": "ChIJLbhhmIFLQA0R9lw_eAv4YuI", "plus_code": {"compound_code": "8H25+HP Cadalso de los Vidrios, Spain", "global_code": "8CGQ8H25+HP"}, "rating": 4.3, "reference": "ChIJLbhhmIFLQA0R9lw_eAv4YuI", "scope": "GOOGLE", "types": ["post_office", "finance", "point_of_interest", "establishment"], "user_ratings_total": 23, "vicinity": "Calle la Paz, 12, Cadalso de los Vidrios"}, {"business_status": "OPERATIONAL", "geometry": {"location": {"lat": 40.3025695, "lng": -4.452355799999999}, "viewport": {"northeast": {"lat": 40.3037657802915, "lng": -4.450874669708497}, "southwest": {"lat": 40.3010678197085, "lng": -4.453572630291502}}}, "icon": "https://maps.gstatic.com/mapfiles/place_api/icons/v1/png_71/school-71.png", "icon_background_color": "#7B9EB0", "icon_mask_base_uri": "https://maps.gstatic.com/mapfiles/place_api/icons/v2/school_pinlet", "international_phone_number": "+34 918 64 01 58", "name": "Colegio Público Eugenio Muro", "opening_hours": {"open_now": true}, "place_id": "ChIJhRBLBIlLQA0R1AZD1OTThZ8", "plus_code": {"compound_code": "8G3X+23 Cadalso de los Vidrios, Spain", "global_code": "8CGQ8G3X+23"}, "reference": "ChIJhRBLBIlLQA0R1AZD1OTThZ8", "scope": "GOOGLE", "types": ["school", "point_of_interest", "establishment"], "vicinity": "Calle de Rozas de Puerto Real, 20, Cadalso de los Vidrios"}, {"business_status": "OPERATIONAL", "geometry": {"location": {"lat": 40.30131050000001, "lng": -4.4422679}, "viewport": {"northeast": {"lat": 40.30274178029151, "lng": -4.440963969708497}, "southwest": {"lat": 40.30004381970851, "lng": -4.443661930291502}}}, "icon": "https://maps.gstatic.com/mapfiles/place_api/icons/v1/png_71/worship_general-71.png", "icon_background_color": "#7B9EB0", "icon_mask_base_uri": "https://maps.gstatic.com/mapfiles/place_api/icons/v2/worship_christian_pinlet", "international_phone_number": "+34 609 51 24 11", "name": "Cofradía Jesus de Medinaceli", "photos": [{"height": 3240, "html_attributions": ["<a href=\"https://maps.google.com/maps/contrib/100876945525087883387\">Sabrina Gómez</a>"], "photo_reference": "AWn5SU6Te7x9YcDuAeOnRsCmZkEa8um1lKFIzIUTAbii1hy7_iM31yMUhT3mpNOCtazOY4oI_Tr_kcj7TTdGawbWDW7Yx4kL6Nxtxq21FfTk0gFpCWmOZpty3RsxfLxwLjannOWmDgNvat9Ihoo-NoCq8CZFJZUKtZx-9kmJ4YyCgvr4UO1bZlRHQbFvHvwttiY6Xc-FXUyM9Zg4SGClwjrPkv4squXKQnZ4KBL5l1R2vh2sLmHLiXey0EQjanPHUNiERURn8l6BB0_EnNAqg0okqBQRU1bxSCk5jrZLZi_rrFre61k5kinG3g6WMNmKxLz6ceRNE-kMOCZlHtOCbBWrFXHPSS_AXiFSK_DgNMS9JqxPHqPRvtiYJbDXRE8FmmdvMWeEFpan9qxIHsVyZfL0O4omYz4Vn9hi9XVMlAYvXdj-hOpgA1PzvApXIu9izAd-QPPMGGqQtkFRIT_ZvLZyoKtt0VwUKaEG2iBlmS5UNbSez_zpmPPL31zen0ABiLwdYEAF-KjHJWuvOtQqyBMydYgpEmRRfhemT8xRxRjuJQhXj6TynLdhg-k4FR7MN8Q3d0J1SgDJMehtj3kX6f-K9jDYLLZRvIcWZJqLmkg9u8fN1w-JNQjkWUwmA2HtgOP8mRZyZQ", "width": 4320}], "place_id": "ChIJXfF1a4FLQA0RILLCkHDjLSY", "plus_code": {"compound_code": "8H25+G3 Cadalso de los Vidrios, Spain", "global_code": "8CGQ8H25+G3"}, "rating": 4.3, "reference": "ChIJXfF1a4FLQA0RILLCkHDjLSY", "scope": "GOOGLE", "types": ["church", "place_of_worship", "point_of_interest", "establishment"], "user_ratings_total": 8, "vicinity": "Calle de la Iglesia, 25, Cadalso de los Vidrios"}, {"business_status": "OPERATIONAL", "geometry": {"location": {"lat": 40.299346, "lng": -4.442381}, "viewport": {"northeast": {"lat": 40.3006773802915, "lng": -4.441049769708497}, "southwest": {"lat": 40.2979794197085, "lng": -4.443747730291502}}}, "icon": "https://maps.gstatic.com/mapfiles/place_api/icons/v1/png_71/generic_business-71.png", "icon_background_color": "#7B9EB0", "icon_mask_base_uri": "https://maps.gstatic.com/mapfiles/place_api/icons/v2/generic_pinlet", "international_phone_number": "+34 634 42 00 74", "name": "A.S.E.S. Asociación Airsoft España", "place_id": "ChIJK6ZbwYNLQA0RqOJPZrs7nFY", "plus_code": {"compound_code": "7HX5+P2 Cadalso de los Vidrios, Spain", "global_code": "8CGQ7HX5+P2"}, "rating": 3, "reference": "ChIJK6ZbwYNLQA0RqOJPZrs7nFY", "scope": "GOOGLE", "types": ["point_of_interest", "establishment"], "user_ratings_total": 2, "vicinity": "Cadalso de los Vidrios"}, {"business_status": "OPERATIONAL", "geometry": {"location": {"lat": 40.317592, "lng": -4.454693000000001}, "viewport": {"northeast": {"lat": 40.3189598302915, "lng": -4.453380219708498}, "southwest": {"lat": 40.31626186970851, "lng": -4.456078180291501}}}, "icon": "https://maps.gstatic.com/mapfiles/place_api/icons/v1/png_71/shopping-71.png", "icon_background_color": "#4B96F3", "icon_mask_base_uri": "https://maps.gstatic.com/mapfiles/place_api/icons/v2/shopping_pinlet", "international_phone_number": "+34 606 02 83 54", "name": "Invernagreen Jardinería", "opening_hours": {"open_now": false}, "photos": [{"height": 1253, "html_attributions": ["<a href=\"https://maps.google.com/maps/contrib/110450903998236028839\">Invernagreen Jardinería</a>"], "photo_reference": "AWn5SU5LTCJFN2DycYdko4UdDL--nVdZXAJ89ApboWKHALSOxQ4CCU4ORwGDzIQIBQpNeHfs9iGqUs8sVvJ_2tM_f7cfTV9TO0K-B9zU1eJTNKxQB_zhZm8ujQDOs_ar_gVYuDZ-C-avD7taXzsKrZGtj3z0zHMjvfglAslHKtklkT--7WNFLhyqLQvZelP0uDmNBVrXhtHOzCM95cXQR1OFA_DipjRU8qPP3v7fH38PsWUmEDEbWX67yiHDEWP7-SWbOhOJ3EVPKSYV4Pe62uJCHXdCB9dpF6wJiNO_bMQGA3ZAukFIXv4CRa2-RFTHvc9cZvMfS3pVelM", "width": 900}], "place_id": "ChIJvweGzW1MQA0RDByiLj2gm8Q", "plus_code": {"compound_code": "8G9W+24 Cadalso de los Vidrios, Spain", "global_code": "8CGQ8G9W+24"}, "rating": 4.6, "reference": "ChIJvweGzW1MQA0RDByiLj2gm8Q", "scope": "GOOGLE", "types": ["general_contractor", "point_of_interest", "store", "establishment"], "user_ratings_total": 9, "vicinity": "Calle León, 719, Cadalso de los Vidrios"}, {"business_status": "OPERATIONAL", "geometry": {"location": {"lat": 40.3098661, "lng": -4.491166300000001}, "viewport": {"northeast": {"lat": 40.31124708029149, "lng": -4.489845469708498}, "southwest": {"lat": 40.30854911970849, "lng": -4.492543430291502}}}, "icon": "https://maps.gstatic.com/mapfiles/place_api/icons/v1/png_71/generic_business-71.png", "icon_background_color": "#7B9EB0", "icon_mask_base_uri": "https://maps.gstatic.com/mapfiles/place_api/icons/v2/generic_pinlet", "international_phone_number": "+34 916 40 63 05", "name": "CENTRO DE PSICOLOGIA LAS ROZAS", "place_id": "ChIJ-6HLVWODQQ0RMi6nOCOcEfg", "plus_code": {"compound_code": "8G55+WG Rozas de Puerto Real, Spain", "global_code": "8CGQ8G55+WG"}, "reference": "ChIJ-6HLVWODQQ0RMi6nOCOcEfg", "scope": "GOOGLE", "types": ["doctor", "health", "point_of_interest", "establishment"], "vicinity": "Plaza de España, Las Rozas"}, {"business_status": "OPERATIONAL", "geometry": {"location": {"lat": 40.2641087, "lng": -4.4662635}, "viewport": {"northeast": {"lat": 40.26536873029151, "lng": -4.464794719708499}, "southwest": {"lat": 40.26267076970851, "lng": -4.467492680291503}}}, "icon": "https://maps.gstatic.com/mapfiles/place_api/icons/v1/png_71/worship_general-71.png", "icon_background_color": "#7B9EB0", "icon_mask_base_uri": "https://maps.gstatic.com/mapfiles/place_api/icons/v2/worship_christian_pinlet", "international_phone_number": "+34 918 64 27 74", "name": "Iglesia de San Esteban de la Encina", "photos": [{"height": 2448, "html_attributions": ["<a href=\"https://maps.google.com/maps/contrib/113130754885882086438\">Raul Sanz</a>"], "photo_reference": "AWn5SU4Yyygmu40ysoWferpYhmQ71Qwo-hPj9I2AlO9vlDWdjVshC-NPxnqLr6icEI7YRh6OTz0pVMqCPyXW9I83cm9ZZXC45SdeDwHO9plkZ-aphhQSG0Ix9KrhTc4Dy2cWQ9YYcws1cFJMYWGaNUSz1Rd7nqbdPHWPGqlVhpbUicFLU950XFn9AnF9mkuZq2XdtJ9muUbB1KefJxIydvLC7_1sSRAYEOl4eNZrLVvqPa-433_bgbsD3b71OPe6nPhb04lb_Wqw2V-4ttqLmYZ-oRs_ft1-pnPfejHjKGgB5AtnG6ghIT9ynFuhasY3WmNcR6dKozGMlED1-RQjXDH7f8ScA0Goki9NF7lhe0qAEGNiFEHKFR7FMPQ16u-cgMQ6sh07pPpT7Rj_3vl5ncnegYxoO_aMgtnR8IKIcp2uTp3EXePUSaxS8Mvv2i7W4qTF6qUzQhhNcEcYeI0cK1saij3r9OYElv1Pk7o_WoGNdIdWYvN299zQjXhbbv6TQy-IOZYyWNYGaZOmjG0bYadb0jeIOF263hqKZofu_UEjtJMvr3es-p-A-NSWoLlTQ3gfuxH78f6WtXVASdqR88zMwHFTB9scWz432mSkn0gICALJjqPQ2NLCbRy10BFqOdfz", "width": 3264}], "place_id": "ChIJFbbptcxLQA0RZQ5ZEspy18M", "plus_code": {"compound_code": "7G7M+JF Cenicientos, Spain", "global_code": "8CGQ7G7M+JF"}, "rating": 4.6, "reference": "ChIJFbbptcxLQA0RZQ5ZEspy18M", "scope": "GOOGLE", "types": ["church", "place_of_worship", "point_of_interest", "establishment"], "user_ratings_total": 64, "vicinity": "Calle de la Ermita, 1, Cenicientos"}, {"business_status": "OPERATIONAL", "geometry": {"location": {"lat": 40.3003662, "lng": -4.445034099999999}, "viewport": {"northeast": {"lat": 40.3017159302915, "lng": -4.443687869708497}, "southwest": {"lat": 40.2990179697085, "lng": -4.446385830291502}}}, "icon": "https://maps.gstatic.com/mapfiles/place_api/icons/v1/png_71/generic_business-71.png", "icon_background_color": "#7B9EB0", "icon_mask_base_uri": "https://maps.gstatic.com/mapfiles/place_api/icons/v2/generic_pinlet", "international_phone_number": "+34 629 10 67 14", "name": "CAMIHER, S.L.", "opening_hours": {"open_now": false}, "place_id": "ChIJK06MaYIoQg0RbmmzvSQt5zk", "plus_code": {"compound_code": "8H23+4X Cadalso de los Vidrios, Spain", "global_code": "8CGQ8H23+4X"}, "reference": "ChIJK06MaYIoQg0RbmmzvSQt5zk", "scope": "GOOGLE", "types": ["point_of_interest", "establishment"], "vicinity": "Calle Cervantes, 11, Cadalso de los Vidrios"}, {"business_status": "OPERATIONAL", "geometry": {"location": {"lat": 40.3043815, "lng": -4.4466741}, "viewport": {"northeast": {"lat": 40.3057207302915, "lng": -4.445391519708498}, "southwest": {"lat": 40.3030227697085, "lng": -4.448089480291502}}}, "icon": "https://maps.gstatic.com/mapfiles/place_api/icons/v1/png_71/generic_business-71.png", "icon_background_color": "#7B9EB0", "icon_mask_base_uri": "https://maps.gstatic.com/mapfiles/place_api/icons/v2/generic_pinlet", "name": "Federación Socialista Madrileña Psoe", "place_id": "ChIJQwZZm4dLQA0ROBWWYUGVuJA", "plus_code": {"compound_code": "8H33+Q8 Cadalso de los Vidrios, Spain", "global_code": "8CGQ8H33+Q8"}, "rating": 2.3, "reference": "ChIJQwZZm4dLQA0ROBWWYUGVuJA", "scope": "GOOGLE", "types": ["point_of_interest", "establishment"], "user_ratings_total": 3, "vicinity": "Calle Buenos Aires, 30, Cadalso de los Vidrios"}, {"business_status": "OPERATIONAL", "geometry": {"location": {"lat": 40.3027179, "lng": -4.441332099999999}, "viewport": {"northeast": {"lat": 40.3040335802915, "lng": -4.439947869708497}, "southwest": {"lat": 40.3013356197085, "lng": -4.442645830291502}}}, "icon": "https://maps.gstatic.com/mapfiles/place_api/icons/v1/png_71/generic_business-71.png", "icon_background_color": "#7B9EB0", "icon_mask_base_uri": "https://maps.gstatic.com/mapfiles/place_api/icons/v2/generic_pinlet", "international_phone_number": "+34 918 64 00 26", "name": "Cadalso Computer", "opening_hours": {"open_now": true}, "photos": [{"height": 1419, "html_attributions": ["<a href=\"https://maps.google.com/maps/contrib/105820924741925229283\">Cadalso Computer</a>"], "photo_reference": "AWn5SU6WUy41UxABTzQtEZ0wOTKJuyRZUcgIJ6ktkF9kZoeJWPQUCzMhJsryu0py32d2lTnV291erMugDjeKJ-ihkAtpOXoIyj5ZiPB0fc8906rDPUmtNMjPjBgL50BzM8cbv33dmbOpd05CnIU1TvsuX1K-E4Yy_Gy_t4v4TuAURJw2aqCg8cVJowa2Mnf3lh3AL7O6_AP1inSuXSUpNl0meWkpEgbaNTR7isYT2wprw-T-R8-QyPXFRA01IBv_czNmnot5_O0kMHpPhRN-twPbEH6R9KgttN-8gCOMQXPglvv6aHZnM13Xap9-Qle_04KXfoVTeAfXWnE", "width": 1961}], "place_id": "ChIJccJqqoFLQA0RWn9Mf_vB5Ss", "plus_code": {"compound_code": "8H35+3F Cadalso de los Vidrios, Spain", "global_code": "8CGQ8H35+3F"}, "rating": 4, "reference": "ChIJccJqqoFLQA0RWn9Mf_vB5Ss", "scope": "GOOGLE", "types": ["electrician", "electronics_store", "point_of_interest", "store", "establishment"], "user_ratings_total": 6, "vicinity": "Calle Pedro Álvarez, 4, Local, Cadalso de los Vidrios"}, {"business_status": "OPERATIONAL", "geometry": {"location": {"lat": 40.3258833, "lng": -4.4921358}, "viewport": {"northeast": {"lat": 40.3272938802915, "lng": -4.490922819708497}, "southwest": {"lat": 40.32459591970851, "lng": -4.493620780291502}}}, "icon": "https://maps.gstatic.com/mapfiles/place_api/icons/v1/png_71/school-71.png", "icon_background_color": "#7B9EB0", "icon_mask_base_uri": "https://maps.gstatic.com/mapfiles/place_api/icons/v2/school_pinlet", "international_phone_number": "+34 918 67 65 90", "name": "C R A Alto Tiétar", "photos": [{"height": 488, "html_attributions": ["<a href=\"https://maps.google.com/maps/contrib/105071510714977475110\">AYUNTAMIENTO DE NAVAHONDILLA</a>"], "photo_reference": "AWn5SU4Q190KDgB00nidQjOr3E71OwGUvNW2_FyLmEtISCihevR-DYkkP_wKYOy4VYOOCI0OqvNCl-Il45QwQdB-VvfrfUnvA98XKG0QC2KjkvYI_QtBkPgqGBBsdWXj4PjZB4a-frOgx3fBf7rML2ia97i2MAsW_zAF2SPVd4m2NY-BvCcZVV8yu1Wss_sO6tcHB2yStaLOJTDnGQxH_H2N3X9RxHQiMgSmFbYE6k1ASU4FuTTqRcFw7_rYlpGEP7WjFlRf_KJose6rCWd4P5HJhAkho20vKCXBRv2K-vNmVXajOmeWXhe8UoXSBXrUE20h9rVBZt_-359HaOehws6glhptdsPkvCdWSO9Y1j3HJf1vFhK-8aNYNLhibdCMgypi1UhMEaQa4hU_PEj1wbnJ5AHsByTJMgASKD8Ip0A1PBLiKNZgdvff_sg3xFjr1DMtKkPcdpLiSwEh21hefzOZzOq1adiRzCNdl9KMfwy-ywvaSnNLZLlNfs0MfS8SqNzp2liljE67LxvG7xxBb07gAOooWIQLZWWIrBiR-IztWb7QyukPIFZgnA5GgzVC-sQjRpqivLyEDjA2cvb7N1ynplO55Plvg7fklhYPBmFCoGWIIhgwdh3b6niFtPXNeNmUg4ueWtvyf7Xi8MJ5hXxYKP_QTpI", "width": 650}], "place_id": "ChIJ3RLOdJZOQA0Ruh0xX7M1NYc", "plus_code": {"compound_code": "8GG5+94 Navahondilla, Spain", "global_code": "8CGQ8GG5+94"}, "reference": "ChIJ3RLOdJZOQA0Ruh0xX7M1NYc", "scope": "GOOGLE", "types": ["school", "point_of_interest", "establishment"], "vicinity": "Avenida de Portugal, Navahondilla"}, {"business_status": "OPERATIONAL", "geometry": {"location": {"lat": 40.30674870000001, "lng": -4.432210500000001}, "viewport": {"northeast": {"lat": 40.30813078029151, "lng": -4.430847219708498}, "southwest": {"lat": 40.30543281970851, "lng": -4.433545180291503}}}, "icon": "https://maps.gstatic.com/mapfiles/place_api/icons/v1/png_71/generic_business-71.png", "icon_background_color": "#7B9EB0", "icon_mask_base_uri": "https://maps.gstatic.com/mapfiles/place_api/icons/v2/generic_pinlet", "international_phone_number": "+34 918 64 14 96", "name": "Excavaciones Demolicion de Piedras Y Pozos", "opening_hours": {"open_now": true}, "photos": [{"height": 2322, "html_attributions": ["<a href=\"https://maps.google.com/maps/contrib/113881436302100418309\">eugenio alegre</a>"], "photo_reference": "AWn5SU6dAS4Gr4xo4-rUqL179pQE-CkXle5mLFXvewmr7uwLDprreHBwphvBuvaE8iXGbFckDMmzy8IZOaIZqWjJldya-WiZtbFAFuDtX5-05bCXQjvxYcnxsh8ZuIZm-iJzGtF8Ac5Bh9QuzEyksW61wju7lMamDckuGJ39ckLgna4gMWNge_haReeghmETw4FLmrKPbDUDgLdFkVGc0uP2sr0z9zYAUW_3L7J17ypcFguYpuS5WSM8xnTSbnrPIEu0VhHSkE7VUFO9e1qnAZZA5y_ZHH959QU2Czr1rVg3-mPWXIs_FhNvA-1UXaGe7vBlrqwpUVB-Gjgq1g_1oMwOtKtvKtupz3NKBMoxBa0f6tVIQ2IKQD8WwFKvH56L0YnWV0NE6VQW4h2lEDFZim5PDe4LoEzF3j7epW9V26PAKwm0ZC7xP7puq3-qFhfGeL5HBCrnZyZo4Ss0vcQPtDDVtI9hFU1yiumx_MJVUCUcUtmC2kPXD2gt5oilYyUHNoJcSZoJko1wPTlvVqgDBKJWC3BmacjFovYrFCapTk_kruRmeNqwHSx77pOYxbOcUl1zELzjxQfhxfKVAHNg3MoJsSW7354XhLKWDcw7MNddu5RT5hlBcVejMqFxrigdtKt0", "width": 4128}], "place_id": "ChIJXz-VFIJMQA0RdbR-jfI_2rU", "plus_code": {"compound_code": "8H49+M4 Cadalso de los Vidrios, Spain", "global_code": "8CGQ8H49+M4"}, "reference": "ChIJXz-VFIJMQA0RdbR-jfI_2rU", "scope": "GOOGLE", "types": ["general_contractor", "point_of_interest", "establishment"], "vicinity": "Calle Rosa, 13, Cadalso de los Vidrios"}, {"business_status": "OPERATIONAL", "geometry": {"location": {"lat": 40.3085285, "lng": -4.4077668}, "viewport": {"northeast": {"lat": 40.3121336, "lng": -4.406502419708498}, "southwest": {"lat": 40.3073268, "lng": -4.409200380291503}}}, "icon": "https://maps.gstatic.com/mapfiles/place_api/icons/v1/png_71/generic_business-71.png", "icon_background_color": "#7B9EB0", "icon_mask_base_uri": "https://maps.gstatic.com/mapfiles/place_api/icons/v2/generic_pinlet", "international_phone_number": "+34 918 64 05 14", "name": "Marcelino Martínez Madrid SLU", "opening_hours": {"open_now": false}, "photos": [{"height": 2736, "html_attributions": ["<a href=\"https://maps.google.com/maps/contrib/110725048019147649880\">Marcelino Martínez Madrid SLU</a>"], "photo_reference": "AWn5SU7x8ljlQ-XHIWV8HUjZgVsiEkEC4qOd6wVtuWaw2EWR18OUTbJJsheTnyfrn4iLwOP3Uj5SzRV9mjIFUl0gehEidJcBPIhiex_ufyaPy8dHn6k3K7PmRqmzhMUdCOWuPzhNzC-h-3giNpC3_lP06mSrEJM3Qg_Gjbu4FwEmHAApFUIT3rFcJ1bQ7S2zCb5Lr8a6go-gd1lid6T-GOU9UQH-E2FJGmJzX-14L2qiPt16MHKA2PNVESsGSwYeeFITwDExvJ5ph6yLsHIPJjXfaDpLlu_LOeRQ4Zc7Rm5YfIQ30OXj1xJhwTu2ra4N2i7XJGDbww6mr44", "width": 3648}], "place_id": "ChIJITwmCqFMQA0R5bxipCvkZIo", "plus_code": {"compound_code": "8H5R+CV Cadalso de los Vidrios, Spain", "global_code": "8CGQ8H5R+CV"}, "rating": 3.4, "reference": "ChIJITwmCqFMQA0R5bxipCvkZIo", "scope": "GOOGLE", "types": ["point_of_interest", "establishment"], "user_ratings_total": 8, "vicinity": "Carretera Pelayos de la Presa, 0 km 8 , Bajo, M-541, Cadalso de los Vidrios"}, {"geometry": {"location": {"lat": 40.3635617, "lng": -4.4035034}, "viewport": {"northeast": {"lat": 40.37304369882106, "lng": -4.389212662682157}, "southwest": {"lat": 40.3562666594986, "lng": -4.41300950832653}}}, "icon": "https://maps.gstatic.com/mapfiles/place_api/icons/v1/png_71/geocode-71.png", "icon_background_color": "#7B9EB0", "icon_mask_base_uri": "https://maps.gstatic.com/mapfiles/place_api/icons/v2/generic_pinlet", "name": "San Martín de Valdeiglesias", "photos": [{"height": 4000, "html_attributions": ["<a href=\"https://maps.google.com/maps/contrib/112960422255849689386\">Agustin Fernandez Lucas</a>"], "photo_reference": "AWn5SU59olIC2vxTKC-U2LqrZQBxnDYjbiXOKs5e1QJekIo1OaF_zsw3afxZZi_k7IAt1yVegNMSDL6azln2CrI3URnfiOway8osYW26Y_35LyaR4KgRcUZ3gDV8X2TTOf5WylT4fG0NmUNQfL-l9UdJbMesK_dIbcshFoXDnb0WMLPL6i4xbZWPKejhwcCFX6EfWOLKgSlASXeoiY0aTcXlNZSfl6fIsLAqP_AYjpAiyfhOsIJXa-VZYjZnYGvaF52AGxMTEVcM-HInJj01BzxxUXArthzTdlZhAOvhZr2PbaWXaX1bBvq3_frxFN9MSkh89p5ZygctkgqWu3tkk5WKPZCXUW4z9ZI1skZdegRMTvGgAz2bBVgtSbWFyuHn1uPHn84iOGh4_Vv25Ot9FhYglfnZW28AGNZSma2M-HNlA7oUX5-P-ikQjBdcQ-Amb3E0PUqH0wAugskIa9wuAlkdWSzyePh5oraGkCc7veAGL5GMAFmwV_7sFrJ8T9iFh1sjuC4i0NABWYGih-Bigx9jhyAxd_QkFY4ghQd8WHO8XvS2jm0mzuMB_frJr7Uocx6HdZDoDXS-jXY5OJY4QFTMzot3DBm8AxdVo_fK7riE-IpbNAkUmzUjlHXMghw2S5yoAVBB0_M2", "width": 3000}], "place_id": "ChIJTT_CSjRNQA0RIdGMdAiq-A0", "reference": "ChIJTT_CSjRNQA0RIdGMdAiq-A0", "scope": "GOOGLE", "types": ["locality", "political"], "vicinity": "San Martín de Valdeiglesias"}]