[{"geometry": {"location": {"lat": 40.4843898, "lng": -3.3688023}, "viewport": {"northeast": {"lat": 40.5229801313269, "lng": -3.315489147536784}, "southwest": {"lat": 40.46659959311918, "lng": -3.417862653369858}}}, "icon": "https://maps.gstatic.com/mapfiles/place_api/icons/v1/png_71/geocode-71.png", "icon_background_color": "#7B9EB0", "icon_mask_base_uri": "https://maps.gstatic.com/mapfiles/place_api/icons/v2/generic_pinlet", "name": "Alcala de Henares", "photos": [{"height": 2252, "html_attributions": ["<a href=\"https://maps.google.com/maps/contrib/105105910382453310187\">toni cucala</a>"], "photo_reference": "AWn5SU4q4p4S0e8n06w3nVPLU-wVgIW5BrGGYn_jPHyT5FBrsUTu3vmqP5a1wDByM38MFAZDzwyrt6F1J_OOCVVpz1CDL_fHanI5AekgZl71Z8g9YMEUhWj-xpxfHUSMitZi8nKgLl5G1RwRrpYEWKp9QDBm6xV1faymDlcodE5ynSSmk9mdvz9yxzoXTm3TVldpnZNofFxBvGqIPMdgyt6dU-yeBo6gOd5W6P9LseLE_kbAmj1vCxZbsUSQAfLjIxSz0EzYquhpSQJ6qU9otjMXbl_VyP12SGmpDWSRNkqIlH5_vUOti8ezrwaSrselS_iFFww8mmBlrRLhIKSwvgWJChiLQI08mYFXJ9YqaBdeS_Nz8rgVqh5O21LwnQAuRRWwTebWgBoprKQR8J42_DkdFi26c7ER9Z7MGCG82-2PUKNWEX2quLyVzzabLGNJgav9npiqActurNI40fIKAb2ZMxeoMLQiuq2iEB6lEnxNFip6Ju_td0PKNb6Of1aiJWoMnmBVpz7jEb-y_S3wRVATtochjaMRFVNJoA2if25NKLsSNzFXMdOHBwSgu7wjSnFPP2l5mMtq4_rA_y01XDrr7wUmXu5pQvlq9Fp5TST3dbvz8o8hFoUxliotKGKpKOVspbZJwYO_", "width": 4000}], "place_id": "ChIJC-ZpxthLQg0RIxeyVBTrVQU", "reference": "ChIJC-ZpxthLQg0RIxeyVBTrVQU", "scope": "GOOGLE", "types": ["locality", "political"], "vicinity": "Alcala de Henares"}, {"business_status": "OPERATIONAL", "geometry": {"location": {"lat": 40.5967655, "lng": -3.4951376}, "viewport": {"northeast": {"lat": 40.59813293029151, "lng": -3.493643819708498}, "southwest": {"lat": 40.59543496970851, "lng": -3.496341780291502}}}, "icon": "https://maps.gstatic.com/mapfiles/place_api/icons/v1/png_71/lodging-71.png", "icon_background_color": "#909CE1", "icon_mask_base_uri": "https://maps.gstatic.com/mapfiles/place_api/icons/v2/hotel_pinlet", "international_phone_number": "+34 916 28 29 05", "name": "Hotel Algete", "opening_hours": {"open_now": false}, "photos": [{"height": 2000, "html_attributions": ["<a href=\"https://maps.google.com/maps/contrib/114848903527278904213\">Hotel Algete</a>"], "photo_reference": "AWn5SU45AkTXMU1pRQw-2gHK-yBrjetA0Ld29C8yka1pBNjJTGH047suSWvkSjQew6shy1RsOJubU0_zAxedU7f8aZc-2YmWlYm3DkzEJEPWNx9mM6fpNJRcmTBt7kAy-CIoU4s6t6bgrkTSmVGqwsq2g1HF1_mKDXilstslS2g_cN0-sKlUtOD5vdNpHBe-dp5xnu2xswgdVFgUYS6bYFGPF4k6keBk9LXiqwS8vd2QqGbiCij855hdhHP1s9O00gSHgUQ7UHpV33s6uNQUEnWH7MSezph--tkiJR8VNCxRu1dqZ6NheXFn-xRPzeRD9shRjxvAHgClhBA", "width": 3008}], "place_id": "ChIJj5bA_FvLQw0Rz9O9ijh8zyM", "plus_code": {"compound_code": "HGW3+PW Algete, Spain", "global_code": "8CGRHGW3+PW"}, "price_level": 2, "rating": 4.1, "reference": "ChIJj5bA_FvLQw0Rz9O9ijh8zyM", "scope": "GOOGLE", "types": ["lodging", "point_of_interest", "establishment"], "user_ratings_total": 1266, "vicinity": "Calle San Roque, 25, Algete"}, {"business_status": "OPERATIONAL", "geometry": {"location": {"lat": 40.5434203, "lng": -3.4584458}, "viewport": {"northeast": {"lat": 40.5447694802915, "lng": -3.456998369708498}, "southwest": {"lat": 40.5420715197085, "lng": -3.459696330291502}}}, "icon": "https://maps.gstatic.com/mapfiles/place_api/icons/v1/png_71/bank-71.png", "icon_background_color": "#909CE1", "icon_mask_base_uri": "https://maps.gstatic.com/mapfiles/place_api/icons/v2/bank-intl_pinlet", "international_phone_number": "+34 918 78 23 00", "name": "BBVA", "opening_hours": {"open_now": false}, "photos": [{"height": 720, "html_attributions": ["<a href=\"https://maps.google.com/maps/contrib/112837948615594447003\">BBVA</a>"], "photo_reference": "AWn5SU78c3aq-4WYw5PvkwL_AWFIX6O-fir-d6_pzYbacAz9-aZ87YIZfq5S100isnkD1dxyYYPOdgXilXLpPYBeV8Wi6JDykCo6KBxnLe_vIL5gthm0m4BBMmGtizliIiZ1JcAzdIHxgqHhqvoTjsBRKEjTsP7DAe2AkGyMV2P7lY3Ah7wg7zv5wJGU3U_Lpmx0p5nfFosueQfnBOZNigegc53XVNtK62ijBS1_tc0Pt2BtnoAwTEhXXP_-0taZyEUYJ9s3_ob2vRVSo6YByNqmdiQhQ-DaoUqZTLsuc_C_T9raSIIAqXRf9rD4iSGpEd3IWJFO653n", "width": 1280}], "place_id": "ChIJBa3ScQA1Qg0RmEjiQiOpbi4", "plus_code": {"compound_code": "GGVR+9J Daganzo de Arriba, Spain", "global_code": "8CGRGGVR+9J"}, "rating": 3.2, "reference": "ChIJBa3ScQA1Qg0RmEjiQiOpbi4", "scope": "GOOGLE", "types": ["bank", "atm", "accounting", "finance", "point_of_interest", "establishment"], "user_ratings_total": 23, "vicinity": "Glorieta de Alcala, 2, Daganzo de Arriba"}, {"business_status": "OPERATIONAL", "geometry": {"location": {"lat": 40.56710410000001, "lng": -3.506215399999999}, "viewport": {"northeast": {"lat": 40.56841393029151, "lng": -3.504923919708498}, "southwest": {"lat": 40.56571596970851, "lng": -3.507621880291502}}}, "icon": "https://maps.gstatic.com/mapfiles/place_api/icons/v1/png_71/bank-71.png", "icon_background_color": "#909CE1", "icon_mask_base_uri": "https://maps.gstatic.com/mapfiles/place_api/icons/v2/bank-intl_pinlet", "international_phone_number": "+34 916 20 70 77", "name": "BBVA", "opening_hours": {"open_now": false}, "photos": [{"height": 720, "html_attributions": ["<a href=\"https://maps.google.com/maps/contrib/103234548839776676588\">BBVA</a>"], "photo_reference": "AWn5SU7QBzTlZSJkmtHajsuFTpLyorWLHjvI2qrQ9B0vO-W_LWouIxrppzWxBW31Yns-6AWOZC7EP4aDjndYVTlkjAf815Ys94SJwPG_fq4arcQ0SYuCjy5hYjb9nnpdGjXBHVTkoMOKdTejYllj8JyZFJZ5Dcxr9akQKc51aVckb1r7yKo5yOIYTyAZl-aYiye09FJ4xI_PnvR-TQB6j6EhA8x9RFT8foDUqQulAd4WKrMvuofIOPgEWqYv5YxG6vMiv9idjKTAkwBdTjXBCOo4Oo4ebfs70NGC4SnUM2hC1GZylZcLOOAMLGWj8kLQ-T3iHEI8Na7kpt4", "width": 1280}], "place_id": "ChIJKUNAW1kzQg0Rq3-HZ2NdVgI", "plus_code": {"compound_code": "HF8V+RG Cobeña, Spain", "global_code": "8CGRHF8V+RG"}, "rating": 2.9, "reference": "ChIJKUNAW1kzQg0Rq3-HZ2NdVgI", "scope": "GOOGLE", "types": ["bank", "atm", "accounting", "finance", "point_of_interest", "establishment"], "user_ratings_total": 27, "vicinity": "Calle Madrid, 10, Cobeña"}, {"business_status": "OPERATIONAL", "geometry": {"location": {"lat": 40.59630490000001, "lng": -3.4959466}, "viewport": {"northeast": {"lat": 40.59770043029151, "lng": -3.494600269708498}, "southwest": {"lat": 40.59500246970851, "lng": -3.497298230291502}}}, "icon": "https://maps.gstatic.com/mapfiles/place_api/icons/v1/png_71/bank-71.png", "icon_background_color": "#909CE1", "icon_mask_base_uri": "https://maps.gstatic.com/mapfiles/place_api/icons/v2/bank-intl_pinlet", "international_phone_number": "+34 916 28 25 97", "name": "BBVA", "opening_hours": {"open_now": false}, "photos": [{"height": 720, "html_attributions": ["<a href=\"https://maps.google.com/maps/contrib/114738695419741946657\">BBVA</a>"], "photo_reference": "AWn5SU4oALPml9exRwZnzmXFsTtkEzzJo4Mg4gFLj1JXwCtbFIEksU4-7OwwAoH2KH02HaOr5u4Rj6KZ5XTeP946NHiYwL3P97-QcdWNZ8Oe_AdDmTGKreh7RCijqJ2SHGa_69T4stQEgysD66hUozuccx83xAW8Z8_HPevF5Rg9tCtPL7WGXCVps8THqXqOtK3A115YiqEdAU1mfDtygqU65D2raGi7zs1ccG32HspRPOqsXK4753BjKQByaBlsBSsjI2oy9TLGkoN6mXD3rTHEu7cXkurkfoLGoTN3FDHNiIvdDjseWFyE5rc4CJJQlU56bTDWgCTt", "width": 1280}], "place_id": "ChIJpczDRFnLQw0R6BAL4_awIew", "plus_code": {"compound_code": "HGW3+GJ Algete, Spain", "global_code": "8CGRHGW3+GJ"}, "rating": 2.3, "reference": "ChIJpczDRFnLQw0R6BAL4_awIew", "scope": "GOOGLE", "types": ["bank", "atm", "accounting", "finance", "point_of_interest", "establishment"], "user_ratings_total": 47, "vicinity": "Calle San Roque, 14, Algete"}, {"business_status": "OPERATIONAL", "geometry": {"location": {"lat": 40.53378799999999, "lng": -3.4789378}, "viewport": {"northeast": {"lat": 40.5351686802915, "lng": -3.477620769708498}, "southwest": {"lat": 40.5324707197085, "lng": -3.480318730291502}}}, "icon": "https://maps.gstatic.com/mapfiles/place_api/icons/v1/png_71/bank-71.png", "icon_background_color": "#909CE1", "icon_mask_base_uri": "https://maps.gstatic.com/mapfiles/place_api/icons/v2/bank-intl_pinlet", "international_phone_number": "+34 918 84 30 56", "name": "Banco Sabadell", "opening_hours": {"open_now": false}, "photos": [{"height": 1080, "html_attributions": ["<a href=\"https://maps.google.com/maps/contrib/102532124654482654371\">Banco Sabadell</a>"], "photo_reference": "AWn5SU464GEz8jAw-cXIaOUg4k7R0kH8wt_wD6qKv6DFZ5nNoQe-JcC03ifkMeyUj6ik0V6KayCyg9rG7yLPCkOUIYT3qdZ2s2T8DdKhuYg-J59_JuBmYMXWPSvpdqp9sc2bbVswLsnj97_CM09n6-jESXnUzPcB9xmgrz6DgP3VWEzHP-vcNa-IRHUciI3M5Wwtn43hf3XgfOa4rrZhyvN2ItlfNbh0cKYmBnSYDioDws1VlQbe-_PkWYauqhLR-KqXnR5lk5qLKUtNfHyBsU2kVUecwVI-nXn_MNao5SwLPToYBOKkXqoAqYI47Z58VKPBi27Xs7KvOZA", "width": 1920}], "place_id": "ChIJH76BdF00Qg0RwJkLS5oV9ao", "plus_code": {"compound_code": "GGMC+GC Ajalvir, Spain", "global_code": "8CGRGGMC+GC"}, "rating": 1.9, "reference": "ChIJH76BdF00Qg0RwJkLS5oV9ao", "scope": "GOOGLE", "types": ["bank", "atm", "accounting", "finance", "point_of_interest", "establishment"], "user_ratings_total": 29, "vicinity": "Calle Carlos Ruiz, 27, Ajalvir"}, {"business_status": "OPERATIONAL", "geometry": {"location": {"lat": 40.56214, "lng": -3.49817}, "viewport": {"northeast": {"lat": 40.56357903029149, "lng": -3.497013669708498}, "southwest": {"lat": 40.56088106970849, "lng": -3.499711630291502}}}, "icon": "https://maps.gstatic.com/mapfiles/place_api/icons/v1/png_71/generic_business-71.png", "icon_background_color": "#7B9EB0", "icon_mask_base_uri": "https://maps.gstatic.com/mapfiles/place_api/icons/v2/generic_pinlet", "international_phone_number": "+34 918 25 90 55", "name": "Vagspeed", "opening_hours": {"open_now": false}, "photos": [{"height": 1080, "html_attributions": ["<a href=\"https://maps.google.com/maps/contrib/109470573917118261973\">Vagspeed</a>"], "photo_reference": "AWn5SU4r5IEmeY7KK5pEhrI0rve13gM5u_YWGHOzQVJLk5jKpwgsAK18L309BzYt3KE72iN3elB5OzQdudE64BGgHtKEkZbRlouRg4Cl-lZ82EoFa5BE8ZreBZUjb-fPU4OYw9pk--aiwWrQtgu6fsuIFr2NvDa82l3sfa-BsXO15deRzcLGpt7vc6EDSK3BblhUsJ81Dqh-MRZqurcR3jUti2SaRLgPsye6XmtvvUH0PXdVdNRJb8x1hs5lNwzc8GyeHMAwFc9-WGOP00AiQfkLlMitNbWCZZkZ2lGvW9ulrEsJoRfupaP2DxqQP3-ZjNrHl4M2N1lGvUs", "width": 1920}], "place_id": "ChIJpbTILqA0Qg0RJBU_fTH99dA", "plus_code": {"compound_code": "HG62+VP Cobeña, Spain", "global_code": "8CGRHG62+VP"}, "rating": 4.5, "reference": "ChIJpbTILqA0Qg0RJBU_fTH99dA", "scope": "GOOGLE", "types": ["car_repair", "point_of_interest", "establishment"], "user_ratings_total": 371, "vicinity": "Campo Nuevo, Calle Bronce, 5, Nave - Pol. Ind, Campo Nuevo"}, {"business_status": "OPERATIONAL", "geometry": {"location": {"lat": 40.53135099999999, "lng": -3.480353}, "viewport": {"northeast": {"lat": 40.53277663029149, "lng": -3.479053119708499}, "southwest": {"lat": 40.53007866970849, "lng": -3.481751080291502}}}, "icon": "https://maps.gstatic.com/mapfiles/place_api/icons/v1/png_71/hospital-71.png", "icon_background_color": "#F88181", "icon_mask_base_uri": "https://maps.gstatic.com/mapfiles/place_api/icons/v2/hospital-H_pinlet", "international_phone_number": "+34 918 84 40 89", "name": "Cemaj Medical Center Ajalvir", "opening_hours": {"open_now": false}, "photos": [{"height": 768, "html_attributions": ["<a href=\"https://maps.google.com/maps/contrib/106200133582017249760\">Centro Médico Cemaj Ajalvir</a>"], "photo_reference": "AWn5SU4Xvhl3oWJgw0tDVuWIzXsR1Psw0An08zd4MaKON60OLtR5_4zMnRFObQUbRsDunhkdp58DEc479kH0i0wOPoJiqs2BKajdadT0jYTHT1rZMB2ZV07XYf8aZBPOeLaPXdH3pGGXr2O70eAQmCNwCcSUvwDKV4W76clpQIMGQJFm0NtCSYV1uNVyMafxSLtJJSDYAgM5HWzWgJ1stZ4mFUkdJ95GWngm_1UpLNtnZuYeLLMEa6QeRSfA_zzLHietNq6krYhOlMs-V-nt_lyxg0sFfCWvAlQvOEFqeezQnR6ovGxni6xBMx-atxlvtQkkjaLP-67ybn4", "width": 1154}], "place_id": "ChIJ-c-zAWg0Qg0RySqwxtABp3s", "plus_code": {"compound_code": "GGJ9+GV Ajalvir, Spain", "global_code": "8CGRGGJ9+GV"}, "rating": 2.9, "reference": "ChIJ-c-zAWg0Qg0RySqwxtABp3s", "scope": "GOOGLE", "types": ["hospital", "health", "point_of_interest", "establishment"], "user_ratings_total": 200, "vicinity": "Carretera de Daganzo, 6, LOCAL Nº4, Ajalvir"}, {"business_status": "OPERATIONAL", "geometry": {"location": {"lat": 40.5678558, "lng": -3.504943399999999}, "viewport": {"northeast": {"lat": 40.5691721802915, "lng": -3.503666969708497}, "southwest": {"lat": 40.5664742197085, "lng": -3.506364930291501}}}, "icon": "https://maps.gstatic.com/mapfiles/place_api/icons/v1/png_71/civic_building-71.png", "icon_background_color": "#7B9EB0", "icon_mask_base_uri": "https://maps.gstatic.com/mapfiles/place_api/icons/v2/civic-bldg_pinlet", "international_phone_number": "+34 916 20 81 32", "name": "Cobeña Town Hall", "opening_hours": {"open_now": false}, "photos": [{"height": 3456, "html_attributions": ["<a href=\"https://maps.google.com/maps/contrib/103122536312653213998\">Yuan Zhehai</a>"], "photo_reference": "AWn5SU7L3-hAGtTaz-BouZeoF5QcfX5tmW7EUXKp_Znb30NtoHoFUWgxmh_pS9u-t4IFP7JGfXurYnTnlhuJJd3ysUgB3eRiBNq6WB-Wm4ATrUCqqTr_PL9tfNCbjG102cG5WXq-m-1mjuoTNMV6jTGQM2VMp-nLZv0jTyzsHxJhnKf1pRaajF--LHbbfpU8kBhkSJurv8VGS1jMHB1TXhDPaK9DwHcEL9SU3XmnGwV0IbqzwGy2UP6tUwPdwoJMxFMsWmLDqlmb_3cdEFir4S8Z3dCv3rHnmg_kFJpz0eA6HmSCCcYA3_BCtSqumOt6GK4GVb1-diwJdorHh8Asy7YWJ10JuFpbv5icpM9FLz700R50VHNgiai2dQ9jHn88v_OJSNV09djZkeXvpAc4a-S_afKi8cHF11crzLSP9r1mu2vFO7IDd5-Shr-D5Lgfoly6YzTgNbTiagqpRbKZkKFT6N_px9Heov_U243t4VwH0OPXa_KTe1xSTLYGxBTxrQVmH9PJnBKauz1gNFnBn_jn9IOTw6rVMYfHOL8LFHiHQiH1x1-gz-SqXk7wdcR_YtWYn_YuKsvsEOLXlJdgEpn_OzTdWdwyeKnxbgfk6gXubfgOswfkS_8z63W9KohS7Woi", "width": 4608}], "place_id": "ChIJHz9wZ1kzQg0R5zMXVfSbr-M", "plus_code": {"compound_code": "HF9W+42 Cobeña, Spain", "global_code": "8CGRHF9W+42"}, "rating": 4.1, "reference": "ChIJHz9wZ1kzQg0R5zMXVfSbr-M", "scope": "GOOGLE", "types": ["city_hall", "local_government_office", "point_of_interest", "establishment"], "user_ratings_total": 236, "vicinity": "Plaza de la Villa, 1, Cobeña"}, {"business_status": "OPERATIONAL", "geometry": {"location": {"lat": 40.5354609, "lng": -3.4786585}, "viewport": {"northeast": {"lat": 40.53688383029149, "lng": -3.477406519708498}, "southwest": {"lat": 40.5341858697085, "lng": -3.480104480291502}}}, "icon": "https://maps.gstatic.com/mapfiles/place_api/icons/v1/png_71/generic_business-71.png", "icon_background_color": "#7B9EB0", "icon_mask_base_uri": "https://maps.gstatic.com/mapfiles/place_api/icons/v2/generic_pinlet", "international_phone_number": "+34 654 63 77 66", "name": "Jardineria y Paisajismo", "opening_hours": {"open_now": false}, "photos": [{"height": 375, "html_attributions": ["<a href=\"https://maps.google.com/maps/contrib/118224003833430441361\">Jardineria y Paisajismo</a>"], "photo_reference": "AWn5SU4lXE1dS0_i5Zh84F4ffK-vlArsTxdf-PaHMZ2WRkIMNihJa_JIWhmHCd35H1EKJzLveb_yI93NIoks-nPyaaEMlhEKLt2METnvgiBECipHG7I-q1FvMryy8gjjx7z0R7HNwrN9Sg435mE0fuM3C5s1wxk-Y1UIsMU-m1cSxg5YXhhNUkhL4eEy_oztxkefyn0unsFSGVRTdS-uPrhfRp5nTfhpymcxxBLS4ZeT2C1UClgmbJA7-H25rrX4ic9DkDZPpKbdi413-1F0CbqJTkU8O9EGG-8_mUbKvccwsjcWtMbNnLzhksivk1wXV7gjVSK05M551AI", "width": 500}], "place_id": "ChIJAdunxV00Qg0R0-8L-H-vJNo", "plus_code": {"compound_code": "GGPC+5G Ajalvir, Spain", "global_code": "8CGRGGPC+5G"}, "reference": "ChIJAdunxV00Qg0R0-8L-H-vJNo", "scope": "GOOGLE", "types": ["general_contractor", "point_of_interest", "store", "establishment"], "vicinity": "Calle San Roque, 8, Ajalvir"}, {"business_status": "OPERATIONAL", "geometry": {"location": {"lat": 40.5420708, "lng": -3.4634832}, "viewport": {"northeast": {"lat": 40.5434491802915, "lng": -3.461971119708498}, "southwest": {"lat": 40.5407512197085, "lng": -3.464669080291502}}}, "icon": "https://maps.gstatic.com/mapfiles/place_api/icons/v1/png_71/shopping-71.png", "icon_background_color": "#4B96F3", "icon_mask_base_uri": "https://maps.gstatic.com/mapfiles/place_api/icons/v2/shopping_pinlet", "international_phone_number": "+34 918 84 15 79", "name": "Maldito Vicio", "opening_hours": {"open_now": false}, "place_id": "ChIJx2lIiVU0Qg0RBTr_c6sUXkM", "plus_code": {"compound_code": "GGRP+RJ Daganzo de Arriba, Spain", "global_code": "8CGRGGRP+RJ"}, "reference": "ChIJx2lIiVU0Qg0RBTr_c6sUXkM", "scope": "GOOGLE", "types": ["point_of_interest", "store", "establishment"], "vicinity": "Avenida de Circunvalación, 248, primera planta, Daganzo de Arriba"}, {"business_status": "OPERATIONAL", "geometry": {"location": {"lat": 40.5431762, "lng": -3.4580838}, "viewport": {"northeast": {"lat": 40.5445244302915, "lng": -3.456799919708498}, "southwest": {"lat": 40.5418264697085, "lng": -3.459497880291502}}}, "icon": "https://maps.gstatic.com/mapfiles/place_api/icons/v1/png_71/civic_building-71.png", "icon_background_color": "#7B9EB0", "icon_mask_base_uri": "https://maps.gstatic.com/mapfiles/place_api/icons/v2/civic-bldg_pinlet", "international_phone_number": "+34 607 70 64 59", "name": "POLICÍA LOCAL DAGANZO DE ARRIBA.", "opening_hours": {"open_now": true}, "place_id": "ChIJXcnTuKc1Qg0Ri98nFmLWAGs", "plus_code": {"compound_code": "GGVR+7Q Daganzo de Arriba, Spain", "global_code": "8CGRGGVR+7Q"}, "reference": "ChIJXcnTuKc1Qg0Ri98nFmLWAGs", "scope": "GOOGLE", "types": ["police", "point_of_interest", "establishment"], "vicinity": "Glorieta de Alcalá s/n"}, {"business_status": "OPERATIONAL", "geometry": {"location": {"lat": 40.5158751, "lng": -3.478185399999999}, "viewport": {"northeast": {"lat": 40.51727813029149, "lng": -3.476857419708498}, "southwest": {"lat": 40.5145801697085, "lng": -3.479555380291502}}}, "icon": "https://maps.gstatic.com/mapfiles/place_api/icons/v1/png_71/generic_business-71.png", "icon_background_color": "#7B9EB0", "icon_mask_base_uri": "https://maps.gstatic.com/mapfiles/place_api/icons/v2/generic_pinlet", "international_phone_number": "+34 652 96 77 57", "name": "GRUPO APPOL, cerrajeria en general", "photos": [{"height": 3024, "html_attributions": ["<a href=\"https://maps.google.com/maps/contrib/117044181674498725158\">GRUPO APPOL, cerrajeria en general</a>"], "photo_reference": "AWn5SU5TIjaYGi6a9tZVF_0f5y0tOVokjuKuB7yTjuwk4qp1kP4zAxYcurm_EK41Z_2CTZg3eDvFEQj5mVif0sq0p4yPKMA3wN8TVZMKkd7KE7a5pTSC2rgalW4MoAqlKey7djtHmUKB5WAH_MGikqievgu9enGaGxtZ_1quoElKBn2VQsi-3mQmukTPXdjY9KD5zY2tRFMs40JQwSiW-NPy8wWcby9mm76Y7VBFE5qtZgi8baAOyvo_uhTOgC16Vmqeli9EDAla94Hv_SyLs3twwO_A--srVaQBvSY8qujzfFXnpON05qWE-GXy4J_mThxroyQYW0As4e0", "width": 4032}], "place_id": "ChIJpf9HgBBKQg0Rq4274FxWtrQ", "plus_code": {"compound_code": "GG8C+9P Ajalvir, Spain", "global_code": "8CGRGG8C+9P"}, "rating": 3, "reference": "ChIJpf9HgBBKQg0Rq4274FxWtrQ", "scope": "GOOGLE", "types": ["point_of_interest", "establishment"], "user_ratings_total": 2, "vicinity": "Calle Marineras, 34, Ajalvir"}, {"business_status": "OPERATIONAL", "geometry": {"location": {"lat": 40.5458761, "lng": -3.4585109}, "viewport": {"northeast": {"lat": 40.5472431802915, "lng": -3.457193419708498}, "southwest": {"lat": 40.5445452197085, "lng": -3.459891380291502}}}, "icon": "https://maps.gstatic.com/mapfiles/place_api/icons/v1/png_71/shopping-71.png", "icon_background_color": "#4B96F3", "icon_mask_base_uri": "https://maps.gstatic.com/mapfiles/place_api/icons/v2/shopping_pinlet", "international_phone_number": "+34 911 69 83 61", "name": "Daganzo Animal", "opening_hours": {"open_now": false}, "photos": [{"height": 300, "html_attributions": ["<a href=\"https://maps.google.com/maps/contrib/108986534458577332991\">Rei</a>"], "photo_reference": "AWn5SU7sNyGoBvVaJkwzugJg3HBxxsWRbFQ65lj98zVkbh-z9UMOpAYS_WZuivxb-A7Ats3QDPPLiYBgPEwc9z67lCqFT8UMPTA50U31oulFmf7OA_Babj7RBDV1shrjHwxj4EQJ__XVm3Fb85IeZIcmTz3WftrvAt9A4AJWcUFbjahpaY6qEYpSlejFvEFZ-C3ixNSwCAvunDv-C8w-Ad6pLpMbvMYtoIscBp__Tqrwdas8MwZ7VxTMqbgJWSq2smIJ5YJcJ5JXlTsOWhWMl2peNJFjBeOkAZC1j8XdnkbmoEIq2nfETN4zNQ2_8oEVCgLs_2Yh9rtEx-e6lo8q4k7SIWM_QhyGUok8VUHTm6Ibg1NbXTr-PKGFUVUqJ5CzWGey3WRRqLabQfB6y_qwwdc7vEqfHBJ4zSC_b9Po3-i8lhyqrcAoSocdlVxkAIJ7nh0r0QJx3cmE3ePGaxInfARYkr9QF8LSQuAXcNLqLNOCsu68YyPKa_f7L2q7NqU-H2twqo_sQ9Paj3guAdb5OWLPVF1tV7WnkoghTOG69lsA3SX7CY1i_muz8RwYQ3LjAogc1ibZgDcj-arq791dKbYXX2NyAbsM5qKUVighx4wDnaHP85Q5giuGwFKepaP2hNpmlmxexg", "width": 400}], "place_id": "ChIJ3XDpuKo1Qg0RcTntt2AV4wg", "plus_code": {"compound_code": "GGWR+9H Daganzo de Arriba, Spain", "global_code": "8CGRGGWR+9H"}, "rating": 4.8, "reference": "ChIJ3XDpuKo1Qg0RcTntt2AV4wg", "scope": "GOOGLE", "types": ["pet_store", "point_of_interest", "store", "establishment"], "user_ratings_total": 16, "vicinity": "Calle Constitución, 54, local 3, Daganzo de Arriba"}, {"business_status": "OPERATIONAL", "geometry": {"location": {"lat": 40.546598, "lng": -3.4598703}, "viewport": {"northeast": {"lat": 40.5478961802915, "lng": -3.458522519708498}, "southwest": {"lat": 40.5451982197085, "lng": -3.461220480291502}}}, "icon": "https://maps.gstatic.com/mapfiles/place_api/icons/v1/png_71/civic_building-71.png", "icon_background_color": "#7B9EB0", "icon_mask_base_uri": "https://maps.gstatic.com/mapfiles/place_api/icons/v2/civic-bldg_pinlet", "international_phone_number": "+34 918 78 20 64", "name": "Oficina de Correos", "opening_hours": {"open_now": false}, "photos": [{"height": 900, "html_attributions": ["<a href=\"https://maps.google.com/maps/contrib/113679565406464824527\">Oficina de Correos</a>"], "photo_reference": "AWn5SU7E7g8dpXZXZ-ZvMQckq0dAINDUI8_k5lXN8webdnjSrgroVTo88wyNrXGX8ByZan_uWOwkv6yHvu7Hw3z6oPcYC9oJ_wPu2iX48XHgVWInGV51qVnS55LDQ_Hinej1sqdYyBhYqjdwpin0CipYxMVJJbIwoNdRzb-1xWEmHoGRZA1_RGaNJeGk_vXYuP_yEz2_epM2BQOTl35z_lydzApDzHzsgpA7Dk8otWZVe1T7DAdmGpmw-lL_sbAKuFvzJSUpuFeT_G0Mvd11QrMNymQKZJkgLcO0af6rs9fEbsFG7nla6pt5uRUuYKrQYODVCn28Rewzp0s", "width": 1600}], "place_id": "ChIJOUOq5gE1Qg0Rktx22SHTVAk", "plus_code": {"compound_code": "GGWR+J3 Daganzo de Arriba, Spain", "global_code": "8CGRGGWR+J3"}, "rating": 3.7, "reference": "ChIJOUOq5gE1Qg0Rktx22SHTVAk", "scope": "GOOGLE", "types": ["post_office", "finance", "point_of_interest", "establishment"], "user_ratings_total": 219, "vicinity": "Avenida del Conde de Coruña, 87, Daganzo de Arriba"}, {"business_status": "OPERATIONAL", "geometry": {"location": {"lat": 40.5381804, "lng": -3.459455199999999}, "viewport": {"northeast": {"lat": 40.53942593029149, "lng": -3.458327769708498}, "southwest": {"lat": 40.53672796970849, "lng": -3.461025730291502}}}, "icon": "https://maps.gstatic.com/mapfiles/place_api/icons/v1/png_71/shopping-71.png", "icon_background_color": "#4B96F3", "icon_mask_base_uri": "https://maps.gstatic.com/mapfiles/place_api/icons/v2/shopping_pinlet", "international_phone_number": "+34 918 78 21 35", "name": "EuroMontyres", "opening_hours": {"open_now": false}, "photos": [{"height": 1512, "html_attributions": ["<a href=\"https://maps.google.com/maps/contrib/112486497698963729731\">EuroMontyres</a>"], "photo_reference": "AWn5SU6wBJMDEJP5Rb1Jf7NGI3UFKGqEg7ed_SZneQddXA84SyKvvgQCheddwrc4uRFi4kRZ0taaxpwXWrNuiKKZ8UFQevcmpW6wg7K2s0sJfNz22ciPHv3a0mz6BcbsIk-Vd8c1LQUD_1yueG2hSh0GxvcvHVV9z7bPKD_hjiOmv7z0fEmNKIMSHaMI7F2ATg7R49izXQeaBhUwk_W20_hi8rkXTR_VmyfWNlAWX7O69WcyNHeOWV7XsWZ6sM4Bq27ryT-yhN9EcMefV9x3LUJ3lAk5zb3Su1-1alFv07sgV3z36QFhU0bw3wRWXcusjF0v41DzPLW6JsY", "width": 2016}], "place_id": "ChIJ3Tnskbo1Qg0RehyOspelfkQ", "plus_code": {"compound_code": "GGQR+76 Daganzo de Arriba, Spain", "global_code": "8CGRGGQR+76"}, "rating": 4.2, "reference": "ChIJ3Tnskbo1Qg0RehyOspelfkQ", "scope": "GOOGLE", "types": ["car_repair", "point_of_interest", "store", "establishment"], "user_ratings_total": 95, "vicinity": "Camino Ancho, 48, Daganzo de Arriba"}, {"business_status": "OPERATIONAL", "geometry": {"location": {"lat": 40.5435861, "lng": -3.457146299999999}, "viewport": {"northeast": {"lat": 40.5449103802915, "lng": -3.455735619708498}, "southwest": {"lat": 40.5422124197085, "lng": -3.458433580291501}}}, "icon": "https://maps.gstatic.com/mapfiles/place_api/icons/v1/png_71/bank-71.png", "icon_background_color": "#909CE1", "icon_mask_base_uri": "https://maps.gstatic.com/mapfiles/place_api/icons/v2/bank-intl_pinlet", "international_phone_number": "+34 918 84 50 77", "name": "Banco Santander", "opening_hours": {"open_now": false}, "photos": [{"height": 720, "html_attributions": ["<a href=\"https://maps.google.com/maps/contrib/111156841888383096025\">Banco Santander</a>"], "photo_reference": "AWn5SU6x---bWABJqEfky_ZZAjz5ULpE9xNwrLr8doJlGRYkpmPbn0WXGcsKTlseX-1fJk62XNAnkriFG7KEGXpr_dzGuMdXDOiqS_SG3twQ5WsfVQUp6v8YfIQBhrHVYcVmDBImFXgCzdQoPwVugkT4uY3htSM0BYFJvY5FibOuVmvUH_Fvlve8wh3VwlDw7c1pqt_953CTKkGuwG5P5pKGoMcZrwycdNaKxKpCUHhVIcK1RDBhHB0ICUboZQGtb76k7WlNOR_OSh6sJXrs94P54lB489pRE4Q4-QQe7NzK6fEMt72Xz_Xohm5lbUp4ml0XPzX6uPJ0", "width": 1280}], "place_id": "ChIJpdANjAA1Qg0R9Elbav7drqE", "plus_code": {"compound_code": "GGVV+C4 Daganzo de Arriba, Spain", "global_code": "8CGRGGVV+C4"}, "rating": 2.6, "reference": "ChIJpdANjAA1Qg0R9Elbav7drqE", "scope": "GOOGLE", "types": ["bank", "atm", "finance", "point_of_interest", "establishment"], "user_ratings_total": 39, "vicinity": "Calle Pintor Velazquez, 2, Daganzo de Arriba"}, {"business_status": "OPERATIONAL", "geometry": {"location": {"lat": 40.5208473, "lng": -3.4814085}, "viewport": {"northeast": {"lat": 40.5221966302915, "lng": -3.479972519708498}, "southwest": {"lat": 40.5194986697085, "lng": -3.482670480291502}}}, "icon": "https://maps.gstatic.com/mapfiles/place_api/icons/v1/png_71/generic_business-71.png", "icon_background_color": "#7B9EB0", "icon_mask_base_uri": "https://maps.gstatic.com/mapfiles/place_api/icons/v2/generic_pinlet", "international_phone_number": "+34 657 40 62 44", "name": "Talleres Ajalvir", "opening_hours": {"open_now": false}, "photos": [{"height": 1440, "html_attributions": ["<a href=\"https://maps.google.com/maps/contrib/102432186247229873573\">Talleres Ajalvir</a>"], "photo_reference": "AWn5SU5DydlDQiUbTKUNX4JC2S8SVA1nLsJ15nb2yPSdeTztRPA9lBrPxp3T9k1mpQ2vGQcuURA_m1NgpSw9fSLyHPd3EV2K7lCFUBgaCoaGEOcMjm3wu4_EB07aiVRRB3ou3V5AyXG2VHU2AowaDG3c5ultqcHCtGG8CfFJ3mC_aCZbPv-T2xLNdMQ34EtAfbBeAwnMSJq42h3cn2zc2vqI77RUFtE1DUAf0B4vAVW1_YexEhWbrlTr2T3rbrzHjJf2g6tXU4z7j6jFC1O2r5W5vfpycHIscDNQI6neevEF2rXi3o3kDLJhe0nOt2kV5UABPI0pvAeGibw", "width": 2560}], "place_id": "ChIJQdUxSxU0Qg0Rz74cFmFe8mU", "plus_code": {"compound_code": "GGC9+8C Ajalvir, Spain", "global_code": "8CGRGGC9+8C"}, "rating": 4.6, "reference": "ChIJQdUxSxU0Qg0Rz74cFmFe8mU", "scope": "GOOGLE", "types": ["car_repair", "point_of_interest", "store", "establishment"], "user_ratings_total": 64, "vicinity": "Polígono Industrial Juan y Antonio, 28"}, {"business_status": "OPERATIONAL", "geometry": {"location": {"lat": 40.5316833, "lng": -3.481818499999999}, "viewport": {"northeast": {"lat": 40.5327207802915, "lng": -3.480393069708497}, "southwest": {"lat": 40.5300228197085, "lng": -3.483091030291501}}}, "icon": "https://maps.gstatic.com/mapfiles/place_api/icons/v1/png_71/shopping-71.png", "icon_background_color": "#4B96F3", "icon_mask_base_uri": "https://maps.gstatic.com/mapfiles/place_api/icons/v2/shopping_pinlet", "international_phone_number": "+34 918 84 41 61", "name": "Regalo Original", "place_id": "ChIJ-QXJ2Gc0Qg0RD1UJ-NAnbVQ", "plus_code": {"compound_code": "GGJ9+M7 Ajalvir, Spain", "global_code": "8CGRGGJ9+M7"}, "rating": 3, "reference": "ChIJ-QXJ2Gc0Qg0RD1UJ-NAnbVQ", "scope": "GOOGLE", "types": ["point_of_interest", "store", "establishment"], "user_ratings_total": 2, "vicinity": "Calle Torrejón, Nº19, 1ºC, Ajalvir"}, {"geometry": {"location": {"lat": 40.5964617, "lng": -3.5016452}, "viewport": {"northeast": {"lat": 40.60244857187934, "lng": -3.492189160304554}, "southwest": {"lat": 40.58910249695727, "lng": -3.509444479745053}}}, "icon": "https://maps.gstatic.com/mapfiles/place_api/icons/v1/png_71/geocode-71.png", "icon_background_color": "#7B9EB0", "icon_mask_base_uri": "https://maps.gstatic.com/mapfiles/place_api/icons/v2/generic_pinlet", "name": "Algete", "photos": [{"height": 4000, "html_attributions": ["<a href=\"https://maps.google.com/maps/contrib/113497895923388473140\">Antonio Fernandez Hernandez</a>"], "photo_reference": "AWn5SU6og0be-ROUPIWm2ye6pAG4Dkp-GF0rFg8sha4HDpKjYnvAm2xR71krySUc49mGlW0PT9TXh5oONELoD9T-uWvZXuH5JdEEdsKGX1U7FMzrANmqKcyz07au-JTkYddRPif6xmUwWaxTPxHbt8i9_7R7Ewzl0hBbJpG7LD-mpK9Mvg4OPkq6AiwEtRDg2A3kcxRFuGQnbUS7jECrTn1BqKxd-gZg2od-jL59uH_nUe6aeAUw5RAEUYZhSjt8JY4Zqd2woWaJFbCJW4pLsKptXCBHOeTNjpa7USYo5J_qDatVcKj8Pblw3K2XSgJGbugGKExHkr_bBoTBz9l6kHpojVK5k-1SyApeWs6vVmdRAehjFjQ0r9jNb0mXzcm-F79t2dmZqPLS4BGB7ykvhaKNLtas3ZsFOV4zcPcmuedhc3_i7tumf3FPJJn2pr-M2XRQqJ8vvjPNHM2rHH7J4JPc6dC8SYBTsuj7YHrcxFFero8NcyeHp0hLozf7snQjlqRkzOE_gJSmq-u3-KCTxQV0OgfreVaPMGSACx53db3TQ2dj9mpd31xm8aDw00XMqeGliamJMW-9-YSCRYM2w8uifew-QVbpwya8U9FkGpKgQOZDWourmd0AxC3OJFRP0aX5yw9I8Fj9", "width": 2250}], "place_id": "ChIJ--WBXafMQw0RhyEXOO-RAqw", "reference": "ChIJ--WBXafMQw0RhyEXOO-RAqw", "scope": "GOOGLE", "types": ["locality", "political"], "vicinity": "Algete"}]