[{"geometry": {"location": {"lat": 40.2937839, "lng": -3.3023856}, "viewport": {"northeast": {"lat": 40.30078574677538, "lng": -3.295430109221897}, "southwest": {"lat": 40.2878345703946, "lng": -3.308924896403841}}}, "icon": "https://maps.gstatic.com/mapfiles/place_api/icons/v1/png_71/geocode-71.png", "icon_background_color": "#7B9EB0", "icon_mask_base_uri": "https://maps.gstatic.com/mapfiles/place_api/icons/v2/generic_pinlet", "name": "Valdilecha", "photos": [{"height": 2448, "html_attributions": ["<a href=\"https://maps.google.com/maps/contrib/101290657350401769031\">Alberto Blázquez Bonilla</a>"], "photo_reference": "AWn5SU5r9hRq6QyIjcaAHNV0Cwbn_ssYN0F4U6cp4zgXNMUauwomqNkv-j-BAzELT2INKKB5evy94MLM542KN9uVTfK-6xGOoyIUFE_nyfUcJILVc7WzRr8uRnkrRQKtzrLm0fQ8LndTQqDlYQun6u6Q-P4Wnqv5TOtUn9YYnYS0S6BL79YSXtSqVr00gAR_UprwMjXXs0FeGnBEWFDbktbs1QhR2iJnXegbCFC8eyC-tYJfOc_9KTuICfQC4-3QPoRIeqGcq3nP6qbpPHPdT76f6zX_AYDWhu68Lf41mYoPMsSLtRQfR6iRMgDl6mEsl20Pj2Ke16kHFui4xUg61hHsRYsbIjQAJucRdWiRocm3xVb---yb8PAD8R0GqHxzQ-ufY6yl0-JIGeFN6zTG-Ka50WOId0biTtCfqxe_ipBfRCSEUL4uqy1mRcJoO5Ef7Htr2oeZrtU-CCxddXFflMR7T1hbFOJGRZpBFbx4Yi_x39Rrwx_o2ifjD7VzFBRTtSNJ1HxVWHOelhm-JmtJK28ClT25HgCiDPKwatl90v2VXkpvi6mabFxIP5pt0W-A8pnVXhZsIt8TpzcfEkX1KCUlaIfCl-lJRLLuxEekZAmTMNtM-HnOGi4n2SAQ-NodmiSK-LPGeg", "width": 3264}], "place_id": "ChIJ7x-qG1dCQg0RKRdiDnXOaKQ", "reference": "ChIJ7x-qG1dCQg0RKRdiDnXOaKQ", "scope": "GOOGLE", "types": ["locality", "political"], "vicinity": "Valdilecha"}, {"business_status": "OPERATIONAL", "geometry": {"location": {"lat": 40.2943574, "lng": -3.2994847}, "viewport": {"northeast": {"lat": 40.2957000302915, "lng": -3.298062919708498}, "southwest": {"lat": 40.29300206970851, "lng": -3.300760880291502}}}, "icon": "https://maps.gstatic.com/mapfiles/place_api/icons/v1/png_71/lodging-71.png", "icon_background_color": "#909CE1", "icon_mask_base_uri": "https://maps.gstatic.com/mapfiles/place_api/icons/v2/hotel_pinlet", "international_phone_number": "+34 918 76 10 20", "name": "Hotel Palacete De La Ochava", "opening_hours": {"open_now": false}, "photos": [{"height": 480, "html_attributions": ["<a href=\"https://maps.google.com/maps/contrib/111112888813192435417\">Hotel Palacete De La Ochava</a>"], "photo_reference": "AWn5SU69NeVwV_Ks5wYCSZTEFCb07r16lmHO6wN4YyHcXIVjzE-Uvx2C82XuPhvX5jfg7_AimCUb7XjN72aXVB6JpnVARZH_5uizI5M1x13V8kqeb2wIzqs5Nz4zGFVrCWzYsmLT35dLs4NJ8F2gHFDo43z9OhqhHiP8oGSJCsKhGTJ7a3nGGw1QI4WGyedsjDPGjoC42aU3C29oYV7apQaIRmQonGkKJu6oqQm9CPBpfx1scVLFAtoX0q-U_8ahRFYjxpoQULO0vkEhfF0IgNuaYH1r3AtqJZTwPw6Z1P8DJriJ6ExU7CLxRxesTyozFmhEczsh4gFERgE", "width": 720}], "place_id": "ChIJpUQGQFRCQg0RNdtbxwo-sxM", "plus_code": {"compound_code": "7PV2+P6 Valdilecha, Spain", "global_code": "8CGR7PV2+P6"}, "rating": 4.7, "reference": "ChIJpUQGQFRCQg0RNdtbxwo-sxM", "scope": "GOOGLE", "types": ["lodging", "point_of_interest", "establishment"], "user_ratings_total": 2087, "vicinity": "Calle Alcala, 65, Calle Miguel de Cervantes, 11, Valdilecha"}, {"business_status": "OPERATIONAL", "geometry": {"location": {"lat": 40.29180729999999, "lng": -3.2997032}, "viewport": {"northeast": {"lat": 40.2931578302915, "lng": -3.298287969708498}, "southwest": {"lat": 40.2904598697085, "lng": -3.300985930291501}}}, "icon": "https://maps.gstatic.com/mapfiles/place_api/icons/v1/png_71/generic_business-71.png", "icon_background_color": "#7B9EB0", "icon_mask_base_uri": "https://maps.gstatic.com/mapfiles/place_api/icons/v2/generic_pinlet", "international_phone_number": "+34 918 73 80 08", "name": "Agromecánica Cano S.L. - Sede Madrid", "opening_hours": {"open_now": false}, "photos": [{"height": 804, "html_attributions": ["<a href=\"https://maps.google.com/maps/contrib/110814193936363360187\">Agromecánica Cano S.L. - Sede Madrid</a>"], "photo_reference": "AWn5SU4_DXvQgCqa9XEh6IIgzxw3IA4U6FwQPcz-iK_j1wGMwKDRlM9E8du6ywlym9a5AFfY0UIOZLf8nBOTeFJaYXuTSf9dJA3oc4ynA_gIqW7pVToeS2zzhSDWCZe0Jhys9mV63naH5WxBtRwTvvlbM6aGJPWeqTgoB4WHEsaEJ7kw_wNxNdqyNl7wO34_PfFTX3UnDq1OQdH9WCO9MlVg6zkwdVnUQ7DS-VKkXUNmi2qS5a-CYUQ1F_v9tERJstcPKeMTae2yWsB2Smz1m-H4nc7fFl5Hjslnig_GZyaMzt9tB4yQpR8pX7tyxzsFXMVKa5Ar8_fR6m0", "width": 1600}], "place_id": "ChIJIeZJFlhCQg0ReIvwxf0m0W8", "plus_code": {"compound_code": "7PR2+P4 Valdilecha, Spain", "global_code": "8CGR7PR2+P4"}, "rating": 4.7, "reference": "ChIJIeZJFlhCQg0ReIvwxf0m0W8", "scope": "GOOGLE", "types": ["point_of_interest", "food", "establishment"], "user_ratings_total": 14, "vicinity": "Paseo de Carlos Mahou, 1, Valdilecha"}, {"business_status": "OPERATIONAL", "geometry": {"location": {"lat": 40.297235, "lng": -3.3006384}, "viewport": {"northeast": {"lat": 40.2985958302915, "lng": -3.299279019708497}, "southwest": {"lat": 40.2958978697085, "lng": -3.301976980291501}}}, "icon": "https://maps.gstatic.com/mapfiles/place_api/icons/v1/png_71/generic_business-71.png", "icon_background_color": "#7B9EB0", "icon_mask_base_uri": "https://maps.gstatic.com/mapfiles/place_api/icons/v2/generic_pinlet", "international_phone_number": "+34 640 03 35 48", "name": "Haritz Natural Solutions, S.L", "opening_hours": {"open_now": false}, "photos": [{"height": 3024, "html_attributions": ["<a href=\"https://maps.google.com/maps/contrib/100542176951361695270\">Cesar Arenal Maiz</a>"], "photo_reference": "AWn5SU5i93sSRp7Txa7yO8mwjMgLJtLjP5j_JQEm766MNRXpQRzn-NEds5Oprti6yIgm89LHkMsbJ19-75ujY1UTtu34Qic11pU5fFGmu0iPw1RzlyByppmtepWGEpJweaWF4KSUqo2w3vwcavoxdHnSefCc1jfWjzZnkMbUfdq1sF0sdi5Tj0SaeTXCKE1IcQsFGCc85R9kRIksMCy_86oOq6FKTnhGrkLKW4VTPtp5a3Dlnbm-UxpFw0iOj5m6vgwD0DR8ju4fnhTfqPYJpqrl5DFuGrIqwqripcHART9llBMJOK_kw85fuHmDZcDjv_5_KrRx8BX5dhuwzu-iGE_KQLKKCwj5QjzjzS-W72rl2gtp2cr_LaVge_hHphsKOVfhtj4dzsVKsW606q3TXH-jdCEIlLHoodUkW4XgHATTk7ShKCm-5WtU-nVdG1_ozz-hKSnhIgwxre3dQSgO5LtQjW1CRiFinhiY7Z2kRsgxgQYvteUfoDsNCt56K4Cqy-l2x33hEitqV809e66_9JFluGBW1n5KnRNyteKhu1hT264ykoiirhrtygOg2vtfU8PjDTkjRZIFn3QlLRMXhVNTu6RBjmb16vJhmzjwD2qqY2EVCA7YTYqfS0nj8DAsEeREn_0ssaL9", "width": 4032}], "place_id": "ChIJqxj3IqkpQg0RSQwCmIS0DHM", "plus_code": {"compound_code": "7MWX+VP Valdilecha, Spain", "global_code": "8CGR7MWX+VP"}, "rating": 5, "reference": "ChIJqxj3IqkpQg0RSQwCmIS0DHM", "scope": "GOOGLE", "types": ["general_contractor", "store", "point_of_interest", "establishment"], "user_ratings_total": 1, "vicinity": "Calle Cañada, Valdilecha"}, {"business_status": "OPERATIONAL", "geometry": {"location": {"lat": 40.29421959999999, "lng": -3.3011477}, "viewport": {"northeast": {"lat": 40.2955355302915, "lng": -3.299812619708498}, "southwest": {"lat": 40.2928375697085, "lng": -3.302510580291502}}}, "icon": "https://maps.gstatic.com/mapfiles/place_api/icons/v1/png_71/generic_business-71.png", "icon_background_color": "#7B9EB0", "icon_mask_base_uri": "https://maps.gstatic.com/mapfiles/place_api/icons/v2/generic_pinlet", "international_phone_number": "+34 918 73 86 51", "name": "Eurocaja Rural", "opening_hours": {"open_now": false}, "place_id": "ChIJvTTRDldCQg0RLm1PHNNmpx8", "plus_code": {"compound_code": "7MVX+MG Valdilecha, Spain", "global_code": "8CGR7MVX+MG"}, "rating": 3.4, "reference": "ChIJvTTRDldCQg0RLm1PHNNmpx8", "scope": "GOOGLE", "types": ["atm", "bank", "finance", "point_of_interest", "establishment"], "user_ratings_total": 5, "vicinity": "Calle Mayor, 41, Valdilecha"}, {"business_status": "OPERATIONAL", "geometry": {"location": {"lat": 40.2937333, "lng": -3.2992951}, "viewport": {"northeast": {"lat": 40.2951693302915, "lng": -3.298075519708498}, "southwest": {"lat": 40.2924713697085, "lng": -3.300773480291502}}}, "icon": "https://maps.gstatic.com/mapfiles/place_api/icons/v1/png_71/school-71.png", "icon_background_color": "#7B9EB0", "icon_mask_base_uri": "https://maps.gstatic.com/mapfiles/place_api/icons/v2/school_pinlet", "international_phone_number": "+34 918 73 84 37", "name": "CEIPSO Miguel de Cervantes", "photos": [{"height": 4000, "html_attributions": ["<a href=\"https://maps.google.com/maps/contrib/100990939460889813468\">Ana Collado Nieto</a>"], "photo_reference": "AWn5SU4qHyBat_-OsMoivNAVitUaMNeHi1i4Tw9ZIU350kawL4z97b4wf_uyzuKw6BRcDnp3n-Lzka4p4sdArinCanWEWfcwFCtQv6foi8rBCGIgFEtyZgvSGlR5YD6h1ZwMlxsTcK6F0fGHhwAyOXa9oCwjRUXs6UYqLbjLTULpRyTiEQQelcP7vMLqX5kiDgARMnovMWH0mvxzPPMLHjLtSirtXVzN5GotzMe6K2NMU5T68FQP8T_8a5CoCM8DL5B28ajCxdVgrj_PM9Z3yb23KuknRd21M6z7NnUXRg2J6F7ykD-Q_JzwLqUchDsj2ggIwGFDIhDZK9AFRYZ508qf30a6MDsAIAJ-wCvsZLnJ6B0_FfasgG_XFkwmEpVUX8B0GDEl3dfNpSK2yH6ntvVMpMNaCiFUo4mXowmCMJP6CnyHMkaB_Sz4WqeG-rNojStyDTEQ2hqKJO7CXijdkApoO6n-kAZk31SGAZNbkV4k9erxRVPvmu2gJnJU5ihZXflRy_AJ1qKu0RTtUcc_HlDT5fMBfYnHTAY3zhLXbiZdKjB5WtIx6hQbybLgRE62BTG_Ayge9tNFdqKVMPb0W41PjY-aZw2o1dXB1KvrIt4w3aeUFx2a-UoYw_8VtJ-yX9OkaZ2gIg", "width": 2250}], "place_id": "ChIJi_fUwVdCQg0RBd8egN6crq4", "plus_code": {"compound_code": "7PV2+F7 Valdilecha, Spain", "global_code": "8CGR7PV2+F7"}, "rating": 4.3, "reference": "ChIJi_fUwVdCQg0RBd8egN6crq4", "scope": "GOOGLE", "types": ["point_of_interest", "establishment"], "user_ratings_total": 20, "vicinity": "Calle Miguel de Cervantes, 4, Valdilecha"}, {"business_status": "OPERATIONAL", "geometry": {"location": {"lat": 40.2951957, "lng": -3.3033993}, "viewport": {"northeast": {"lat": 40.29654138029149, "lng": -3.302005069708498}, "southwest": {"lat": 40.29384341970849, "lng": -3.304703030291501}}}, "icon": "https://maps.gstatic.com/mapfiles/place_api/icons/v1/png_71/generic_business-71.png", "icon_background_color": "#7B9EB0", "icon_mask_base_uri": "https://maps.gstatic.com/mapfiles/place_api/icons/v2/generic_pinlet", "name": "Hogar del pensionista", "place_id": "ChIJKawC1lZCQg0RtQbTbRaEg0Q", "plus_code": {"compound_code": "7MWW+3J Valdilecha, Spain", "global_code": "8CGR7MWW+3J"}, "reference": "ChIJKawC1lZCQg0RtQbTbRaEg0Q", "scope": "GOOGLE", "types": ["point_of_interest", "establishment"], "vicinity": "Calle Fray Luis, 4, Valdilecha"}, {"business_status": "OPERATIONAL", "geometry": {"location": {"lat": 40.2943156, "lng": -3.3005925}, "viewport": {"northeast": {"lat": 40.2956742802915, "lng": -3.299227819708498}, "southwest": {"lat": 40.2929763197085, "lng": -3.301925780291502}}}, "icon": "https://maps.gstatic.com/mapfiles/place_api/icons/v1/png_71/generic_business-71.png", "icon_background_color": "#7B9EB0", "icon_mask_base_uri": "https://maps.gstatic.com/mapfiles/place_api/icons/v2/generic_pinlet", "international_phone_number": "+34 918 76 10 15", "name": "MAPFRE", "opening_hours": {"open_now": false}, "photos": [{"height": 2496, "html_attributions": ["<a href=\"https://maps.google.com/maps/contrib/104019830501851182847\">MAPFRE</a>"], "photo_reference": "AWn5SU4swhZZ_WR-JwWCCyu7dZcf8t3Nc5nK0BkGQNjav0_sOfKDoKCe1QsXE0QxNCO_S9Q0fZ0Or2gTfJB-XptBPdXAoImITbu1UokXNglDywntQuFdB7KaW7cBVGV9mItjxx0eJfNbL_5DJC_yeUHnbX0HiivkHo9o6_NB2PuchACRl3UBLz4ycIgiFMTmZd5Qns9NdmzZVf0sxHD8D6QgtcLpd1AbJZL1U4l7PaghjoBnNJu80p2PfdB62QGTTdTycFJM3W7SlluWKDxn8aO0b_LrjwCeEHY_61EAcL80QtTdVNKx4LeZpl0nNeiAGP54B4FDZ_PuVsQ", "width": 3811}], "place_id": "ChIJIxtmpVdCQg0R_TCH5ttvqC0", "plus_code": {"compound_code": "7MVX+PQ Valdilecha, Spain", "global_code": "8CGR7MVX+PQ"}, "rating": 3.7, "reference": "ChIJIxtmpVdCQg0R_TCH5ttvqC0", "scope": "GOOGLE", "types": ["insurance_agency", "accounting", "finance", "health", "point_of_interest", "establishment"], "user_ratings_total": 3, "vicinity": "Calle Alcala, 64, Valdilecha"}, {"business_status": "OPERATIONAL", "geometry": {"location": {"lat": 40.2920007, "lng": -3.3020316}, "viewport": {"northeast": {"lat": 40.2933981802915, "lng": -3.300651619708498}, "southwest": {"lat": 40.2907002197085, "lng": -3.303349580291502}}}, "icon": "https://maps.gstatic.com/mapfiles/place_api/icons/v1/png_71/generic_business-71.png", "icon_background_color": "#7B9EB0", "icon_mask_base_uri": "https://maps.gstatic.com/mapfiles/place_api/icons/v2/generic_pinlet", "international_phone_number": "+34 640 33 69 84", "name": "adrianpintor", "opening_hours": {"open_now": false}, "photos": [{"height": 2048, "html_attributions": ["<a href=\"https://maps.google.com/maps/contrib/104929494858137693383\">adrianpintor</a>"], "photo_reference": "AWn5SU7Z9BaIpeqocOEcrl6KNs6avh1YrX2a3sHxkkCqBYHkA255j0DP6ntLNukkTWd5hZY62q1xOMGUwEZycVfC4WmFYZwrX6y_SPerubnRWGnOx2xjHiVEAtK7oRzxvMxgZEO1adc4aKGQ-tUL7n4hIfdI_2V2LQmA8skgK7N062Q9sH9GFO18GRMrp-thoRFjf-AEwOHFtR6zFNziusreqEr1qxAqR1xeyLXG_5sphDKu3zTm3iScSQ-3vygw7E4XCgERxwLIqE4fBnyTh22GfqFHhDEiF46XoyDa0QhGQo7xlRcW_8rZVSGc7mpCpbGFLSkm1Gb2B0s", "width": 1152}], "place_id": "ChIJseo_3FlCQg0REnxGuR8eZTM", "plus_code": {"compound_code": "7MRX+R5 Valdilecha, Spain", "global_code": "8CGR7MRX+R5"}, "reference": "ChIJseo_3FlCQg0REnxGuR8eZTM", "scope": "GOOGLE", "types": ["general_contractor", "plumber", "electrician", "painter", "point_of_interest", "establishment"], "vicinity": "Avenida de los Toreros, 16, Valdilecha"}, {"business_status": "OPERATIONAL", "geometry": {"location": {"lat": 40.2924096, "lng": -3.302365899999999}, "viewport": {"northeast": {"lat": 40.2937425802915, "lng": -3.301040719708498}, "southwest": {"lat": 40.2910446197085, "lng": -3.303738680291502}}}, "icon": "https://maps.gstatic.com/mapfiles/place_api/icons/v1/png_71/generic_business-71.png", "icon_background_color": "#7B9EB0", "icon_mask_base_uri": "https://maps.gstatic.com/mapfiles/place_api/icons/v2/generic_pinlet", "international_phone_number": "+34 911 41 34 08", "name": "Neosoft Sistemas SL", "photos": [{"height": 717, "html_attributions": ["<a href=\"https://maps.google.com/maps/contrib/103854972751400846577\">Neosoft Sistemas SL</a>"], "photo_reference": "AWn5SU4EXJ5PC_E8FBxmLcOk_Ukk9F5DmU8fsge4heAJLD_XRGRDFkd5OFcQ1kPCsdyojN6tjyItdQjv_olDABL523UONG3CbzUJ4Kg4KEQ-bkHmHcqoy440Ij1mZVYtV7vI4hgEEGRLAC20THEnXcleAghSTvN2oPSjIre_4a2vJaua5WDOWyRc8LUiBmYWl3ufpYg55KgVOmINckuE7r-5qfsPtgNXLg-Pjs8f6xQHscje-rFAiAzU5pnlGEGTdSUKFD2TqShGYpn1kZcQn3IWpsJ_m_ipeO8Oh2R7ag1N6k6nfqFDnmP9wWRDkKKYTgb-ivp133EOEQM", "width": 1433}], "place_id": "ChIJF3EJX1dCQg0RG1ctlb9f5yI", "plus_code": {"compound_code": "7MRX+X3 Valdilecha, Spain", "global_code": "8CGR7MRX+X3"}, "rating": 4.3, "reference": "ChIJF3EJX1dCQg0RG1ctlb9f5yI", "scope": "GOOGLE", "types": ["point_of_interest", "establishment"], "user_ratings_total": 3, "vicinity": "Avenida de los Toreros, 11, Valdilecha"}, {"business_status": "OPERATIONAL", "geometry": {"location": {"lat": 40.29378389999999, "lng": -3.3023856}, "viewport": {"northeast": {"lat": 40.2951316302915, "lng": -3.301023019708498}, "southwest": {"lat": 40.2924336697085, "lng": -3.303720980291502}}}, "icon": "https://maps.gstatic.com/mapfiles/place_api/icons/v1/png_71/generic_business-71.png", "icon_background_color": "#7B9EB0", "icon_mask_base_uri": "https://maps.gstatic.com/mapfiles/place_api/icons/v2/generic_pinlet", "international_phone_number": "+34 918 71 77 35", "name": "Konex", "place_id": "ChIJAQAAQFdCQg0RDuxKgjgcAJU", "reference": "ChIJAQAAQFdCQg0RDuxKgjgcAJU", "scope": "GOOGLE", "types": ["point_of_interest", "establishment"], "vicinity": "Avenida Lomo, 0 S N, Pol Ind, Valdilecha"}, {"business_status": "OPERATIONAL", "geometry": {"location": {"lat": 40.293663, "lng": -3.3022553}, "viewport": {"northeast": {"lat": 40.2950184802915, "lng": -3.300955319708498}, "southwest": {"lat": 40.2923205197085, "lng": -3.303653280291502}}}, "icon": "https://maps.gstatic.com/mapfiles/place_api/icons/v1/png_71/lodging-71.png", "icon_background_color": "#909CE1", "icon_mask_base_uri": "https://maps.gstatic.com/mapfiles/place_api/icons/v2/hotel_pinlet", "international_phone_number": "+34 620 78 76 29", "name": "Hostal Nuria", "photos": [{"height": 3072, "html_attributions": ["<a href=\"https://maps.google.com/maps/contrib/107989158840716564164\">Antonio Jesus Gonzalez Barbero</a>"], "photo_reference": "AWn5SU7POB-wId6GyCW9OkfgyAExXAte4TsM49W6QccDA7kfkxtacr4gG3hxah_OPgfXgXYhECdQ49CAofdMSdXQmGuEluJIE4-KJe_oKyj4wXBOuKfpAVIoZyNGFtQgCrguELbe38p3ZAUeUqetpUU7FBzfThSs2Gm4Lh_GGdNeOGiRvNS0gPuKIhf89st8wabLjAyIu6diISIkUSYb0BwupLaY01SzpHS2AKtjP0VIeYuzL6uWI005kK8d6JacX0NvQEQplJCx4_7mKsHe7_NzkMrNsKKJSPUmusHPDfFFW_bQpzD4pnLc2YhzVKrmxlysz1Jw2BD5T9Bg406StCHF6L3DxWn5k51-eIAvo_RigP7ueEoKqaETlKVpGZxqnkOAuOl3QbtYWgi6wSQzYs1VFsD0cYafY9jF9evUCacSKN4FGG4z0HfOKQEhFeRj50NKJh6wkZlqe9p_TfIsaVaB0B3pR3sxu4VQzTuqiIuRs9ZvbNsrj715RCcwoXPUU3W9IrVW9STJs5ImOzaEtbD469gp7PVP93OEn1F5d187SaQNbbU12aoX4iA94D8EgbMybKlCd_7eViwQNqS0_lpSSlibpN9SkPNfICmkdN20GbrwGDPE7IyS3CkONJ9Oboqe", "width": 4080}], "place_id": "ChIJP0jNaldCQg0R3FJi_WJ-5yQ", "plus_code": {"compound_code": "7MVX+F3 Valdilecha, Spain", "global_code": "8CGR7MVX+F3"}, "rating": 4, "reference": "ChIJP0jNaldCQg0R3FJi_WJ-5yQ", "scope": "GOOGLE", "types": ["lodging", "point_of_interest", "establishment"], "user_ratings_total": 105, "vicinity": "Calle del Espejo, 25, Valdilecha"}, {"business_status": "OPERATIONAL", "geometry": {"location": {"lat": 40.29475, "lng": -3.3008413}, "viewport": {"northeast": {"lat": 40.2961142802915, "lng": -3.299415969708498}, "southwest": {"lat": 40.2934163197085, "lng": -3.302113930291502}}}, "icon": "https://maps.gstatic.com/mapfiles/place_api/icons/v1/png_71/bank-71.png", "icon_background_color": "#909CE1", "icon_mask_base_uri": "https://maps.gstatic.com/mapfiles/place_api/icons/v2/bank-intl_pinlet", "international_phone_number": "+34 600 40 40 90", "name": "CaixaBank", "opening_hours": {"open_now": false}, "photos": [{"height": 1192, "html_attributions": ["<a href=\"https://maps.google.com/maps/contrib/117050776323809932279\">CaixaBank</a>"], "photo_reference": "AWn5SU7wAeXCZmFBqZvaPkeXGXALMbDwzhH4dg2e7ZmwEx5mz5A_5Or3HihMpNx48a9K0iaGMkPs6KD9Cr1cyCAElwrmkbZqrOZ9p7Pdb-gFzM3_grHo6hZURFHxv6TipmZpzDfxVjJMrahswjElHb3TgyLArvbG_PaBc0I07iHXTZiTiy-HP8-V_lbQiIPKhWS6jtr9_4NjQ0rgwueNqXP4yN85thRLJsTkwN2qkrRaOR5iJN1o-sNkOkqNJ6So1GchTZHOXyAJ2hPrvqm8zImJNoOJGUQomQ0F54qfzzMxR4WKtyHafnXJBioS3KUOcYyCkqvA6paZ5EA", "width": 2120}], "place_id": "ChIJ5-cMrFdCQg0R2O5Xvc8nZuQ", "plus_code": {"compound_code": "7MVX+VM Valdilecha, Spain", "global_code": "8CGR7MVX+VM"}, "rating": 3, "reference": "ChIJ5-cMrFdCQg0R2O5Xvc8nZuQ", "scope": "GOOGLE", "types": ["bank", "finance", "point_of_interest", "establishment"], "user_ratings_total": 4, "vicinity": "Calle Alcala, 64, Valdilecha"}, {"business_status": "OPERATIONAL", "geometry": {"location": {"lat": 40.29310100000001, "lng": -3.300666299999999}, "viewport": {"northeast": {"lat": 40.2944488802915, "lng": -3.299361319708498}, "southwest": {"lat": 40.29175091970851, "lng": -3.302059280291502}}}, "icon": "https://maps.gstatic.com/mapfiles/place_api/icons/v1/png_71/generic_business-71.png", "icon_background_color": "#7B9EB0", "icon_mask_base_uri": "https://maps.gstatic.com/mapfiles/place_api/icons/v2/generic_pinlet", "international_phone_number": "+34 629 21 22 99", "name": "Casa Rural Lucia", "place_id": "ChIJjTXmhFdCQg0RZ6mufWg4fLo", "plus_code": {"compound_code": "7MVX+6P Valdilecha, Spain", "global_code": "8CGR7MVX+6P"}, "reference": "ChIJjTXmhFdCQg0RZ6mufWg4fLo", "scope": "GOOGLE", "types": ["point_of_interest", "establishment"], "vicinity": "Calle de la Rosa, 16, Valdilecha"}, {"business_status": "OPERATIONAL", "geometry": {"location": {"lat": 40.2933855, "lng": -3.300316}, "viewport": {"northeast": {"lat": 40.2947551802915, "lng": -3.298905719708498}, "southwest": {"lat": 40.2920572197085, "lng": -3.301603680291502}}}, "icon": "https://maps.gstatic.com/mapfiles/place_api/icons/v1/png_71/generic_business-71.png", "icon_background_color": "#7B9EB0", "icon_mask_base_uri": "https://maps.gstatic.com/mapfiles/place_api/icons/v2/generic_pinlet", "name": "Casa", "place_id": "ChIJsU0OkVdCQg0RC1ES1YbhvAo", "plus_code": {"compound_code": "7MVX+9V Valdilecha, Spain", "global_code": "8CGR7MVX+9V"}, "rating": 2.5, "reference": "ChIJsU0OkVdCQg0RC1ES1YbhvAo", "scope": "GOOGLE", "types": ["travel_agency", "point_of_interest", "establishment"], "user_ratings_total": 2, "vicinity": "Calle Alcala, 82, Valdilecha"}, {"business_status": "OPERATIONAL", "geometry": {"location": {"lat": 40.29743209999999, "lng": -3.2994571}, "viewport": {"northeast": {"lat": 40.2986315802915, "lng": -3.298177169708498}, "southwest": {"lat": 40.2959336197085, "lng": -3.300875130291502}}}, "icon": "https://maps.gstatic.com/mapfiles/place_api/icons/v1/png_71/generic_business-71.png", "icon_background_color": "#7B9EB0", "icon_mask_base_uri": "https://maps.gstatic.com/mapfiles/place_api/icons/v2/generic_pinlet", "international_phone_number": "+34 918 73 86 90", "name": "Pabellón Deportivo Cultural", "opening_hours": {"open_now": false}, "photos": [{"height": 3464, "html_attributions": ["<a href=\"https://maps.google.com/maps/contrib/105373568805157276690\">Roberto Martínez</a>"], "photo_reference": "AWn5SU7wmGIRQbTAZxfpx0-lF--19cL68oyw1F8gL3WIobh5Xos5eznFqS70i2G95hY5m0Ztr7YL3-wxtJeYJWaK5BuzfxZBlgvTszMj8R19g0crLTmEVx48lvAnvztxEQlbHpIpwL-n1dL5WfPc722N6FOFM9HwCn9CHcTdJm95xPxOLhme4yf1SGT2g3-WfvcUJ_4ClJC7ZxzXSZTNmTn4XQDWJIRq3-HcEU_YWa6ywt8iY2wDZyFU1oYtOA140AUhiu-b7PizLIrdB4kjZBP80mpOPDUh2OjC-xe0J2LVqYM-L06nlmTluoi5fBJRRgaYOZkUPws3LNNErAceuK-PmOr1bBC4vm86L30cA3o-NChIF-Ik2rmbEvV0I10a-FQ9ZoATJB1CJlbPYuob6wewhetuTyEjVjuCQWQDk66_0Oim8Mdk0SUWsM22gaizrilZaRqW3eRLd04fEy25iZsdtbXheAJKj9EjA0wqQxedk8y57q6GQdUZvyO5Fbsaa2ZF3Gyac_T99rWRknZxfK3S8YSaH_baru2jWtjA8ttKCjQkZUP9y-kehaPbQ2vz7jUgJNTXsW7w7jTnIj9eVdXZVYUjSKot0E_vVOJsMZil0JQCUDense9TnnxTeDlbRSxZlXryUg", "width": 4618}], "place_id": "ChIJ0VY5CVZCQg0Rpw6SkuaSH40", "plus_code": {"compound_code": "7PW2+X6 Valdilecha, Spain", "global_code": "8CGR7PW2+X6"}, "rating": 4, "reference": "ChIJ0VY5CVZCQg0Rpw6SkuaSH40", "scope": "GOOGLE", "types": ["point_of_interest", "establishment"], "user_ratings_total": 100, "vicinity": "Camino del Rejal, 1, Valdilecha"}, {"business_status": "OPERATIONAL", "geometry": {"location": {"lat": 40.2925316, "lng": -3.299810899999999}, "viewport": {"northeast": {"lat": 40.2938919802915, "lng": -3.298410269708497}, "southwest": {"lat": 40.2911940197085, "lng": -3.301108230291501}}}, "icon": "https://maps.gstatic.com/mapfiles/place_api/icons/v1/png_71/generic_business-71.png", "icon_background_color": "#7B9EB0", "icon_mask_base_uri": "https://maps.gstatic.com/mapfiles/place_api/icons/v2/generic_pinlet", "international_phone_number": "+34 918 73 88 07", "name": "Grupo ZH", "place_id": "ChIJSYhli1dCQg0Rrjfs1AzrJWU", "plus_code": {"compound_code": "7PV2+23 Valdilecha, Spain", "global_code": "8CGR7PV2+23"}, "reference": "ChIJSYhli1dCQg0Rrjfs1AzrJWU", "scope": "GOOGLE", "types": ["painter", "point_of_interest", "establishment"], "vicinity": "Calle Alcala, 100, Valdilecha"}, {"business_status": "CLOSED_TEMPORARILY", "geometry": {"location": {"lat": 40.3045414, "lng": -3.2952118}, "viewport": {"northeast": {"lat": 40.3057870302915, "lng": -3.293884019708499}, "southwest": {"lat": 40.30308906970851, "lng": -3.296581980291502}}}, "icon": "https://maps.gstatic.com/mapfiles/place_api/icons/v1/png_71/generic_business-71.png", "icon_background_color": "#7B9EB0", "icon_mask_base_uri": "https://maps.gstatic.com/mapfiles/place_api/icons/v2/generic_pinlet", "name": "Piscina Pública Municipal de Valdilecha.", "permanently_closed": true, "photos": [{"height": 4000, "html_attributions": ["<a href=\"https://maps.google.com/maps/contrib/104432621493123395705\">Veselka Yotkova</a>"], "photo_reference": "AWn5SU7rdOEOKzMFCzRBUouETofs4xIxNdEpJAQqehyO-Rkn65kZPfcJhifC-IEBZF99MaGWnLQV3nGPeTqcsjfAdpQMC7DTjtKrvfaFD9OUyhz-5Hjrgoq3aYk69D4lT9LZnwBPXI9hWqfK3AwxOJH3yaM5cgWHRbM5gn6CecPmsAMVc9uZ2Gq75akWCkbymS_DRfzJwph4AZLOhwnueBuLek_fapVTMNmYWqiyGVFzITeLUz-Vu6SP44yaEgdZsaJoPz8CkhTCo3Ei2johmmn6Iqg7YwyOLHruRibBQlzHzdbTUMEmmRryCGWakZurABEz5kOW89Q8D1Zj2M0RX-7maldhdjNYmFihHQtkBjADeKoPSnwZlFneCjnWjmv0ei71EZSTA08wrB_2b5wyCZEN1VDQO9wj8VqKpKN3JkBzGLzcBipGBGZ4CsUr8O3YSye7m4My0UNY9fLdcZrrsrArbNqmvCP9E_UmsYabDxpM1CkPCC45AdQG8aClf-1PB5R9qaCNFRvby4X35eKpxlDkYlD92-oWKfnp7lgz37Ok4cVucDgJkC2bag941vtIIY6nrlOaGk2pysxuWH-zVYer1eOu4X-heFX1_uZGGNyjxaabihU-W_7FkVNoQX1we1yvc8yZ9vlEezWpyui_XYOy1Q", "width": 3000}], "place_id": "ChIJA3LmuwFDQg0RFF6q7AqCxFM", "plus_code": {"compound_code": "8P33+RW Valdilecha, Spain", "global_code": "8CGR8P33+RW"}, "rating": 4.1, "reference": "ChIJA3LmuwFDQg0RFF6q7AqCxFM", "scope": "GOOGLE", "types": ["point_of_interest", "establishment"], "user_ratings_total": 81, "vicinity": "Valdilecha"}, {"business_status": "OPERATIONAL", "geometry": {"location": {"lat": 40.2854709, "lng": -3.3182032}, "viewport": {"northeast": {"lat": 40.2868207802915, "lng": -3.316801169708498}, "southwest": {"lat": 40.2841228197085, "lng": -3.319499130291502}}}, "icon": "https://maps.gstatic.com/mapfiles/place_api/icons/v1/png_71/generic_business-71.png", "icon_background_color": "#7B9EB0", "icon_mask_base_uri": "https://maps.gstatic.com/mapfiles/place_api/icons/v2/generic_pinlet", "international_phone_number": "+34 918 73 87 82", "name": "Floratex Systems", "opening_hours": {"open_now": false}, "photos": [{"height": 1600, "html_attributions": ["<a href=\"https://maps.google.com/maps/contrib/115842908638992867716\">Floratex System</a>"], "photo_reference": "AWn5SU4do8M96WwfwajkdYI909OqOASX5uHAhhMbfpw3jNaWfAsTtEfg-EayjU2cG9lMAKYR3vhp_wsWALflkhtMiqgstwHnJM05S8PPrGgg23KTDW0-puwmjxPVAdU2qFGRjtH99MAyKwy7wjS4pAxdCf70YI_yxiEGbjsFTvS2ZgLEJG3gxlFfcp_750VtTw6di7nDBHlAWbyN2LnKfj8v0MvHAJQ8cdSTrqHaj5pezp4k-pZ5YQd-HwkVV62NMKa8ho3fEFMIN4yVd-qz7RnXAYFcJaH8SWefX2Ma3SFZaSj5-eP3TCjcb-fO_2_XXOnB2lEvWq_i7zhW0IZDLPvPxvneUdiMN2AmHB9kcO6ryx0sXvhvoL1pSWKXf9alP3oJ5_E_1pGrAbzU-4tOdtDP1du6mxWjwhuIojNbl4POxmYrtsemGse9sccz9wHe2Cm3ZscSE3GnWQXuH5_FvHodidhgx7VDHrrlyWj0pOC3iso-rcKYQcFol63iBtF6rwPEZqUcKd-h-qIIwfvAgeOLF0HQTqL-TGGbqaxIY0whYYtPewFrrIhjSBSZCMZJap8d_IGkEtmiHAL5t6r5aSwy_LsyiN5crwUA0AY73IZLq3J6Hm6sBRrjxvSrZxoJfSSMlYRX2Cin", "width": 1200}], "place_id": "ChIJ0wOQokBCQg0RO4fHqQcvMfk", "plus_code": {"compound_code": "7MPJ+5P Valdilecha, Spain", "global_code": "8CGR7MPJ+5P"}, "rating": 4, "reference": "ChIJ0wOQokBCQg0RO4fHqQcvMfk", "scope": "GOOGLE", "types": ["point_of_interest", "establishment"], "user_ratings_total": 4, "vicinity": "Spain"}, {"business_status": "OPERATIONAL", "geometry": {"location": {"lat": 40.2858846, "lng": -3.3186386}, "viewport": {"northeast": {"lat": 40.28733828029149, "lng": -3.317024569708499}, "southwest": {"lat": 40.28464031970849, "lng": -3.319722530291502}}}, "icon": "https://maps.gstatic.com/mapfiles/place_api/icons/v1/png_71/generic_business-71.png", "icon_background_color": "#7B9EB0", "icon_mask_base_uri": "https://maps.gstatic.com/mapfiles/place_api/icons/v2/generic_pinlet", "international_phone_number": "+34 918 73 88 41", "name": "Comercial de Sondeos S.L.", "opening_hours": {"open_now": false}, "photos": [{"height": 3472, "html_attributions": ["<a href=\"https://maps.google.com/maps/contrib/104735444210594533362\">Comercial De Sondeos S L</a>"], "photo_reference": "AWn5SU5rWsF0TfiyVftrLwseowDWRW0CpsBG0AxS7xNGyNR5u9kZzuAhXguUY45m2kPZbF53dfxejSNdmLPbS6wT45z6a6Vt64rb2xUPEEK_IqO0F6uWGpIwtmUzB7pdGhdxtj7L3vNTMFFhaeE8XMmkMjYDOPyHQmLpksNGbfu9bcKs7Xa88BN0I4pvGCluZ46gXWkLOf3P6gDbln6948rl87G6jifPVM8XAvAsmLJaSSb-IVg-KbQHu8Y0KXAcVTiGJDqYGc4Tz1TVlf5OF56eyZ6_UK6oJ3qFz4ldOpSiIEFJ1CPQqR2KO2rXKhrB58WSULeRZLz4Rv4", "width": 5498}], "place_id": "ChIJAQAAQFdCQg0RhYyHggEwPbE", "plus_code": {"compound_code": "7MPJ+9G Valdilecha, Spain", "global_code": "8CGR7MPJ+9G"}, "rating": 3.4, "reference": "ChIJAQAAQFdCQg0RhYyHggEwPbE", "scope": "GOOGLE", "types": ["point_of_interest", "establishment"], "user_ratings_total": 34, "vicinity": "Avenida del lomo 2 ( Pol Ind, Valdilecha"}]