[{"business_status": "OPERATIONAL", "geometry": {"location": {"lat": 40.15980319999999, "lng": -3.6187729}, "viewport": {"northeast": {"lat": 40.16118653029149, "lng": -3.617493519708498}, "southwest": {"lat": 40.1584885697085, "lng": -3.620191480291502}}}, "icon": "https://maps.gstatic.com/mapfiles/place_api/icons/v1/png_71/bank-71.png", "icon_background_color": "#909CE1", "icon_mask_base_uri": "https://maps.gstatic.com/mapfiles/place_api/icons/v2/bank-intl_pinlet", "international_phone_number": "+34 918 93 05 90", "name": "BBVA", "opening_hours": {"open_now": false}, "photos": [{"height": 720, "html_attributions": ["<a href=\"https://maps.google.com/maps/contrib/100715011411011642269\">BBVA</a>"], "photo_reference": "AWn5SU73ECRM1rAr2eexkSRnRHaauPsFU9uKXu5B0Y6DvVGpgGvuhEK4E0MuLvHb2152I_-nhUJAApXl02BlZyzjhcehD5vi8Wpv-XdSKGeB5IHbNoGXRlx1SukjLOzim-AaeAE1VG9VW94l6lg4hTYCp8LOpgS6J6yViMm6Fuf04cyCNfUTyD4oJHgY6DAc2G98kPsZ6P5PhXrJlQH3be97R6kpKY9PmwAt-D-oQauI1JDM54VGrLe5zCXauRx9zxE97kfbl7tJKfPyUlIH6lHBw8B0i4h0KiEjHpfCYbsbggzoJc3tJvQyBlNKb388YSobR-Vl5p3zo4M", "width": 1280}], "place_id": "ChIJdcncZDIaQg0R6GNaYJoZYSQ", "plus_code": {"compound_code": "595J+WF Ciempozuelos, Spain", "global_code": "8CGR595J+WF"}, "rating": 2.1, "reference": "ChIJdcncZDIaQg0R6GNaYJoZYSQ", "scope": "GOOGLE", "types": ["bank", "atm", "accounting", "finance", "point_of_interest", "establishment"], "user_ratings_total": 33, "vicinity": "Calle de Jerónimo del Moral, 8, Ciempozuelos"}, {"business_status": "OPERATIONAL", "geometry": {"location": {"lat": 40.1586994, "lng": -3.6188714}, "viewport": {"northeast": {"lat": 40.1601009802915, "lng": -3.617558619708498}, "southwest": {"lat": 40.1574030197085, "lng": -3.620256580291503}}}, "icon": "https://maps.gstatic.com/mapfiles/place_api/icons/v1/png_71/bank-71.png", "icon_background_color": "#909CE1", "icon_mask_base_uri": "https://maps.gstatic.com/mapfiles/place_api/icons/v2/bank-intl_pinlet", "international_phone_number": "+34 918 93 06 16", "name": "Ibercaja Banco", "opening_hours": {"open_now": false}, "photos": [{"height": 900, "html_attributions": ["<a href=\"https://maps.google.com/maps/contrib/114840251554366083037\">Ibercaja Banco</a>"], "photo_reference": "AWn5SU4L8dcNwVFtwK6O6-q2YhPN9zMf17Pl3GDVbIykLuG-Am4sDG9HeIkthSKfENCoaFo7TQIkxFI40T1iofuQmNiZt4GZu15zJyV_dpGg6G1Q9JriHec9M4n1qleHGa09EmlhXoNvyaTRzFvODhcjyCwR6Yu9UsfKkg8s41xhaPejL0ymNQU4qPyp9iHUD6LWpGfomkfNDQO4wBNfaFLkwR38O3Waz0Xt4ZbgQ6gtVxqzmSubdSkykJnvas2Qx4AZk0SIaqYVExM0nK_SnQLcTRYlfI0QY7L-EShht9PSXjflUsGhD_Zwk4Z-A-m8XxgHU0nafQ4dUy8", "width": 1600}], "place_id": "ChIJW_oHWzIaQg0R2FiE4NRH7xk", "plus_code": {"compound_code": "595J+FF Ciempozuelos, Spain", "global_code": "8CGR595J+FF"}, "rating": 2.8, "reference": "ChIJW_oHWzIaQg0R2FiE4NRH7xk", "scope": "GOOGLE", "types": ["bank", "atm", "accounting", "finance", "point_of_interest", "establishment"], "user_ratings_total": 13, "vicinity": "Calle Mayor, 5, Ciempozuelos"}, {"business_status": "OPERATIONAL", "geometry": {"location": {"lat": 40.15925299999999, "lng": -3.6179612}, "viewport": {"northeast": {"lat": 40.1605698302915, "lng": -3.616681969708498}, "southwest": {"lat": 40.15787186970851, "lng": -3.619379930291502}}}, "icon": "https://maps.gstatic.com/mapfiles/place_api/icons/v1/png_71/bank-71.png", "icon_background_color": "#909CE1", "icon_mask_base_uri": "https://maps.gstatic.com/mapfiles/place_api/icons/v2/bank-intl_pinlet", "international_phone_number": "+34 918 93 35 76", "name": "Banco Santander", "opening_hours": {"open_now": false}, "photos": [{"height": 720, "html_attributions": ["<a href=\"https://maps.google.com/maps/contrib/102593497128903438571\">Banco Santander - Smart Red</a>"], "photo_reference": "AWn5SU4iW07-X3hVEB92TIqA1dZM-T_d38igwHCKLuDl7Kr6luoyURm9Xz4YxCM4KD5nHD8i8JWxAsTC8f7FBEw7YUhf7Yg3WTm17AienK0TEdsWTAIhXTgyo7zlezZ10Nh4GDYUcpmfySZpgeuLAuh4i6ouRchDMM5rvLWeqHTvw4_3lmeH6pt_BrMHeuivOWGDdw2ULR44_hYbmvAqepdeEwDSzoHUavHX0xes1QRxFtqUOXTf3NGt988Tj4WroFWKfzA-R7-IYb29INpCq4k_TZNxLj3bsKSS_oproSk96eCtvgOcSgCqKhV35wWX8LBC2tEw2GlORAk", "width": 1280}], "place_id": "ChIJe__yPzIaQg0Re38yl4GJYzg", "plus_code": {"compound_code": "595J+PR Ciempozuelos, Spain", "global_code": "8CGR595J+PR"}, "rating": 2.2, "reference": "ChIJe__yPzIaQg0Re38yl4GJYzg", "scope": "GOOGLE", "types": ["bank", "atm", "finance", "point_of_interest", "establishment"], "user_ratings_total": 34, "vicinity": "Plaza de Ventura Rodríguez, 16, Ciempozuelos"}, {"business_status": "OPERATIONAL", "geometry": {"location": {"lat": 40.1589336, "lng": -3.6187389}, "viewport": {"northeast": {"lat": 40.1602681802915, "lng": -3.617418669708497}, "southwest": {"lat": 40.1575702197085, "lng": -3.620116630291502}}}, "icon": "https://maps.gstatic.com/mapfiles/place_api/icons/v1/png_71/bank-71.png", "icon_background_color": "#909CE1", "icon_mask_base_uri": "https://maps.gstatic.com/mapfiles/place_api/icons/v2/bank-intl_pinlet", "international_phone_number": "+34 918 09 28 52", "name": "Banco Sabadell", "opening_hours": {"open_now": false}, "photos": [{"height": 1080, "html_attributions": ["<a href=\"https://maps.google.com/maps/contrib/109131846145920797367\">Banco Sabadell</a>"], "photo_reference": "AWn5SU6o_pBFXfweF4t4NeQOaUPiueKAcQIsQR6-7065JnA3EaT3Ra5_4S2bGWLgoHuzz_pTOEGe4Zi3HUk7BePXM_heCBloPz13EkT6nyZDd_VA7D9nA8XUIWl5q_mYZE21QPzCMrQk2Es9b030zy6qp_S5f9l2TsItXBGkJ1W7wvJbVPTP0xC-ZCPWv9TDG5Sjs1EcVBiIeMmUNNZhkuewERs9Q69a51V5WpY7PpHPTuNsPyhgMFHYgJs19GRqbc7p8qqmsL-gPtbhys7CFEb7FYZTAkkxmtQWu2OnCa8UYRe-scJMlB3ZIQ_fINfVJ_Ml_Zz7UAN1mIU", "width": 1920}], "place_id": "ChIJfZSCXDIaQg0Rf3knSFq0kIc", "plus_code": {"compound_code": "595J+HG Ciempozuelos, Spain", "global_code": "8CGR595J+HG"}, "rating": 1.6, "reference": "ChIJfZSCXDIaQg0Rf3knSFq0kIc", "scope": "GOOGLE", "types": ["bank", "atm", "accounting", "finance", "point_of_interest", "establishment"], "user_ratings_total": 27, "vicinity": "Calle Mayor, 4, Ciempozuelos"}, {"business_status": "OPERATIONAL", "geometry": {"location": {"lat": 40.159221, "lng": -3.6179734}, "viewport": {"northeast": {"lat": 40.1605701302915, "lng": -3.616685519708497}, "southwest": {"lat": 40.1578721697085, "lng": -3.619383480291502}}}, "icon": "https://maps.gstatic.com/mapfiles/place_api/icons/v1/png_71/atm-71.png", "icon_background_color": "#909CE1", "icon_mask_base_uri": "https://maps.gstatic.com/mapfiles/place_api/icons/v2/atm_pinlet", "name": "Santander ATM", "place_id": "ChIJHY0EQDIaQg0RvFuU2G1Dfbs", "plus_code": {"compound_code": "595J+MR Ciempozuelos, Spain", "global_code": "8CGR595J+MR"}, "reference": "ChIJHY0EQDIaQg0RvFuU2G1Dfbs", "scope": "GOOGLE", "types": ["atm", "finance", "point_of_interest", "establishment"], "vicinity": "Plaza de Ventura Rodríguez, 16, Ciempozuelos"}, {"business_status": "OPERATIONAL", "geometry": {"location": {"lat": 40.15872950000001, "lng": -3.6184531}, "viewport": {"northeast": {"lat": 40.16006453029151, "lng": -3.617098219708498}, "southwest": {"lat": 40.15736656970851, "lng": -3.619796180291502}}}, "icon": "https://maps.gstatic.com/mapfiles/place_api/icons/v1/png_71/atm-71.png", "icon_background_color": "#909CE1", "icon_mask_base_uri": "https://maps.gstatic.com/mapfiles/place_api/icons/v2/atm_pinlet", "international_phone_number": "+34 900 404 090", "name": "ATM CaixaBank - Cajero", "opening_hours": {"open_now": true}, "photos": [{"height": 382, "html_attributions": ["<a href=\"https://maps.google.com/maps/contrib/111754565118388675688\">ATM CaixaBank - Cajero</a>"], "photo_reference": "AWn5SU5Py3actd6unhLw6cNFtogHIya0EYqolKWBgbp0YSk4dPhlaOAuSuguZdcwUcSaPT_bZh_s6sXCFgT2dLIo-HXkY2hJZs3ykyb-OhHD5_Znoa3zApzmvcaFvSeRLHJqKIvE_MKq9Ggp1pQRKTY1LWTzbdRvODnwPxT0En6hqwlT6Txk8TVdBAKyNi8Caf5X3129htvAgaMTLfV9OmGlQ39nUiwiY8Y3AHC4etYfUjLnLtf9MivaxJ72sjoAI7aQKT6Qp5KG8L9YUB6c5dl8PmJXkJm-PtazlpTuJ0E6nI5y4UDSROCNejkBYUE7ahhpO6oaBnXmTzo", "width": 680}], "place_id": "ChIJYRx3lzQbQg0RN_bDgbGgkEY", "plus_code": {"compound_code": "595J+FJ Ciempozuelos, Spain", "global_code": "8CGR595J+FJ"}, "reference": "ChIJYRx3lzQbQg0RN_bDgbGgkEY", "scope": "GOOGLE", "types": ["atm", "finance", "point_of_interest", "establishment"], "vicinity": "Calle España, 3, Ciempozuelos"}, {"business_status": "OPERATIONAL", "geometry": {"location": {"lat": 40.159214, "lng": -3.618078299999999}, "viewport": {"northeast": {"lat": 40.1605688802915, "lng": -3.616751119708498}, "southwest": {"lat": 40.1578709197085, "lng": -3.619449080291502}}}, "icon": "https://maps.gstatic.com/mapfiles/place_api/icons/v1/png_71/generic_business-71.png", "icon_background_color": "#7B9EB0", "icon_mask_base_uri": "https://maps.gstatic.com/mapfiles/place_api/icons/v2/generic_pinlet", "international_phone_number": "+34 918 08 62 05", "name": "Eurocaja Rural", "opening_hours": {"open_now": false}, "photos": [{"height": 1134, "html_attributions": ["<a href=\"https://maps.google.com/maps/contrib/117582315036549009252\">Eurocaja Rural</a>"], "photo_reference": "AWn5SU5Lc2QHyW58QeNUOc8mRdtA7IfnzdTqrnxM-IPVmllxFkMemae6yXYD5rPo0kU9RMUSmlhBk8eV9rjn0alTh4BcD9WafP9LzKuITpokqP-1f74M-QzKm5TY3Rewlv-jXk7oecZGejV_VIBwKq4MIzNi1_ztXnvvCgHS9Tmh9OMPTmPw5Y8H28D3qMcvwaVkVuloDInIZMUJN7MV6U1QR5JfVN_WYtJau3k2vEyDcOt-znb2AfkMNw-rnWKivzFG6QChsrVYl5dBKL0gPXcVFiqEd4n5eFjaD4tYXQK8tEmqup-KuAGD7glocoeRgeqsaRLLepRb", "width": 2016}], "place_id": "ChIJ6WUvtBkbQg0RfYREL9fRjMc", "plus_code": {"compound_code": "595J+MQ Ciempozuelos, Spain", "global_code": "8CGR595J+MQ"}, "rating": 1.7, "reference": "ChIJ6WUvtBkbQg0RfYREL9fRjMc", "scope": "GOOGLE", "types": ["atm", "bank", "finance", "point_of_interest", "establishment"], "user_ratings_total": 6, "vicinity": "PZ DE LA CONSTITUCION, 14, Ciempozuelos"}, {"business_status": "OPERATIONAL", "geometry": {"location": {"lat": 40.1589336, "lng": -3.6187389}, "viewport": {"northeast": {"lat": 40.1602681802915, "lng": -3.617382669708498}, "southwest": {"lat": 40.1575702197085, "lng": -3.620080630291502}}}, "icon": "https://maps.gstatic.com/mapfiles/place_api/icons/v1/png_71/atm-71.png", "icon_background_color": "#909CE1", "icon_mask_base_uri": "https://maps.gstatic.com/mapfiles/place_api/icons/v2/atm_pinlet", "international_phone_number": "+34 902 32 30 00", "name": "Cajero automático Banco de Sabadell", "opening_hours": {"open_now": true}, "place_id": "ChIJC6gF0yAbQg0RgK4PsdNDY5c", "plus_code": {"compound_code": "595J+HG Ciempozuelos, Spain", "global_code": "8CGR595J+HG"}, "reference": "ChIJC6gF0yAbQg0RgK4PsdNDY5c", "scope": "GOOGLE", "types": ["atm", "finance", "point_of_interest", "establishment"], "vicinity": "Calle Mayor, 4, Ciempozuelos"}, {"business_status": "OPERATIONAL", "geometry": {"location": {"lat": 40.1585024, "lng": -3.6198904}, "viewport": {"northeast": {"lat": 40.1598638302915, "lng": -3.618556119708498}, "southwest": {"lat": 40.1571658697085, "lng": -3.621254080291503}}}, "icon": "https://maps.gstatic.com/mapfiles/place_api/icons/v1/png_71/atm-71.png", "icon_background_color": "#909CE1", "icon_mask_base_uri": "https://maps.gstatic.com/mapfiles/place_api/icons/v2/atm_pinlet", "name": "Punto Nickel - ESTANCO CIEMPOZUELOS 001", "opening_hours": {"open_now": false}, "place_id": "ChIJfRM_e80bQg0RQX0o2bUX4hU", "plus_code": {"compound_code": "595J+C2 Ciempozuelos, Spain", "global_code": "8CGR595J+C2"}, "reference": "ChIJfRM_e80bQg0RQX0o2bUX4hU", "scope": "GOOGLE", "types": ["atm", "bank", "finance", "point_of_interest", "establishment"], "vicinity": "Calle Mayor, 23, Ciempozuelos"}, {"business_status": "OPERATIONAL", "geometry": {"location": {"lat": 40.16007399999999, "lng": -3.619202}, "viewport": {"northeast": {"lat": 40.1614280302915, "lng": -3.617845419708498}, "southwest": {"lat": 40.1587300697085, "lng": -3.620543380291502}}}, "icon": "https://maps.gstatic.com/mapfiles/place_api/icons/v1/png_71/atm-71.png", "icon_background_color": "#909CE1", "icon_mask_base_uri": "https://maps.gstatic.com/mapfiles/place_api/icons/v2/atm_pinlet", "international_phone_number": "+34 901 21 03 00", "name": "Cajero Automático Unicaja Banco", "opening_hours": {"open_now": true}, "place_id": "ChIJVXKQfTIaQg0Rv4dYHXhmEpY", "plus_code": {"compound_code": "596J+28 Ciempozuelos, Spain", "global_code": "8CGR596J+28"}, "rating": 5, "reference": "ChIJVXKQfTIaQg0Rv4dYHXhmEpY", "scope": "GOOGLE", "types": ["atm", "finance", "point_of_interest", "establishment"], "user_ratings_total": 1, "vicinity": "Calle de Jerónimo del Moral, 11, Ciempozuelos"}, {"business_status": "OPERATIONAL", "geometry": {"location": {"lat": 40.15571010000001, "lng": -3.6236536}, "viewport": {"northeast": {"lat": 40.15700763029151, "lng": -3.622264069708498}, "southwest": {"lat": 40.15430966970851, "lng": -3.624962030291502}}}, "icon": "https://maps.gstatic.com/mapfiles/place_api/icons/v1/png_71/atm-71.png", "icon_background_color": "#909CE1", "icon_mask_base_uri": "https://maps.gstatic.com/mapfiles/place_api/icons/v2/atm_pinlet", "name": "Punto Nickel - ESTANCO CIEMPOZUELOS 003", "place_id": "ChIJExr0xKEbQg0R-qu6hlbPfpw", "plus_code": {"compound_code": "594G+7G Ciempozuelos, Spain", "global_code": "8CGR594G+7G"}, "reference": "ChIJExr0xKEbQg0R-qu6hlbPfpw", "scope": "GOOGLE", "types": ["atm", "bank", "finance", "point_of_interest", "establishment"], "vicinity": "Avenida del Consuelo, 36, Ciempozuelos"}]