[{"business_status": "OPERATIONAL", "geometry": {"location": {"lat": 40.90929489999999, "lng": -3.7377962}, "viewport": {"northeast": {"lat": 40.9106555302915, "lng": -3.736445019708498}, "southwest": {"lat": 40.9079575697085, "lng": -3.739142980291503}}}, "icon": "https://maps.gstatic.com/mapfiles/place_api/icons/v1/png_71/bus-71.png", "icon_background_color": "#10BDFF", "icon_mask_base_uri": "https://maps.gstatic.com/mapfiles/place_api/icons/v2/bus_share_taxi_pinlet", "name": "Canencia - Pza Constitucion", "photos": [{"height": 4160, "html_attributions": ["<a href=\"https://maps.google.com/maps/contrib/109861825525385482042\">Lucas Parreño Nuñez</a>"], "photo_reference": "AWn5SU4UWdYW_S1spSqOysskrahbNKb7s0PP0oSHn0ndzfzlk0MbuJgf_cTXLq2RiQKFRprElE63mf5BiwjVmNTpgbO7eW2PljTvy-cvKKAFdgNFEUcwxfk5nM6UFQ6zM79UnnuHoLq4Le_AjAIlyzX8ZG9heP7q-3I67DFJncQHE3EMniOjHUYX_vZI2SjLlBwbUKacyTn_vSWXp5OnW4rcplZpi3Yjiz01yc4u7E6fPTzzUDSXSV9XSSdyRDFPKuAcyfGmtFjoLz9XMPe1k0Ki8dYzuYr7ZCH6cCEuBzMq0lObSvsd8gxLJ1_HSr_wKLymKISm5WCRCV40wHW6eWwCezC2a9lD3ypqs8L8E0SkT-_hcj1M43dTUeKbI30iuL27S8eGNmK7e8EEathp_Q1dFQiOJe9IndoI_34ep5oaRd-16qngQtQVzY5VtolNyLC2wC6Gig9vt4Uue42Jtw3mhBngud0pXNZD4GjgxTQXOma4CvVc49qLud4qIKDsFzWpfm-JltMOJcRcc6CLtUFBMwpcuWQgvoC_lG8EQEKk86jcHeHXVkVKhkTUwQFJSevhPiralwn91O_j0SWMyzDLTmuGlPw5OQ6e1leTzJKCFQx4pdZk9GpClncApnEGPdMsQ8PCfQ", "width": 2340}], "place_id": "ChIJX7OyRBvgQw0Rmyr3IJAN4OQ", "plus_code": {"compound_code": "W756+PV Canencia, Spain", "global_code": "8CGRW756+PV"}, "rating": 4.5, "reference": "ChIJX7OyRBvgQw0Rmyr3IJAN4OQ", "scope": "GOOGLE", "types": ["bus_station", "transit_station", "point_of_interest", "establishment"], "user_ratings_total": 2, "vicinity": "Spain"}, {"business_status": "OPERATIONAL", "geometry": {"location": {"lat": 40.92141459999999, "lng": -3.6876349}, "viewport": {"northeast": {"lat": 40.92277763029149, "lng": -3.686294869708498}, "southwest": {"lat": 40.9200796697085, "lng": -3.688992830291503}}}, "icon": "https://maps.gstatic.com/mapfiles/place_api/icons/v1/png_71/bus-71.png", "icon_background_color": "#10BDFF", "icon_mask_base_uri": "https://maps.gstatic.com/mapfiles/place_api/icons/v2/bus_share_taxi_pinlet", "name": "Garganta - Callejon Real", "photos": [{"height": 3456, "html_attributions": ["<a href=\"https://maps.google.com/maps/contrib/117077742829654533774\">Paco Antequera</a>"], "photo_reference": "AWn5SU7RIMO9vkzHf9ju_Cy6UGV9d05K5wwNSoIHn5Ex5HDQGp9lzOTDRit8yf9FyRhw7RTroMPr0Wx6W2lQglp_2H75bCYk77c_euzstMR2zSjyaIegf3lIVXMMsiKuNz__Ktj4ecaG8rrCdxjGAM4NNUcY0shKzBCIeCa3MP9EEVMB_llOpGR5LR2ZtXpGDaU0d9Yybm-1-OM9A510ka35LMQkX1SBr-pINjBV95sdKxfDZOfznxxWS5DRNgd4uNXFKUb3X3yIjRi5Cw_dSY8wau10i2expTNUMrH6nQkjnBPDWyui62GbzIG9gHo8PF25IbtpwhK4pHaDHDeuEH4cbgqKqINTGPA3X3EmfOib3d-TqAhUlPYpmePv-BXX0oOEBciwRiRq1s6dkOWIFy3fnYyOpbxOJvZdKAx1wfLrxbwEDrXn-n6yi9pyRDfwQxeMzfyzS7Y2MePExR2n23X5TG0YEgEBiqpA4amp_edZ-1SQ-_9fxfcxVSBo605FqrSbeTYjt9_yx1R1YsY8y18WJ9_mlcoa3UI2JgVyALQYdj8h6Li84GH5eCWVox1EFfRBYphEYI8xkx8wqIea0lO6fYiGZJHo1x3K7gJ8726NSBDVqkCgjk2yhEB8uOydrUZfTGKt-V_c", "width": 4608}], "place_id": "ChIJWTQXYOvgQw0RNjo6sD5gfII", "plus_code": {"compound_code": "W8C6+HW Garganta de los Montes, Spain", "global_code": "8CGRW8C6+HW"}, "reference": "ChIJWTQXYOvgQw0RNjo6sD5gfII", "scope": "GOOGLE", "types": ["bus_station", "transit_station", "point_of_interest", "establishment"], "vicinity": "Spain"}, {"business_status": "OPERATIONAL", "geometry": {"location": {"lat": 40.9648695, "lng": -3.717320399999999}, "viewport": {"northeast": {"lat": 40.9662057302915, "lng": -3.715995219708498}, "southwest": {"lat": 40.96350776970851, "lng": -3.718693180291503}}}, "icon": "https://maps.gstatic.com/mapfiles/place_api/icons/v1/png_71/bus-71.png", "icon_background_color": "#10BDFF", "icon_mask_base_uri": "https://maps.gstatic.com/mapfiles/place_api/icons/v2/bus_share_taxi_pinlet", "name": "Gargantilla-Pza Carlos Ruiz", "place_id": "ChIJSeeGTpHhQw0Rez-KJW2lRA4", "plus_code": {"compound_code": "X77M+W3 Gargantilla del Lozoya, Spain", "global_code": "8CGRX77M+W3"}, "reference": "ChIJSeeGTpHhQw0Rez-KJW2lRA4", "scope": "GOOGLE", "types": ["bus_station", "transit_station", "point_of_interest", "establishment"], "vicinity": "Spain"}]