[{"geometry": {"location": {"lat": 40.3208765, "lng": -4.1987434}, "viewport": {"northeast": {"lat": 40.32692660324898, "lng": -4.190980211994662}, "southwest": {"lat": 40.31234985035402, "lng": -4.207417838778352}}}, "icon": "https://maps.gstatic.com/mapfiles/place_api/icons/v1/png_71/geocode-71.png", "icon_background_color": "#7B9EB0", "icon_mask_base_uri": "https://maps.gstatic.com/mapfiles/place_api/icons/v2/generic_pinlet", "name": "Aldea del Fresno", "photos": [{"height": 3472, "html_attributions": ["<a href=\"https://maps.google.com/maps/contrib/106412199642014872960\">Pedro Domínguez García (Konti)</a>"], "photo_reference": "AWn5SU6ETRrUn3cx_TwByf-z3yMJNPblb6rBoSuoQhqsbkFxBQ5Cl-QNF_E5ewSl3lyUG8nn-2UYIDydtnLqyHXfnZgz1SWkSt43qLVNR5uy2deslMbkH1MLMEdBfovIxI2InYX_IMp8syZHb2ZVCl8Ypsdnld66c4UZkWYl3lr-tMExpHM27e0WwGSyJeOLTt4qIogIsGVhRd16wPXbkSYW3Skf6timnhfKKfgGa8vd9vJ5rdqXZpi9WAynGZKCM8OHP1N0hvVckS8A8pxKPE7Gf-hlLCFlHvzyZ1ahu8AR5ANsUiXkamRbBc64PMTt3OLaCWvJKQ8RjOCntG1YLjrJUNgAODQEQeD1eYmhxpkFAie6A9UspQTcBsJRiGrQ8rO_GypXOF4A51PFSunEVIEAD0Yi6qgwK8A4gBnb1KUKKYoLoYqIP0yfLVgqRSw4_2QYnMXeqXW9L3FF8BWjK66JWpnXg2uUhA_vwHnYUazAGsFpHmdigHZd-mJbwS7zmZuj26bfkVzzfatWQG0w_bCP25MSPfocx39By-a6pcQhQec972C2wVGvIOeGjTDp1lViwPncrEqobem_x5R5va3tGY5f3TtzNbW6X_jK7EPwk4J5FDgEFxWVF_HeEuHS6r99GWYjGA", "width": 4640}], "place_id": "ChIJGehhwi66QQ0R4BFqRA014B8", "reference": "ChIJGehhwi66QQ0R4BFqRA014B8", "scope": "GOOGLE", "types": ["locality", "political"], "vicinity": "Aldea del Fresno"}, {"business_status": "OPERATIONAL", "geometry": {"location": {"lat": 40.41577839999999, "lng": -4.2010149}, "viewport": {"northeast": {"lat": 40.41673438029149, "lng": -4.199832719708498}, "southwest": {"lat": 40.4140364197085, "lng": -4.202530680291503}}}, "icon": "https://maps.gstatic.com/mapfiles/place_api/icons/v1/png_71/lodging-71.png", "icon_background_color": "#909CE1", "icon_mask_base_uri": "https://maps.gstatic.com/mapfiles/place_api/icons/v2/hotel_pinlet", "international_phone_number": "+34 912 79 88 34", "name": "Albus Albi Hotel y Apartamentos Rurales en Madrid", "opening_hours": {"open_now": false}, "photos": [{"height": 1536, "html_attributions": ["<a href=\"https://maps.google.com/maps/contrib/114498105779716824489\">Albus Albi Hotel y Apartamentos Rurales en Madrid</a>"], "photo_reference": "AWn5SU4kzGM1fFLKbEoiMEwrG8ea8-Anm9ZjP0oDxCepZ5A2VDOi5KXx8kryipE_mjTIHn-vvnT4YQOK5pp0mOuVy_qo3-eWCUQv2JVjTVR17ZDCVwYmNP1L5rZgmQOJZW6z8hXquliksSly2Iq3gq4-qlrFa3-pBGsedn_exxDI2mvjQjkKrWWDWlNAfe56cWCqzss0jhtTV_eJ6N1NfTdoQpBe472xGx0YNhzfUUviFhMKUIuFIS90AnTMeAkhvFU8v6Tot973xAbGUHDyQYIjb2V2vnxEiOCYXytV5ulsYIPukcIJ3Bh4jRYUVfnH8eGkIelWjIKETZY", "width": 2048}], "place_id": "ChIJhyrl3BilQQ0ROg-YpIbN-tU", "plus_code": {"compound_code": "CQ8X+8H Colmenar del Arroyo, Spain", "global_code": "8CGQCQ8X+8H"}, "rating": 4.8, "reference": "ChIJhyrl3BilQQ0ROg-YpIbN-tU", "scope": "GOOGLE", "types": ["lodging", "point_of_interest", "establishment"], "user_ratings_total": 197, "vicinity": "Calle Toledo, 1, Colmenar del Arroyo"}, {"business_status": "OPERATIONAL", "geometry": {"location": {"lat": 40.32263879999999, "lng": -4.2017959}, "viewport": {"northeast": {"lat": 40.3240471302915, "lng": -4.200399169708498}, "southwest": {"lat": 40.3213491697085, "lng": -4.203097130291502}}}, "icon": "https://maps.gstatic.com/mapfiles/place_api/icons/v1/png_71/generic_business-71.png", "icon_background_color": "#7B9EB0", "icon_mask_base_uri": "https://maps.gstatic.com/mapfiles/place_api/icons/v2/generic_pinlet", "international_phone_number": "+34 626 17 84 71", "name": "Aldea", "photos": [{"height": 2801, "html_attributions": ["<a href=\"https://maps.google.com/maps/contrib/107144783885462998284\">La Aldea</a>"], "photo_reference": "AWn5SU6ZUQ4NSrsseeOanQLIO1kOUo-peThXHW-1o8PqLZqgroRvpUIHoHvxYZS3cHNkun0HNtUJipvIseIxstsL8otsTwCsHDxitwwoXNmb0ospap-nomgCu_31eB7iyiXVJjGGJCWH-EfwWxHY9y23eqYsetiKfEAUD4BBtfN_y16pcGG3lI1Q69bKpHws71FyTeZ8_LMbZ3duBryewwYhq2dBELTJzGZCt1xOmKRSkCwgbfjRL5wLQoj3xpug5NJu9tCe5Yo7qvXaMYFbhtZ-aCm1v7rDzdiK0f4Q61cgsdCawCH7EVfvB8Kb3izZB9TMBFzmmJ1T0ZM", "width": 4772}], "place_id": "ChIJP3abkC-6QQ0RX7Lw5pQnPa4", "plus_code": {"compound_code": "8QFX+37 Aldea del Fresno, Spain", "global_code": "8CGQ8QFX+37"}, "rating": 5, "reference": "ChIJP3abkC-6QQ0RX7Lw5pQnPa4", "scope": "GOOGLE", "types": ["point_of_interest", "establishment"], "user_ratings_total": 23, "vicinity": "Travesía del Sauce, 5, Aldea del Fresno"}, {"business_status": "OPERATIONAL", "geometry": {"location": {"lat": 40.38110729999999, "lng": -4.2172822}, "viewport": {"northeast": {"lat": 40.38249608029149, "lng": -4.215939919708498}, "southwest": {"lat": 40.3797981197085, "lng": -4.218637880291503}}}, "icon": "https://maps.gstatic.com/mapfiles/place_api/icons/v1/png_71/generic_business-71.png", "icon_background_color": "#7B9EB0", "icon_mask_base_uri": "https://maps.gstatic.com/mapfiles/place_api/icons/v2/generic_pinlet", "international_phone_number": "+34 918 65 01 33", "name": "Extintores Hermanos Zoyo SL", "opening_hours": {"open_now": false}, "photos": [{"height": 2448, "html_attributions": ["<a href=\"https://maps.google.com/maps/contrib/101419470144107994701\">Extintores Hermanos Zoyo SL</a>"], "photo_reference": "AWn5SU5oMak6tY5JdKW393BPYsG3tbLrLrEUabeK0gCZd7OEvkNute8NlEGJaGNKyPcTTNX8z62xu2TGqXCe1nFQp-OWWPBXKCQp8CT6Z3yign1AlNF0O7JoOpl55F0938jVpSfCnNslLXyGgm2mHqFo47twNgzdGiYPENuFvm-mtBQSNe19xDVbgZ1awe1BkbmMZcvDI8wgSnqXqK8q4QJ1AHUta47UYO1GJ2rGArfgZ6A_AhrZzVRCQI8iqSOLMHWA3JsImkQTHAo7DJ704reZSnZCR3xfs1v09thdIlpCS5hDe2CQ6xSHN60yfVhz3DdhHuz49ZPyUpg", "width": 3264}], "place_id": "ChIJcahqEBuwQQ0RubJMxkNHhYM", "plus_code": {"compound_code": "9QJM+C3 Chapinería, Spain", "global_code": "8CGQ9QJM+C3"}, "rating": 4.3, "reference": "ChIJcahqEBuwQQ0RubJMxkNHhYM", "scope": "GOOGLE", "types": ["point_of_interest", "establishment"], "user_ratings_total": 12, "vicinity": "Avenida de los Cañales, 5, Chapinería"}, {"business_status": "OPERATIONAL", "geometry": {"location": {"lat": 40.4053175, "lng": -4.210198499999999}, "viewport": {"northeast": {"lat": 40.4067896802915, "lng": -4.208547119708498}, "southwest": {"lat": 40.4040917197085, "lng": -4.211245080291502}}}, "icon": "https://maps.gstatic.com/mapfiles/place_api/icons/v1/png_71/generic_business-71.png", "icon_background_color": "#7B9EB0", "icon_mask_base_uri": "https://maps.gstatic.com/mapfiles/place_api/icons/v2/generic_pinlet", "international_phone_number": "+34 616 01 50 04", "name": "Centro Canino entrEncinas", "opening_hours": {"open_now": false}, "photos": [{"height": 720, "html_attributions": ["<a href=\"https://maps.google.com/maps/contrib/105216054899087486470\">Centro Canino entrEncinas</a>"], "photo_reference": "AWn5SU6-ZCJdMLF5hKVwDn9ReLJJf6LsZ_1BfOwOKpK1aDDLkq2ACvDxotNZ6xkKnrATuXZQl04qEZItDnxvwItShZjWhxFQ18gctRadavvM5f5UhycXlrc2KghpVgx_tmP2b5f00hCBmj9-O2sgQNQ5YnbDiU47VcX018-5Zh3KByZEPER5DjYuYjRAzT2yVmLusp-FNctfB0uw5kiy-JmBHcnV_Usj6xiUlZsMsyMG3Ne-YoWzawp0a2TFREBje36aPLDh8OpayiQDEe2CIfNmCFfCP-tlIiuRVQiNfWpMmtKc3LUvPwcuQ3fMQ556fRrSMOIwHzJmWWg", "width": 720}], "place_id": "ChIJF5FAYDqlQQ0RnpqlGrX3O58", "plus_code": {"compound_code": "CQ4Q+4W Colmenar del Arroyo, Spain", "global_code": "8CGQCQ4Q+4W"}, "rating": 4.6, "reference": "ChIJF5FAYDqlQQ0RnpqlGrX3O58", "scope": "GOOGLE", "types": ["point_of_interest", "establishment"], "user_ratings_total": 371, "vicinity": "M-510, km. 37, 500, Colmenar del Arroyo"}, {"business_status": "OPERATIONAL", "geometry": {"location": {"lat": 40.381121, "lng": -4.2183705}, "viewport": {"northeast": {"lat": 40.3824584802915, "lng": -4.217019419708498}, "southwest": {"lat": 40.3797605197085, "lng": -4.219717380291502}}}, "icon": "https://maps.gstatic.com/mapfiles/place_api/icons/v1/png_71/generic_business-71.png", "icon_background_color": "#7B9EB0", "icon_mask_base_uri": "https://maps.gstatic.com/mapfiles/place_api/icons/v2/generic_pinlet", "international_phone_number": "+34 918 60 55 17", "name": "Armaclos S L", "opening_hours": {"open_now": false}, "place_id": "ChIJJUMhQrm6QQ0Rt3U-t61SGM0", "plus_code": {"compound_code": "9QJJ+CM Chapinería, Spain", "global_code": "8CGQ9QJJ+CM"}, "rating": 5, "reference": "ChIJJUMhQrm6QQ0Rt3U-t61SGM0", "scope": "GOOGLE", "types": ["point_of_interest", "establishment"], "user_ratings_total": 2, "vicinity": "Avenida de los Cañales, 20, Chapinería"}, {"business_status": "OPERATIONAL", "geometry": {"location": {"lat": 40.38757059999999, "lng": -4.251220899999999}, "viewport": {"northeast": {"lat": 40.38895423029149, "lng": -4.249801819708497}, "southwest": {"lat": 40.38625626970849, "lng": -4.252499780291502}}}, "icon": "https://maps.gstatic.com/mapfiles/place_api/icons/v1/png_71/generic_business-71.png", "icon_background_color": "#7B9EB0", "icon_mask_base_uri": "https://maps.gstatic.com/mapfiles/place_api/icons/v2/generic_pinlet", "international_phone_number": "+34 918 65 03 95", "name": "Residencia Navas del Rey", "opening_hours": {"open_now": true}, "photos": [{"height": 480, "html_attributions": ["<a href=\"https://maps.google.com/maps/contrib/104053259527651730033\">Residencia Navas del Rey</a>"], "photo_reference": "AWn5SU7I_UctqHzBpYwcJ3vhDl7xQHsH7CGDQwYIg5hqOGtJw7TOEcVxZpxrK44DXqklbE20fHisHL0QtpmglTIocOoiGRTvG66-bBS7c2G13AxeWxC7gi3FvzC0D_jRF5n-9x8DtvjixXsi2-BEraydkm6wzKv6q953wdUD9JVykBN7cxQuhvINuH1IZqN3Xc3afqjQ3f6RFm-_xuQTnVXucTtg_1PXaEW4PE3KQv5SfeLIKL_WCbrw55Iq65NHLPMelxcg7ibxatPn2WR-EYAcbnhm0i9kPGwMb-dEL8KbIafoQDyJXZszY6wM_i5rERGJoZjJauGlK14", "width": 640}], "place_id": "ChIJwdoOHxmwQQ0RDTDwF_X398g", "plus_code": {"compound_code": "9PQX+2G Navas del Rey, Spain", "global_code": "8CGQ9PQX+2G"}, "rating": 4.2, "reference": "ChIJwdoOHxmwQQ0RDTDwF_X398g", "scope": "GOOGLE", "types": ["health", "point_of_interest", "establishment"], "user_ratings_total": 65, "vicinity": "Calle Aparejador Pedro de Tolosa, 1, Navas del Rey"}, {"business_status": "OPERATIONAL", "geometry": {"location": {"lat": 40.3808584, "lng": -4.220901199999999}, "viewport": {"northeast": {"lat": 40.3821606802915, "lng": -4.219540519708498}, "southwest": {"lat": 40.3794627197085, "lng": -4.222238480291503}}}, "icon": "https://maps.gstatic.com/mapfiles/place_api/icons/v1/png_71/generic_business-71.png", "icon_background_color": "#7B9EB0", "icon_mask_base_uri": "https://maps.gstatic.com/mapfiles/place_api/icons/v2/generic_pinlet", "international_phone_number": "+34 918 60 55 58", "name": "Neuforma S.L Ventanas de madera", "opening_hours": {"open_now": false}, "photos": [{"height": 1536, "html_attributions": ["<a href=\"https://maps.google.com/maps/contrib/101838254408614106792\">Neuforma S.L Ventanas de madera</a>"], "photo_reference": "AWn5SU4UZh73V56Jc8Kjhna3jSrYTsg4Lor3HJAsjrVSHXcF0aHoL-WM1u6zzyKGMsbLfUBT2onONWq68bdTYjCMhzg20oX_nug-8nAXvGuNQZHb0gbfiwgUwkHrT0M29tLUOLDuOr79rsIw6Ljuz-sslEpOtTdVo24-56Bk3GHe5PBDrH5yS5imRU0p0cbcgcg5OIAxSUXdwgaF62tsMuTNJyWuRoFJiuydIn1J0vH_aaYR10vlVwkNsSR-EZ6TRJnVKo03QKb69fVGWuFhvQP7dLEvt1OsoOvOmgb7TOcI3VpcJ3wb7L0LRSDbWrQZqJw0kDY7QQAg5m8", "width": 2048}], "place_id": "ChIJ2Ubec7u6QQ0R-ZVs1w7xDtc", "plus_code": {"compound_code": "9QJH+8J Chapinería, Spain", "global_code": "8CGQ9QJH+8J"}, "rating": 5, "reference": "ChIJ2Ubec7u6QQ0R-ZVs1w7xDtc", "scope": "GOOGLE", "types": ["general_contractor", "point_of_interest", "establishment"], "user_ratings_total": 16, "vicinity": "Avenida de los Cañales, 34, Chapinería"}, {"business_status": "OPERATIONAL", "geometry": {"location": {"lat": 40.39919019999999, "lng": -4.199850899999999}, "viewport": {"northeast": {"lat": 40.40055598029149, "lng": -4.198447169708498}, "southwest": {"lat": 40.39785801970849, "lng": -4.201145130291502}}}, "icon": "https://maps.gstatic.com/mapfiles/place_api/icons/v1/png_71/shopping-71.png", "icon_background_color": "#4B96F3", "icon_mask_base_uri": "https://maps.gstatic.com/mapfiles/place_api/icons/v2/shopping_pinlet", "international_phone_number": "+34 609 20 50 36", "name": "Grupo Foto", "place_id": "ChIJJajSL4WJQQ0RvQpjoDR7Gsg", "plus_code": {"compound_code": "9RX2+M3 Chapinería, Spain", "global_code": "8CGQ9RX2+M3"}, "reference": "ChIJJajSL4WJQQ0RvQpjoDR7Gsg", "scope": "GOOGLE", "types": ["electronics_store", "home_goods_store", "store", "point_of_interest", "establishment"], "vicinity": "Calle Eucalipto, 2, Chapinería"}, {"business_status": "OPERATIONAL", "geometry": {"location": {"lat": 40.3818853, "lng": -4.2169174}, "viewport": {"northeast": {"lat": 40.3833475802915, "lng": -4.215594369708498}, "southwest": {"lat": 40.3806496197085, "lng": -4.218292330291503}}}, "icon": "https://maps.gstatic.com/mapfiles/place_api/icons/v1/png_71/shopping-71.png", "icon_background_color": "#4B96F3", "icon_mask_base_uri": "https://maps.gstatic.com/mapfiles/place_api/icons/v2/shopping_pinlet", "international_phone_number": "+34 918 54 80 84", "name": "Galpark Ibérica", "opening_hours": {"open_now": false}, "photos": [{"height": 768, "html_attributions": ["<a href=\"https://maps.google.com/maps/contrib/117142952443570834146\">Galpark Ibérica</a>"], "photo_reference": "AWn5SU6Aiiy74EZE7nnMbDDFA_zBtZLJUxCwofyXvKe4ISNo8Xox2Pn9BQAQoPYhSMZxK7cRcggXH88Y_veH5kTpuVf3mesySezVUFq85SmWE5gSHWz8v4i_KZ_BzUX3DzXD77RwNpxrKaOXfyo5hHwSL2RHx7vRWLsh4haGbZBbcV6p7US7X3ycIoH_eup4s9uA8BIKvc5WvOs2LjzYcJRJt1jcvspuYyKb70ZnS7l0qOxKp4U0g_SLN8nMFmixUqg_DQaWZAnG3yp_1BbGNvZysyAtxEMcOTIqTmXPFK-nfKMpydjYLIHjelyS3gxywAG-6r0VPwXuAk8", "width": 1024}], "place_id": "ChIJzwAzTrYMQQ0Rw2OS3YFLxSw", "plus_code": {"compound_code": "9QJM+Q6 Chapinería, Spain", "global_code": "8CGQ9QJM+Q6"}, "rating": 4.3, "reference": "ChIJzwAzTrYMQQ0Rw2OS3YFLxSw", "scope": "GOOGLE", "types": ["furniture_store", "home_goods_store", "store", "point_of_interest", "establishment"], "user_ratings_total": 13, "vicinity": "Calle Fuente de la Apretura, 13, Chapinería"}, {"business_status": "OPERATIONAL", "geometry": {"location": {"lat": 40.3849558, "lng": -4.2481352}, "viewport": {"northeast": {"lat": 40.3863026802915, "lng": -4.246738969708498}, "southwest": {"lat": 40.3836047197085, "lng": -4.249436930291503}}}, "icon": "https://maps.gstatic.com/mapfiles/place_api/icons/v1/png_71/generic_business-71.png", "icon_background_color": "#7B9EB0", "icon_mask_base_uri": "https://maps.gstatic.com/mapfiles/place_api/icons/v2/generic_pinlet", "international_phone_number": "+34 655 49 17 86", "name": "Clínica Veterinaria Huellas", "opening_hours": {"open_now": false}, "photos": [{"height": 2448, "html_attributions": ["<a href=\"https://maps.google.com/maps/contrib/116038292274854872541\">Rocio Fernández</a>"], "photo_reference": "AWn5SU4dQfZEgyvROZN8aauuPcidvu1GE1y8p2zqrjknr-GYdgUNmFcrWMDx5kjSUPQd9hrGNFPqiZLctInxLid1m0WARJ0Abj8CiumHKjRM8jCaIXLnkF11FkbfdCXOrEUdWH3lIL-6XpiZbP7PFlAzEt9GY5uN1a1VckYpbCD_mfKzZHcgQaujS7AH0y3Gqw0rDM89fleOFIDXKyKbIQO_3PfW4vgWZ3UW1TOjjvpEa1ungiYhp3d4gDuYu9Jr8S1KUzW5mDbBEg3Rg9Tiompv3_FizPbEK1mgcmhMkVVSLcFIqT1Tc7aUFEBdxnJ4bhu_stoMmoVCK7f1lrcgFT2ZUZecc0mUoHhjwqX1LTTWaFDRGmiCbPze1Vf7z9A2S7LFB6fwMA0iAV2Jb47pMbJSTNUGDgQ7h0OYa0NS50v-EuG3APST9AZlqinU4vtu5reVv1dg4X7I6nQUjKzncMZ8XAMGcpnrajWH17giy6YsnZZe0VJ_awQLzYq9HWtG8PTncAcR6RjrlxV80BefJ7XvuPdWPAN3rRFRn_CX9weeCACXkb25HhZ9cTU6kvKHO2emD2lyYaokYTgN7FnuHZfhWjphrSKx2JWZJN1spcXyiHVd_pWfqW13nAPdm2Z3twUu62Vo3A", "width": 3264}], "place_id": "ChIJz3-uOxqwQQ0R5EGwZSaqdl4", "plus_code": {"compound_code": "9QM2+XP Navas del Rey, Spain", "global_code": "8CGQ9QM2+XP"}, "rating": 4.8, "reference": "ChIJz3-uOxqwQQ0R5EGwZSaqdl4", "scope": "GOOGLE", "types": ["veterinary_care", "point_of_interest", "establishment"], "user_ratings_total": 97, "vicinity": "Avenida de Madrid, 4, Navas del Rey"}, {"business_status": "OPERATIONAL", "geometry": {"location": {"lat": 40.383895, "lng": -4.2512994}, "viewport": {"northeast": {"lat": 40.38523058029151, "lng": -4.249929069708498}, "southwest": {"lat": 40.38253261970851, "lng": -4.252627030291502}}}, "icon": "https://maps.gstatic.com/mapfiles/place_api/icons/v1/png_71/school-71.png", "icon_background_color": "#7B9EB0", "icon_mask_base_uri": "https://maps.gstatic.com/mapfiles/place_api/icons/v2/school_pinlet", "international_phone_number": "+34 619 03 21 11", "name": "Autoescuela San Martín - Navas del Rey", "opening_hours": {"open_now": false}, "place_id": "ChIJDS8SWhewQQ0RVJgmJFRPjAw", "plus_code": {"compound_code": "9PMX+HF Navas del Rey, Spain", "global_code": "8CGQ9PMX+HF"}, "rating": 4.9, "reference": "ChIJDS8SWhewQQ0RVJgmJFRPjAw", "scope": "GOOGLE", "types": ["point_of_interest", "establishment"], "user_ratings_total": 109, "vicinity": "Avenida de Madrid, 62, Navas del Rey"}, {"business_status": "OPERATIONAL", "geometry": {"location": {"lat": 40.3841341, "lng": -4.251130799999999}, "viewport": {"northeast": {"lat": 40.3854921302915, "lng": -4.249726119708497}, "southwest": {"lat": 40.3827941697085, "lng": -4.252424080291502}}}, "icon": "https://maps.gstatic.com/mapfiles/place_api/icons/v1/png_71/civic_building-71.png", "icon_background_color": "#7B9EB0", "icon_mask_base_uri": "https://maps.gstatic.com/mapfiles/place_api/icons/v2/civic-bldg_pinlet", "international_phone_number": "+34 918 65 08 70", "name": "Oficina Rural de Correos", "opening_hours": {"open_now": false}, "photos": [{"height": 3024, "html_attributions": ["<a href=\"https://maps.google.com/maps/contrib/107824108004755455711\">Anna N</a>"], "photo_reference": "AWn5SU4eKic3MwlcGVaBJUHypBPwUg_QiOCnJassYZKb6nzkOt5syfcJpc_z9kiAcs9ziZxufELhEaKefSynPxnyN670Y6ZNvaUbuhkH0VvFlQ-9XZdv2XJocN_pd5QDK55orRoGtuHs1Y3oYOB00jmwtzXTn3NH5rNyajxqOCt1gEdruLb44rAHnbrOhOUYpxUNRZ_g-K4gf6ru2WzEYZLyECNKNdnQyJwrEFZzg_ESFRpJS2dIQdRgamfZSOhQB80UVYgV6diLzt_KOy-MTNfc_4FVa1aBgYAkTQzDs_5_l0X1ZPthJbOfXZuI9WwMwcCSEEMU_KZKOSXWT-zslfSKg5adSQ1s3rPAV8479jomPZvm5x1WEIbRq5L2dDQz_YV_xC7ZFDd_sRZWHplSPE7533KjaJcKY0vIMn5Qemj1hVnAX-56Zh0dXgk4B9h7bj0rLVlR6zqKW_kOuRPac2MX9EZVRkb_IRCqLPKwcUs14C1DGSv3IKOlIXi1LwHUGEXjdHXjv-faTUHPdYF4E1be0UHUSCnh4JKYRDBbYfyx182GVKVgbwbKsefnGdceouJ_Pq65uPXjQtbZSgeaN5zY7I4bGYDe53xVX4WsakGugC4zKvI-GVKorvsYJR_14cdR", "width": 3024}], "place_id": "ChIJndoX0RmwQQ0Rj1UXwnRz0Ew", "plus_code": {"compound_code": "9PMX+MG Navas del Rey, Spain", "global_code": "8CGQ9PMX+MG"}, "rating": 2.3, "reference": "ChIJndoX0RmwQQ0Rj1UXwnRz0Ew", "scope": "GOOGLE", "types": ["post_office", "finance", "point_of_interest", "establishment"], "user_ratings_total": 17, "vicinity": "Avenida de Madrid, 56, Navas del Rey"}, {"business_status": "OPERATIONAL", "geometry": {"location": {"lat": 40.4194482, "lng": -4.1984254}, "viewport": {"northeast": {"lat": 40.4207876802915, "lng": -4.197028069708498}, "southwest": {"lat": 40.4180897197085, "lng": -4.199726030291503}}}, "icon": "https://maps.gstatic.com/mapfiles/place_api/icons/v1/png_71/civic_building-71.png", "icon_background_color": "#7B9EB0", "icon_mask_base_uri": "https://maps.gstatic.com/mapfiles/place_api/icons/v2/civic-bldg_pinlet", "international_phone_number": "+34 918 65 10 24", "name": "Consultorio Local Colmenar Del Arroyo", "opening_hours": {"open_now": false}, "photos": [{"height": 2351, "html_attributions": ["<a href=\"https://maps.google.com/maps/contrib/103644858766260406648\">Un opinante delirante</a>"], "photo_reference": "AWn5SU7JDDw3GkWFkUMdn2F1ma_N64acx3LR0I_dPWncJOK6Es9JFqNArPg5nKhMyaN_HL_jJ1_CBMSNW4Ir4e4L4-HccLxO3UbHO35dAnQVhteEz0gvGz3yhvylU_g7LGtvnyT7dRxRJKOfi2IEBzpN_3n6LcKfOyC8AZ2Ao7rdEzoHu8oIAiQ1wKmtHMTz6o3n0ut5zD-OyBtIDmOT026Ysj5A1g1-gwpZUZ0oQOI9TrCe3O-N_ORoFqMdFvzMxNlbqI74HcetxQMcWHLU4drByOcJ2L-Qa8Prrm3247iSmhewCtG1yPi_W1W_WM5i8IZDTX8sOjGn2fnNfZMVIsvzKz_Xsx2nOOSgFVFYHl3dgxDjHG4NvCofHc9yaoFAN7LXs_RSfp0VxIQjp-H3ubcmnzmUYIifLcy9kZp2p_AbjtI1Cl-B6s8DcMufsUOKzgOypI56uZWgLg6SD26i58GT0rsYjXOl0GWG1vwr7MpiMPLCE0gxF5xnczk5c_yRb8JktAtVWCaXtDlqbtHe5IrJ-5LAvif9B024ernqHtLdAptKaD_jyBnAF4DEll8AQSfSFW28TxaqoOKO6ood-sb-BIx8samb6Dtm5g_6D3bij0s2uhE833hUGQPDagTyZ6mRy-IXXQ", "width": 3887}], "place_id": "ChIJg6L83hmwQQ0RSawHpYFt4uk", "plus_code": {"compound_code": "CR92+QJ Colmenar del Arroyo, Spain", "global_code": "8CGQCR92+QJ"}, "rating": 3.4, "reference": "ChIJg6L83hmwQQ0RSawHpYFt4uk", "scope": "GOOGLE", "types": ["health", "point_of_interest", "establishment"], "user_ratings_total": 11, "vicinity": "Calle Real, 7, Colmenar del Arroyo"}, {"business_status": "OPERATIONAL", "geometry": {"location": {"lat": 40.3860327, "lng": -4.244468999999999}, "viewport": {"northeast": {"lat": 40.3873384802915, "lng": -4.243186019708499}, "southwest": {"lat": 40.3846405197085, "lng": -4.245883980291503}}}, "icon": "https://maps.gstatic.com/mapfiles/place_api/icons/v1/png_71/generic_business-71.png", "icon_background_color": "#7B9EB0", "icon_mask_base_uri": "https://maps.gstatic.com/mapfiles/place_api/icons/v2/generic_pinlet", "international_phone_number": "+34 918 65 02 56", "name": "Maydecor Núñez", "opening_hours": {"open_now": false}, "photos": [{"height": 768, "html_attributions": ["<a href=\"https://maps.google.com/maps/contrib/104683067626746567939\">Maydecor Núñez</a>"], "photo_reference": "AWn5SU50G96hi6XjT2aATjvpruWRsOFeGb7BFP2ZPt0nXcuvKK4DZ-k0FT2Qy9fjZKVog8VRljJM7pnof1C2qYrXTjGJ91EWQrhaME5Ct5acOhgkkyzMDoH-EROUTJlBjI2YRTqMym1CftrXZ_nHxlyBfVSzeZfRzC4X49p6Rh75sR31gI41cfaiX8r4UatfrMRrxXcX7l4OIIV1sohprN2HNnrnBoXKcG5xD49nsw56HUUWW_f1j_D4Bu_Zwn5sv1yfSqyDT0rvXmDqgGergoOOVIC9BAM7RFbGuYksjKJsy21EbkoDZU7Dl2ylR1pAUqdpcwDEsNqpkKw", "width": 1366}], "place_id": "ChIJE0V_R8SxQQ0RmbZJwu-whCY", "plus_code": {"compound_code": "9QP4+C6 Navas del Rey, Spain", "global_code": "8CGQ9QP4+C6"}, "rating": 4.4, "reference": "ChIJE0V_R8SxQQ0RmbZJwu-whCY", "scope": "GOOGLE", "types": ["home_goods_store", "store", "point_of_interest", "establishment"], "user_ratings_total": 55, "vicinity": "Calle de la Cañada Ajos, 4, 6, Navas del Rey"}, {"business_status": "OPERATIONAL", "geometry": {"location": {"lat": 40.4185129, "lng": -4.199547}, "viewport": {"northeast": {"lat": 40.4198081802915, "lng": -4.198123319708499}, "southwest": {"lat": 40.4171102197085, "lng": -4.200821280291503}}}, "icon": "https://maps.gstatic.com/mapfiles/place_api/icons/v1/png_71/school-71.png", "icon_background_color": "#7B9EB0", "icon_mask_base_uri": "https://maps.gstatic.com/mapfiles/place_api/icons/v2/school_pinlet", "international_phone_number": "+34 918 65 13 48", "name": "Public school San Vicente", "photos": [{"height": 3984, "html_attributions": ["<a href=\"https://maps.google.com/maps/contrib/116159096298803854095\">Antoño “El Tio Antoño” El Tío</a>"], "photo_reference": "AWn5SU4m7oIUjyrOSLUgJPZDxpMF8zNMXeIcHpW3DX-1fSz1nKHiWoUa6XVO5MeHE1RNAIv4o1bSMaxbPqZ_b058s_2s_zbfm-jq8cjwYApmLkDwsQpawUh3--3h75q3TDVyp32fc9QZuso1Fk5BXI8sOId_Y19164-FIqMF2UtiN6Zx8Rplo1fMCAnbW_NZ49HPObW4uiNYTM_OHHOFUQvAVqSsqr6Z1maQ7KXU289ur_uHp-uOcPfS6sbe9r0GhNksmEt_Ej-SxIbtTKWPTrKtGTRjWH_wHYB6cCv6H_civnUHd3d3pKjf9_HRkcWXKBupIEZhSWJUt7TsV6X8HToCD9m--nzn37WYcQXktjmKiU6HQeTFXGiY9KfucIDix6aLriA0h9PZTuPbCBoXjfITn-kc-RJFkhQ9OE3UDi8SYy8502XsQZw4lhAFtqrWd3Kufwlt8DUWTDwc2ECw8g8BraIIBnjCYKL2kLxmPn3OHK40OmBUVXriEXkreJhOlPVypBKEFwD1MpT3VPK1Sy2TmbaLqY4ZZSE8IIhRR785jY7X8UWObaDHk8AxQ9Qi8CtnR_oR80KRs2_4uQm5rXGe6OVUVusdgZTf3qXb4pq1TNo-vR6F5y7KmeyEauDMx0l25buSmg", "width": 2988}], "place_id": "ChIJW-bj_BilQQ0R6eDHGjCwLAc", "plus_code": {"compound_code": "CR92+C5 Colmenar del Arroyo, Spain", "global_code": "8CGQCR92+C5"}, "reference": "ChIJW-bj_BilQQ0R6eDHGjCwLAc", "scope": "GOOGLE", "types": ["school", "point_of_interest", "establishment"], "vicinity": "Calle de las Escuelas, Colmenar del Arroyo"}, {"business_status": "OPERATIONAL", "geometry": {"location": {"lat": 40.3801574, "lng": -4.2082166}, "viewport": {"northeast": {"lat": 40.3814697802915, "lng": -4.206883919708497}, "southwest": {"lat": 40.3787718197085, "lng": -4.209581880291502}}}, "icon": "https://maps.gstatic.com/mapfiles/place_api/icons/v1/png_71/generic_business-71.png", "icon_background_color": "#7B9EB0", "icon_mask_base_uri": "https://maps.gstatic.com/mapfiles/place_api/icons/v2/generic_pinlet", "international_phone_number": "+34 918 65 21 87", "name": "Saina E Hijos S L", "opening_hours": {"open_now": false}, "photos": [{"height": 3000, "html_attributions": ["<a href=\"https://maps.google.com/maps/contrib/110537374073773109895\">IRIS HERNANDEZ MUÑOZ</a>"], "photo_reference": "AWn5SU7FsT9dEzYiYKSKWguvvmh1oLW5ha0hD-8H7xS9NfkT_9IqQcr3XNo9MkrOPTo5o_EhWmf3clhokmcEJzw2qM-1Xxtv5dZYxLnKcmLj8DHiOTc03hK2YQJ24mukDFx6RecZmrizpvM3WjFmjiVX7Ha0-XMrPhLNuKzG4s7IJnjxUn1oZUT_W7m_sZ5_BXRGCc7rH4h2mf4D-vJsZL2Sv9mqagfGF3id9l-kPDA7xShb9DfkQCnnh7L4q7Wssf4F2kmVM8BughnA9tPKWX0B4VeJHUE3E2dZoIFxDA_M2YidbdsPA809ZvfIEFIrCZH1czi9jwbwWhQzGvCyQV8LxnrXZhaJR83ixqVevWr_0OPaDoT9AQiTpWUTgUjM9zJ-pW0QZQpg_qWEsX-rFzHAEbdw8Nb1VUMQ7R2FV5xpQEXFnwjBUOD9dq7xK92ez641gqQ9o8r5TozUpQ3Omam6Y9E1slABBO-7UlTJr13yyrJ9_CiLIiPdLuByP5IV3MkVhjNM_XS_FYXB8sEZY9IypuKB6s6Nd1JOrZH_B6mhyQtfghAu3mh395NifFIze2h_trelpEo-jYujI90_Uf_0rIuYVGnwd3EPpWPvCKpPV9dnhloqpJ2Yxyhi-c_1a7ofYx-Lug", "width": 4000}], "place_id": "ChIJpS_2TMG6QQ0RXVdJdO1AxLs", "plus_code": {"compound_code": "9QJR+3P Chapinería, Spain", "global_code": "8CGQ9QJR+3P"}, "rating": 4.2, "reference": "ChIJpS_2TMG6QQ0RXVdJdO1AxLs", "scope": "GOOGLE", "types": ["point_of_interest", "establishment"], "user_ratings_total": 12, "vicinity": "Calle del Matadero, 1, Chapinería"}, {"business_status": "OPERATIONAL", "geometry": {"location": {"lat": 40.37956579999999, "lng": -4.2192142}, "viewport": {"northeast": {"lat": 40.38095733029149, "lng": -4.217875019708498}, "southwest": {"lat": 40.37825936970849, "lng": -4.220572980291502}}}, "icon": "https://maps.gstatic.com/mapfiles/place_api/icons/v1/png_71/generic_business-71.png", "icon_background_color": "#7B9EB0", "icon_mask_base_uri": "https://maps.gstatic.com/mapfiles/place_api/icons/v2/generic_pinlet", "international_phone_number": "+34 918 65 21 86", "name": "ROTULAND", "opening_hours": {"open_now": false}, "photos": [{"height": 2654, "html_attributions": ["<a href=\"https://maps.google.com/maps/contrib/110985290954833923819\">ROTULAND</a>"], "photo_reference": "AWn5SU5Tm_PBe7oi3oFXjSyS0mYxpla1RMzDLzLfJB0peVlnJs2b-sgG2Va7Q0oOcCZToadDofsP3NoUNWMwogjepHCf9mhl-_TMl6u13RoBPEVycx81tn5fzp1x6TqRqxXTZZVyn03ki4Rs0tDNaMsbGoGQrC4b-DJ8pPsxKiv_ng4uFkx-Uae3a605RfWllZKVTCi0j2F9iuGUxyOvlCpliVhOux25Tw7bCDTx0y2h8rgg3Tta0n7DJnZKSyO3pEPAYOPXC1upJshPS4RccaFiSC8x2N6CfZ52jJ3qjNepCmvcWOLr01A8KfJXkHLVskOtgEoAPFiFChM", "width": 2271}], "place_id": "ChIJC8LXery6QQ0Ry4HDk9kjgQk", "plus_code": {"compound_code": "9QHJ+R8 Chapinería, Spain", "global_code": "8CGQ9QHJ+R8"}, "reference": "ChIJC8LXery6QQ0Ry4HDk9kjgQk", "scope": "GOOGLE", "types": ["point_of_interest", "establishment"], "vicinity": "Calle Marqués de Villanueva de la Sagra, 54, Chapinería"}, {"business_status": "OPERATIONAL", "geometry": {"location": {"lat": 40.3784536, "lng": -4.2101315}, "viewport": {"northeast": {"lat": 40.3797837802915, "lng": -4.208720669708498}, "southwest": {"lat": 40.3770858197085, "lng": -4.211418630291503}}}, "icon": "https://maps.gstatic.com/mapfiles/place_api/icons/v1/png_71/generic_business-71.png", "icon_background_color": "#7B9EB0", "icon_mask_base_uri": "https://maps.gstatic.com/mapfiles/place_api/icons/v2/generic_pinlet", "international_phone_number": "+34 918 65 24 74", "name": "DECA ASESORAMIENTO Y GESTION INTEGRAL DE EMPRESAS, S.L.", "opening_hours": {"open_now": false}, "place_id": "ChIJy3eWHMG6QQ0RPNXoEwclPg4", "plus_code": {"compound_code": "9QHQ+9W Chapinería, Spain", "global_code": "8CGQ9QHQ+9W"}, "rating": 3.4, "reference": "ChIJy3eWHMG6QQ0RPNXoEwclPg4", "scope": "GOOGLE", "types": ["finance", "point_of_interest", "establishment"], "user_ratings_total": 17, "vicinity": "Calle de Prudencio Melo, 14, Chapinería"}, {"geometry": {"location": {"lat": 40.4176079, "lng": -4.1987434}, "viewport": {"northeast": {"lat": 40.42626307663302, "lng": -4.190691957953372}, "southwest": {"lat": 40.41145113340971, "lng": -4.203427133936692}}}, "icon": "https://maps.gstatic.com/mapfiles/place_api/icons/v1/png_71/geocode-71.png", "icon_background_color": "#7B9EB0", "icon_mask_base_uri": "https://maps.gstatic.com/mapfiles/place_api/icons/v2/generic_pinlet", "name": "Colmenar del Arroyo", "photos": [{"height": 1468, "html_attributions": ["<a href=\"https://maps.google.com/maps/contrib/101321764474141234821\">ricardo fernández del Blanco</a>"], "photo_reference": "AWn5SU5SrLOldbrgqDgrJYcM5G5yUUaS1qX2NiBncMU8ypZ3qQm-L2nyMSdyNK8OQ0uJa7rkd4Tq_kyneZ6ZZ6vP4OmBlJV6H-61JQAEk1nfg8X96ccgkmQmD6JtkuJHz26-CqlM2yVi5AshWV746Q0Il7ZKjEGU1sw3FU_clNd7Ma7xfyICaQfv8t_1KTSmdu8GunhYV5RU0IxqpXfDDUWJ1dXUmL_t4PQEY62665mDQqrFJlS4Nh3dgNVgMhJt-RNI_ZHQm2cFyNkbgPDXVMsZmev1bo3wSnvz_fCBBA6t87PKJiupmEy0SQrz63zOmpsZ1KWAieXIGksHetUOPYPygx5yojFPKSlFGBLnBpGTaSNAsMLzKnYKBNecbFzSdtJFuMmrLtoWMa66fuyBIrwhnAj2YbJACXqdzVS22L_w_WjhPDxsV_-lqWCRs6Wa1piqrYKQNQhwfrKWL3Y4b19hm_qBAJPxT5TltpjTa8e4h6fHVYp0vJArchKB5rwLfbY2y0MJDnzf2bg9CgPcCdxUXzcdvR4IC7FXT4_uJzhdtACA3DdGIG30n0p_Uc_gZ1RlMHcFD3J7X0His4gpX5dCgiRv8CAzdq46-z7CVMa0MQ23CHEsDuCKFGd0hOAeYptoEOOZyw", "width": 3264}], "place_id": "ChIJTcyaBiKlQQ0RLGDHkdveVYA", "reference": "ChIJTcyaBiKlQQ0RLGDHkdveVYA", "scope": "GOOGLE", "types": ["locality", "political"], "vicinity": "Colmenar del Arroyo"}]