[{"business_status": "OPERATIONAL", "geometry": {"location": {"lat": 40.6791933, "lng": -3.6145489}, "viewport": {"northeast": {"lat": 40.6805237302915, "lng": -3.613172019708498}, "southwest": {"lat": 40.6778257697085, "lng": -3.615869980291503}}}, "icon": "https://maps.gstatic.com/mapfiles/place_api/icons/v1/png_71/bank-71.png", "icon_background_color": "#909CE1", "icon_mask_base_uri": "https://maps.gstatic.com/mapfiles/place_api/icons/v2/bank-intl_pinlet", "international_phone_number": "+34 918 41 99 38", "name": "BBVA", "opening_hours": {"open_now": false}, "photos": [{"height": 720, "html_attributions": ["<a href=\"https://maps.google.com/maps/contrib/110420338853334411475\">BBVA</a>"], "photo_reference": "AWn5SU7jH0DtHgl0x6TWVbwNxqZTKPcaor6FHkdM9IVHv2FdwrDooBSkXMU71z3yaNVKgoKMYyUj-_5uLwrxK7EBoKzj3t-OKas5vR4ciS0ggEi1eecFt3o6dt4N0LkAsg7szVau3r3iz9P1wxGW9_Sxte67CvtuOEsxQHc9Gf-lyMFi4GZn7MwxwhqRjtTABNif9lq29jXuuF3YkB_eCjNjG4owDqEOucK_T1BVLvaM47LPpuWMu54mCkGsxeqo4oyvvqWUHEI8VEvqZXOW7qJV7s6rdXb-LJjiPwP9RlASjOCMegrHuHTlebp0h9YswSVZ4Jp2ylaguIQ", "width": 1280}], "place_id": "ChIJy8XAhZjRQw0RNmyFrIestWc", "plus_code": {"compound_code": "M9HP+M5 San Agustín del Guadalix, Spain", "global_code": "8CGRM9HP+M5"}, "rating": 2.3, "reference": "ChIJy8XAhZjRQw0RNmyFrIestWc", "scope": "GOOGLE", "types": ["bank", "atm", "accounting", "finance", "point_of_interest", "establishment"], "user_ratings_total": 48, "vicinity": "Plaza de Luis Carreño, 6, San Agustín del Guadalix"}, {"business_status": "OPERATIONAL", "geometry": {"location": {"lat": 40.7333193, "lng": -3.5821084}, "viewport": {"northeast": {"lat": 40.7346805802915, "lng": -3.580825419708498}, "southwest": {"lat": 40.7319826197085, "lng": -3.583523380291502}}}, "icon": "https://maps.gstatic.com/mapfiles/place_api/icons/v1/png_71/bank-71.png", "icon_background_color": "#909CE1", "icon_mask_base_uri": "https://maps.gstatic.com/mapfiles/place_api/icons/v2/bank-intl_pinlet", "international_phone_number": "+34 689 19 48 96", "name": "BBVA - Agente Autorizado", "opening_hours": {"open_now": false}, "photos": [{"height": 720, "html_attributions": ["<a href=\"https://maps.google.com/maps/contrib/101198618227429209066\">BBVA - Agente Autorizado</a>"], "photo_reference": "AWn5SU5zZ7FEZkgBe5sK0GcFyLeQdrYG2OF5q0w8tOrj6dXlHwhDO1rlwaqguWpKfEXZaTYluJLp-Ibu-QrSp7ScVFaDywH3BxP1V3FceiduTn-QochsXPKxTgVVllvHI3gNq4owHaJ1bOLivL5sAwMKGgWlq3BdHPP0WXtTaD6jngVIOUdYuBrntnBKXr569OBAx62ZsBiP3TiXthjbJuTcSTyPhe7OKSzTgVVKEu6ChFhmtml9_I-OPUKFdrau95EvIxLRA3cWNLkKhVZ4gK9PZri1K2GOI_qS9FN7QC3Ij4BrJF2FGEWBGAQthX4RFuBptLGgE1E1FIY", "width": 1280}], "place_id": "ChIJ4_fzjQLQQw0R1nuybem8bOw", "plus_code": {"compound_code": "PCM9+85 El Molar, Spain", "global_code": "8CGRPCM9+85"}, "rating": 3.5, "reference": "ChIJ4_fzjQLQQw0R1nuybem8bOw", "scope": "GOOGLE", "types": ["bank", "atm", "finance", "point_of_interest", "establishment"], "user_ratings_total": 55, "vicinity": "Avenida de España, 12, El Molar"}, {"business_status": "OPERATIONAL", "geometry": {"location": {"lat": 40.7357197, "lng": -3.5839067}, "viewport": {"northeast": {"lat": 40.7370992802915, "lng": -3.582492319708498}, "southwest": {"lat": 40.7344013197085, "lng": -3.585190280291502}}}, "icon": "https://maps.gstatic.com/mapfiles/place_api/icons/v1/png_71/bank-71.png", "icon_background_color": "#909CE1", "icon_mask_base_uri": "https://maps.gstatic.com/mapfiles/place_api/icons/v2/bank-intl_pinlet", "international_phone_number": "+34 600 40 40 90", "name": "CaixaBank", "opening_hours": {"open_now": false}, "photos": [{"height": 1192, "html_attributions": ["<a href=\"https://maps.google.com/maps/contrib/102556765151730359990\">CaixaBank</a>"], "photo_reference": "AWn5SU5CpV4DVUeNLU7bgi3Fv6dTl18zG2Ky5vW-9HAv9WoW8btQiIPpnRQq6Q6Q7WhI8RRyRM79aYhJzrUSPtLqjq05A5U_vNvqzrG4z_NkTPE6LV2v5hMHpgDMEwG_LVkre_PcHcNzxbkiMrgb4HYcm_w2iN4Whnczc5x99TcHOvE0jXjxCur9SJWt7FSd3_qw_G1OuYCOXLBUTecma8n4XGRKv5vka-c38wBL8QgfWmsruW_9rYpad4LOlYWGgWYCC25vRSOiC6qixNGSMBMKXxEthRShwQQFIjNGwNuRvFYt_p76IZcsomRLIe5wMSE9s0Zzn79HYdA", "width": 2120}], "place_id": "ChIJqURXzQPQQw0R30D-e4-2p9M", "plus_code": {"compound_code": "PCP8+7C El Molar, Spain", "global_code": "8CGRPCP8+7C"}, "rating": 1.7, "reference": "ChIJqURXzQPQQw0R30D-e4-2p9M", "scope": "GOOGLE", "types": ["bank", "finance", "point_of_interest", "establishment"], "user_ratings_total": 37, "vicinity": "Avenida de España, 51, El Molar"}, {"business_status": "OPERATIONAL", "geometry": {"location": {"lat": 40.7343323, "lng": -3.5828623}, "viewport": {"northeast": {"lat": 40.7357105802915, "lng": -3.581447819708498}, "southwest": {"lat": 40.7330126197085, "lng": -3.584145780291502}}}, "icon": "https://maps.gstatic.com/mapfiles/place_api/icons/v1/png_71/bank-71.png", "icon_background_color": "#909CE1", "icon_mask_base_uri": "https://maps.gstatic.com/mapfiles/place_api/icons/v2/bank-intl_pinlet", "international_phone_number": "+34 914 96 56 03", "name": "Banco Santander Agentes", "opening_hours": {"open_now": false}, "photos": [{"height": 720, "html_attributions": ["<a href=\"https://maps.google.com/maps/contrib/113757570753536647625\">Banco Santander Agentes</a>"], "photo_reference": "AWn5SU7ux8zlhVLh11JfOsDLinW1PxBRjs45yPZ4sSDbkhsJBoAysR_wS3XjmpJa_LYW-rGpPo_1gncP2vUM4swXK5vG_japTmSR9Ab-5gvNQPl8cOJ07ZHMKII4998YcISZaBE053YhFFMQdbDKQL-iezAgnYd829B2PVcUSTC_1FxElwKPqL_C1oreF526smQT1mGwnw6NneKH2ADB5dfHiVfuPOWyBHbggFRG7ieXsmw_y1gsQK_EKJ-Pn-QzmUCTNnhgqhPrL4cEcC31Yn0UCNA5tnxu1f3W72pFa462cWqkOGc-MqBfC33FkB7gKgUys4_m6LVIyxM", "width": 1280}], "place_id": "ChIJF7pgXALQQw0RsxdYfvGZ1W0", "plus_code": {"compound_code": "PCM8+PV El Molar, Spain", "global_code": "8CGRPCM8+PV"}, "rating": 3, "reference": "ChIJF7pgXALQQw0RsxdYfvGZ1W0", "scope": "GOOGLE", "types": ["bank", "atm", "finance", "point_of_interest", "establishment"], "user_ratings_total": 19, "vicinity": "Avenida de España, 29, El Molar"}, {"business_status": "OPERATIONAL", "geometry": {"location": {"lat": 40.67980489999999, "lng": -3.614577700000001}, "viewport": {"northeast": {"lat": 40.68121353029149, "lng": -3.613326769708498}, "southwest": {"lat": 40.67851556970849, "lng": -3.616024730291502}}}, "icon": "https://maps.gstatic.com/mapfiles/place_api/icons/v1/png_71/bank-71.png", "icon_background_color": "#909CE1", "icon_mask_base_uri": "https://maps.gstatic.com/mapfiles/place_api/icons/v2/bank-intl_pinlet", "international_phone_number": "+34 918 48 75 70", "name": "Banco Sabadell", "opening_hours": {"open_now": false}, "photos": [{"height": 1080, "html_attributions": ["<a href=\"https://maps.google.com/maps/contrib/103801226460595630649\">Banco Sabadell</a>"], "photo_reference": "AWn5SU6qsoOXheearFlw_XldaJb1sAVANN0zxxZgYLJTKTNTpveWGdeMC1LOt5tIURb6oHt1UfYOrY7mKEidvxP6a_u9Tm1J66-Uo5TjDrkhKJS736rQXB2VVHz48ZxXcmGpaPCgspT1M8aF-MVx-CEReXWGuFEvzZYUPJCxUfC9LI0flnKyFU7JrFehCG0uDra9_Vgtg7zc8delLJUVWZN0zySv8Wes3oJ2Al_sRt4z7Sd5XdeL5wVbiJ7hJhS-Dd1kS_5Us674YUwT5Hfig_eV0ADxM8H1DWQrcipdcwtqr3sqrbtPqPEMAP9FRnEmijbNaqXz_1eykf8", "width": 1920}], "place_id": "ChIJFXaqm4snQg0RGRdMqlvRAwc", "plus_code": {"compound_code": "M9HP+W5 San Agustín del Guadalix, Spain", "global_code": "8CGRM9HP+W5"}, "rating": 2, "reference": "ChIJFXaqm4snQg0RGRdMqlvRAwc", "scope": "GOOGLE", "types": ["bank", "atm", "accounting", "finance", "point_of_interest", "establishment"], "user_ratings_total": 25, "vicinity": "Avenida de Madrid, 33, San Agustín del Guadalix"}, {"business_status": "OPERATIONAL", "geometry": {"location": {"lat": 40.67980489999999, "lng": -3.614577700000001}, "viewport": {"northeast": {"lat": 40.6812161802915, "lng": -3.613087469708498}, "southwest": {"lat": 40.6785182197085, "lng": -3.615785430291503}}}, "icon": "https://maps.gstatic.com/mapfiles/place_api/icons/v1/png_71/bank-71.png", "icon_background_color": "#909CE1", "icon_mask_base_uri": "https://maps.gstatic.com/mapfiles/place_api/icons/v2/bank-intl_pinlet", "international_phone_number": "+34 918 41 80 66", "name": "Banco Santander", "opening_hours": {"open_now": false}, "photos": [{"height": 720, "html_attributions": ["<a href=\"https://maps.google.com/maps/contrib/116262073124768146198\">Banco Santander</a>"], "photo_reference": "AWn5SU6x7QoLydaCVfDbsCwb7TSYnHYBzHEZk4-Z0U4tbn8aM84s-3Vho-7EaIYrBk_SX4R8tZZ8jZMtE9LJ72-QOVtU8CgiLV6wk-SuJ7peCwQEZWlmL7CKHhKXtthBOYB1aiXF60wj5fShquUOY5CiStzEMVEs4qm7nQNts3bjekHykDEwnDya-lTblTr3thja_qKCRZKWNzVPtUSGUpxgmdforxZcKCetLFvC-1O6HBOFGZjlAafv3zX-0116hsZZgG0hhq_E1vrEjJTLTqxhtZQrfP0ZYLVP8HQZ28-hnu7JelNjZU7DjobdL960RJNZ4EZxIpewc3g", "width": 1280}], "place_id": "ChIJ7WGSfqLRQw0RFap4paMD-pU", "plus_code": {"compound_code": "M9HP+W5 San Agustín del Guadalix, Spain", "global_code": "8CGRM9HP+W5"}, "rating": 1.6, "reference": "ChIJ7WGSfqLRQw0RFap4paMD-pU", "scope": "GOOGLE", "types": ["bank", "atm", "finance", "point_of_interest", "establishment"], "user_ratings_total": 17, "vicinity": "Avenida de Madrid, 33, San Agustín del Guadalix"}, {"business_status": "OPERATIONAL", "geometry": {"location": {"lat": 40.7437871, "lng": -3.600355}, "viewport": {"northeast": {"lat": 40.7451865302915, "lng": -3.599047069708497}, "southwest": {"lat": 40.7424885697085, "lng": -3.601745030291502}}}, "icon": "https://maps.gstatic.com/mapfiles/place_api/icons/v1/png_71/bank-71.png", "icon_background_color": "#909CE1", "icon_mask_base_uri": "https://maps.gstatic.com/mapfiles/place_api/icons/v2/bank-intl_pinlet", "international_phone_number": "+34 600 40 40 90", "name": "CaixaBank", "opening_hours": {"open_now": false}, "photos": [{"height": 1192, "html_attributions": ["<a href=\"https://maps.google.com/maps/contrib/106458908700501323750\">CaixaBank</a>"], "photo_reference": "AWn5SU4Tm_OSG9YKVV6-ur4ijvEafQeQ9f0j-jheqH7xaHA7_IPFHlpWMDAS1Wb2EtMAg6yspFf_9OJQAIMiK4wYdBtjGwfbMTdmPEcC65QnwV3uQf3Ahd6Tpi0RfcFs__FyzYM-vbUV8RS775gQwxKhfpu6_rGxkSeRvT5ppoKDY1o1OPMUMI63tYxX4Um2u2Bh4ktDS3oW8kGFPnzSv7FG9uIuM9x_Gn-obkjQ6kl31hEcGvMpU53CI_EFvopcqmV8pNSjRZ-rq2bTA3uYX8fqCe0hBBDSicIf-Kj01jQY1jHpYL5fHLDwibPgY9NWRz3_Qq_HldUr2YY", "width": 2120}], "place_id": "ChIJ8UqMFO_bQw0R8nhKLZWNmQ4", "plus_code": {"compound_code": "P9VX+GV Pedrezuela, Spain", "global_code": "8CGRP9VX+GV"}, "rating": 1.3, "reference": "ChIJ8UqMFO_bQw0R8nhKLZWNmQ4", "scope": "GOOGLE", "types": ["bank", "finance", "point_of_interest", "establishment"], "user_ratings_total": 13, "vicinity": "Paseo de la Ermita, 18, Pedrezuela"}, {"business_status": "OPERATIONAL", "geometry": {"location": {"lat": 40.76765340000001, "lng": -3.580333}, "viewport": {"northeast": {"lat": 40.7689754802915, "lng": -3.579003519708499}, "southwest": {"lat": 40.7662775197085, "lng": -3.581701480291502}}}, "icon": "https://maps.gstatic.com/mapfiles/place_api/icons/v1/png_71/bank-71.png", "icon_background_color": "#909CE1", "icon_mask_base_uri": "https://maps.gstatic.com/mapfiles/place_api/icons/v2/bank-intl_pinlet", "name": "Cajero", "place_id": "ChIJc5zGLwDFQw0RaSigIvS9ZKc", "plus_code": {"compound_code": "QC99+3V El Vellón, Spain", "global_code": "8CGRQC99+3V"}, "reference": "ChIJc5zGLwDFQw0RaSigIvS9ZKc", "scope": "GOOGLE", "types": ["bank", "finance", "point_of_interest", "establishment"], "vicinity": "Travesía de San Blas, El Vellón"}, {"business_status": "OPERATIONAL", "geometry": {"location": {"lat": 40.67972, "lng": -3.6143289}, "viewport": {"northeast": {"lat": 40.68106493029149, "lng": -3.612945269708498}, "southwest": {"lat": 40.67836696970849, "lng": -3.615643230291502}}}, "icon": "https://maps.gstatic.com/mapfiles/place_api/icons/v1/png_71/bank-71.png", "icon_background_color": "#909CE1", "icon_mask_base_uri": "https://maps.gstatic.com/mapfiles/place_api/icons/v2/bank-intl_pinlet", "international_phone_number": "+34 600 40 40 90", "name": "CaixaBank", "opening_hours": {"open_now": false}, "photos": [{"height": 1192, "html_attributions": ["<a href=\"https://maps.google.com/maps/contrib/117027597898191267549\">CaixaBank</a>"], "photo_reference": "AWn5SU7CrEnKwPzkB0saLm0SqAVyfs7Ty-ucvd6Qjws4mFCt1srd4IZ94U-H6ox4vuwg520oI7bOgRET0pKiCiER4UjB8tMvnrMiqLS1vJGKzbIuF3SIaaLcyj_MChCdfOWbW6LhWJB6Tdym5LBNhqsgz7oS7pwY-VyzEjD0KiD0KdygVSRhObD7ErwCjZHOmMl0Kbk83dwO0-kkNFXFhQ0NzqMihGIkuGJvrEMMIYtguKfBFdt8yEQnGiPW9aPT6CewX74G6NG2Wtl2DiUUO2UEe-LUgFd9GzWUX2YOtq86RXUsDWl_D1VE-3kY96mEEfDKglo4CJ1pK9s", "width": 2120}], "place_id": "ChIJTxgyCRTRQw0RN41wTSh-xVI", "plus_code": {"compound_code": "M9HP+V7 San Agustín del Guadalix, Spain", "global_code": "8CGRM9HP+V7"}, "rating": 2.2, "reference": "ChIJTxgyCRTRQw0RN41wTSh-xVI", "scope": "GOOGLE", "types": ["bank", "finance", "point_of_interest", "establishment"], "user_ratings_total": 18, "vicinity": "Avenida de Madrid, 31, San Agustín del Guadalix"}, {"business_status": "OPERATIONAL", "geometry": {"location": {"lat": 40.67980489999999, "lng": -3.614577700000001}, "viewport": {"northeast": {"lat": 40.68121353029149, "lng": -3.613326769708498}, "southwest": {"lat": 40.67851556970849, "lng": -3.616024730291502}}}, "icon": "https://maps.gstatic.com/mapfiles/place_api/icons/v1/png_71/bank-71.png", "icon_background_color": "#909CE1", "icon_mask_base_uri": "https://maps.gstatic.com/mapfiles/place_api/icons/v2/bank-intl_pinlet", "international_phone_number": "+34 918 41 96 28", "name": "Ibercaja Banco", "opening_hours": {"open_now": false}, "photos": [{"height": 900, "html_attributions": ["<a href=\"https://maps.google.com/maps/contrib/105726548190411306195\">Ibercaja Banco</a>"], "photo_reference": "AWn5SU4DZsiE410XQE2zTXbjk_NxXSLrhiqiw5Kz2XF0Pdfh66ggsi5YULskvdMdl8NZHo3uVfMARV6Gil4rwFs1dUKlZK3bga-oNi4Y3WsCkuYu6zb8682YmuKUU4AFMQo-beGOgblb1IOgHQVojKhOYvt9OvNP6m6NrTQMFLewXOgcKAFLqRZaxrBxLL-WxlmC9nhPL2oRnRQnod1DtlS0Cfb9oU2eunu23ZhfxZ6sowe8Vx-OhQ2PLy8nzo3sb5piCcdhv4NDPtgTgEMaUATilV8Vs4iV6_EksaxUV4tNkz_Uuz-3j6Y-OEHA66nYIhQ0lMyeAT9V6F8", "width": 1600}], "place_id": "ChIJ3WgsfKLRQw0RmHFZ6XGygEQ", "plus_code": {"compound_code": "M9HP+W5 San Agustín del Guadalix, Spain", "global_code": "8CGRM9HP+W5"}, "rating": 3.7, "reference": "ChIJ3WgsfKLRQw0RmHFZ6XGygEQ", "scope": "GOOGLE", "types": ["bank", "atm", "accounting", "finance", "point_of_interest", "establishment"], "user_ratings_total": 3, "vicinity": "Avenida de Madrid, 33, San Agustín del Guadalix"}, {"business_status": "OPERATIONAL", "geometry": {"location": {"lat": 40.79249139999999, "lng": -3.6011315}, "viewport": {"northeast": {"lat": 40.79396398029149, "lng": -3.599905019708497}, "southwest": {"lat": 40.7912660197085, "lng": -3.602602980291501}}}, "icon": "https://maps.gstatic.com/mapfiles/place_api/icons/v1/png_71/bank-71.png", "icon_background_color": "#909CE1", "icon_mask_base_uri": "https://maps.gstatic.com/mapfiles/place_api/icons/v2/bank-intl_pinlet", "international_phone_number": "+34 918 28 03 18", "name": "Eurocaja Rural", "opening_hours": {"open_now": false}, "place_id": "ChIJdZBWjtnbQw0Rk-FIrwIkuRM", "plus_code": {"compound_code": "Q9RX+XG Cotos de Monterrey, Spain", "global_code": "8CGRQ9RX+XG"}, "reference": "ChIJdZBWjtnbQw0Rk-FIrwIkuRM", "scope": "GOOGLE", "types": ["bank", "finance", "point_of_interest", "establishment"], "vicinity": "Venturada, Cotos de Monterrey, s/n"}]