[{"geometry": {"location": {"lat": 40.8275222, "lng": -3.5395265}, "viewport": {"northeast": {"lat": 40.83300922274203, "lng": -3.525063206269161}, "southwest": {"lat": 40.8202840062053, "lng": -3.547396081368959}}}, "icon": "https://maps.gstatic.com/mapfiles/place_api/icons/v1/png_71/geocode-71.png", "icon_background_color": "#7B9EB0", "icon_mask_base_uri": "https://maps.gstatic.com/mapfiles/place_api/icons/v2/generic_pinlet", "name": "Torrelaguna", "photos": [{"height": 4032, "html_attributions": ["<a href=\"https://maps.google.com/maps/contrib/101059091225798024861\">Pilar Cabezon Cercas</a>"], "photo_reference": "AWn5SU5LTkbrrYXFCz2tUhZiY0zou6b6KYO4qo6Obn3b1t7tYrvCF2JtHrPUaPDJ0rLhxn4rupckN3FM6jNYJE3FQkL67kZQj_--49jO9UBm5eoUPAhHhRfkvrYONxsyqCSWUDPMe5wHjnAVuD4ScclLPILKEe-QXlO1S7lNSns0qt4IlWWKyrThE3eiIDkEiSguiGny01MinCgjcXC2NEb0j4ZGaIamE_zOJfiJ9hBH4oyHO2XbOD3uxWgKKiY3qdliBz_TwcQZZR1az-1SCOzUMH-K1c2Aj2a8LV1oQUO5ZIR-YNeWm3hUpBoedc1PAZwypaUDMunY9kFqGxHB_HQrw7YCF8vU98I3XwDu4u9-3Q44w021-n5nMB846LrOw7hrgxfYB1a5bDqQpIBx5KiGussZh6NWFeScCISQoQPblTUF62vdCEBm9gY2O_1tG4rfUMCHSRKHMOaHH5KHSEaTlCAMhzCqXetNCdlXT60S0Y47SnoyHTOXGfjy8psrXnXWhEf5HG8rzuPXCq27DZ1mRRUHcSuBWBEc8lr4UCDtsAB-2YlnwMBKcwWYBs3v7tz_-nBscudAFZgWs0tvj25fMLZ02T995miZoLgDea4jKcARdnlYuSFnvm2Nt3jbdgrF", "width": 3024}], "place_id": "ChIJvbBVpIHDQw0RLf041K_ne2c", "reference": "ChIJvbBVpIHDQw0RLf041K_ne2c", "scope": "GOOGLE", "types": ["locality", "political"], "vicinity": "Torrelaguna"}, {"business_status": "OPERATIONAL", "geometry": {"location": {"lat": 40.8354098, "lng": -3.4960357}, "viewport": {"northeast": {"lat": 40.8368088802915, "lng": -3.494670619708498}, "southwest": {"lat": 40.8341109197085, "lng": -3.497368580291502}}}, "icon": "https://maps.gstatic.com/mapfiles/place_api/icons/v1/png_71/lodging-71.png", "icon_background_color": "#909CE1", "icon_mask_base_uri": "https://maps.gstatic.com/mapfiles/place_api/icons/v2/hotel_pinlet", "international_phone_number": "+34 600 88 30 82", "name": "Hotel Rural Luna Llena", "opening_hours": {"open_now": true}, "photos": [{"height": 1200, "html_attributions": ["<a href=\"https://maps.google.com/maps/contrib/100897188299746785351\">Hotel Rural Luna Llena</a>"], "photo_reference": "AWn5SU6sjANZiIY6xWK9z19KZQCLMQGi39bc39eBjJikOuUEnCo13ByxeMsJicaPFqkyNf_t8fq_nsESrB0GUiEeFJ13XK3lsUmpIcYy2H-b5wdnHN8LWZ1veAhoG2iQT-k5n9hkqc4WPer8cuWFvDtFvn-xAboVdHVi-WQYUI4d2Ye5E0Gq4nI38g3U43LgquUIQgJELw6pO_qqXc-zCDimEP96mSU1u4jfKNdHY3aWgMWDWTj7mTdF1FLEughv0vYOLTrRU3o4VXShPVW8K37Y0otxsM45GZDn9hE6ZhjgNNhBQzbHi8NpRT9TNjyFoXOdXERY6Qi9sxM", "width": 1600}], "place_id": "ChIJda1C41nBQw0R4BhiWvnw2Vw", "plus_code": {"compound_code": "RGP3+5H Torremocha de Jarama, Spain", "global_code": "8CGRRGP3+5H"}, "rating": 4.7, "reference": "ChIJda1C41nBQw0R4BhiWvnw2Vw", "scope": "GOOGLE", "types": ["lodging", "point_of_interest", "establishment"], "user_ratings_total": 187, "vicinity": "Calle Tercia, 1, Torremocha de Jarama"}, {"business_status": "OPERATIONAL", "geometry": {"location": {"lat": 40.8258942, "lng": -3.5389823}, "viewport": {"northeast": {"lat": 40.82716858029151, "lng": -3.537584719708498}, "southwest": {"lat": 40.82447061970851, "lng": -3.540282680291502}}}, "icon": "https://maps.gstatic.com/mapfiles/place_api/icons/v1/png_71/lodging-71.png", "icon_background_color": "#909CE1", "icon_mask_base_uri": "https://maps.gstatic.com/mapfiles/place_api/icons/v2/hotel_pinlet", "international_phone_number": "+34 918 43 00 03", "name": "Hotel Restaurante Posada del Camino Real", "opening_hours": {"open_now": false}, "photos": [{"height": 2136, "html_attributions": ["<a href=\"https://maps.google.com/maps/contrib/112957391923773044532\">Concha CER</a>"], "photo_reference": "AWn5SU4eufdZYykn2pJqej2t3bph7Ttuua0o3u97bRYHopBiBCj_QFh2dKvCJSz7rz3MWy402dgnz5l08paGiM6gltGc18qZR0E_iTXKVFI6bqUuQte36frZzyTMLJJkdFcDD4hMcYWk1natBX_zY_IkMVsJhlzeYlGRshV0Acqi8FE872JdYiZgAjRt6WYJdrV6arqQ6tQ5athGWBTQyYjRKlPI7NlxqLw5hUPtZkbWt3Yt46xPWYUIuXO6dRWlOKZU0scRY2vDZwJxeLOszRwt9ueZPtJeCzRgVkgRUp0KoLeyBVSID1ZVS4TfFPYIotmTAGmOWmDF1fyP1DpSdoujm_CDuj52EH47K9qUQm74Xr0sC4nOEx8m1Qai2h-PWH3dVHiJA8FgTqaBfMGbzOjeCPyqUisMvmm_hQmAdnj_OqhQYZgww4ozq1KMPZammTOZJ3N-_16meqYOg1svd6ippgtCh68vc6e1aAN_dm955Sjzjz7iVlSz-QdnaLRXQsYOQPP567AcLd5VJKcTQhn8G8_eQ9tF46ttnkpRSPCJ_6QZTQmJUBScqnS1hM4aZbb1DcafSXn8jGOPTqInZdP62TJ_3vweqQHwYtdvgDS0FdWgrC4C7_tjftRwz8t2albY", "width": 3499}], "place_id": "ChIJlaHAT4DDQw0RQDG5Iol4eH0", "plus_code": {"compound_code": "RFG6+9C Torrelaguna, Spain", "global_code": "8CGRRFG6+9C"}, "rating": 4.4, "reference": "ChIJlaHAT4DDQw0RQDG5Iol4eH0", "scope": "GOOGLE", "types": ["cafe", "spa", "restaurant", "lodging", "point_of_interest", "store", "food", "establishment"], "user_ratings_total": 360, "vicinity": "Calle de San Francisco, 6, B, Torrelaguna"}, {"business_status": "OPERATIONAL", "geometry": {"location": {"lat": 40.8273212, "lng": -3.537852499999999}, "viewport": {"northeast": {"lat": 40.8288282302915, "lng": -3.536492569708498}, "southwest": {"lat": 40.8261302697085, "lng": -3.539190530291501}}}, "icon": "https://maps.gstatic.com/mapfiles/place_api/icons/v1/png_71/lodging-71.png", "icon_background_color": "#909CE1", "icon_mask_base_uri": "https://maps.gstatic.com/mapfiles/place_api/icons/v2/hotel_pinlet", "international_phone_number": "+34 678 59 72 12", "name": "Casa SantaMarta", "opening_hours": {"open_now": false}, "place_id": "ChIJ8dIdDIHDQw0R4pHOeDKEqIc", "plus_code": {"compound_code": "RFG6+WV Torrelaguna, Spain", "global_code": "8CGRRFG6+WV"}, "rating": 2.3, "reference": "ChIJ8dIdDIHDQw0R4pHOeDKEqIc", "scope": "GOOGLE", "types": ["grocery_or_supermarket", "lodging", "point_of_interest", "store", "food", "establishment"], "user_ratings_total": 3, "vicinity": "Calle del Cardenal Cisneros, 6, Torrelaguna"}, {"business_status": "OPERATIONAL", "geometry": {"location": {"lat": 40.8271391, "lng": -3.5393409}, "viewport": {"northeast": {"lat": 40.8285506802915, "lng": -3.537893219708498}, "southwest": {"lat": 40.82585271970851, "lng": -3.540591180291502}}}, "icon": "https://maps.gstatic.com/mapfiles/place_api/icons/v1/png_71/generic_business-71.png", "icon_background_color": "#7B9EB0", "icon_mask_base_uri": "https://maps.gstatic.com/mapfiles/place_api/icons/v2/generic_pinlet", "international_phone_number": "+34 640 03 73 83", "name": "ELECTRICIDAD NORTE", "opening_hours": {"open_now": false}, "photos": [{"height": 1600, "html_attributions": ["<a href=\"https://maps.google.com/maps/contrib/104881790067982286345\">ELECTRICIDAD NORTE</a>"], "photo_reference": "AWn5SU7_RF6OU-WMgju72-uVu0c-BHoBvrvRd4PDGd2DYWZ9Wfyv-m2BCOL-MrcgKgVT_xn9ZM8qD4_xrjTIEefw3-1Bh8WjrcH0Npb3oWylzJfjv9ER2Fu1F4_WzdIam6gu1ackEMxeDtfqUyZekqqDYdrgK6xNfkabkImXhDvowoz-HQx90wOjyiStDs583FDwonVTq9qpuUCE8OI_e27V27HOiFi2_VsSGQbXQJDmINCjm5ju2ORDvlLw5gVdF5hFYjhJkif33M4M-BSP7RdHTHkW7UG0j8Q1axd5f3QRnv8HWjKYKy3WjiOcpspJElRNnlrtXzElsGM", "width": 720}], "place_id": "ChIJf46Zl37EQw0R1kvzwyknrOc", "plus_code": {"compound_code": "RFG6+V7 Torrelaguna, Spain", "global_code": "8CGRRFG6+V7"}, "rating": 4.2, "reference": "ChIJf46Zl37EQw0R1kvzwyknrOc", "scope": "GOOGLE", "types": ["electrician", "point_of_interest", "establishment"], "user_ratings_total": 17, "vicinity": "Plaza de Montalbán, 10, Torrelaguna"}, {"business_status": "OPERATIONAL", "geometry": {"location": {"lat": 40.8257565, "lng": -3.537457599999999}, "viewport": {"northeast": {"lat": 40.8271072802915, "lng": -3.536094469708498}, "southwest": {"lat": 40.8244093197085, "lng": -3.538792430291502}}}, "icon": "https://maps.gstatic.com/mapfiles/place_api/icons/v1/png_71/generic_business-71.png", "icon_background_color": "#7B9EB0", "icon_mask_base_uri": "https://maps.gstatic.com/mapfiles/place_api/icons/v2/generic_pinlet", "international_phone_number": "+34 639 70 90 71", "name": "Docalux SL", "place_id": "ChIJPz4KZ3_EQw0RnXvpG5rWiNQ", "plus_code": {"compound_code": "RFG7+82 Torrelaguna, Spain", "global_code": "8CGRRFG7+82"}, "reference": "ChIJPz4KZ3_EQw0RnXvpG5rWiNQ", "scope": "GOOGLE", "types": ["electrician", "point_of_interest", "establishment"], "vicinity": "Calle de Fray José de Almonacid, 8, Torrelaguna"}, {"business_status": "OPERATIONAL", "geometry": {"location": {"lat": 40.82515969999999, "lng": -3.5371215}, "viewport": {"northeast": {"lat": 40.8265073802915, "lng": -3.535819219708499}, "southwest": {"lat": 40.8238094197085, "lng": -3.538517180291503}}}, "icon": "https://maps.gstatic.com/mapfiles/place_api/icons/v1/png_71/school-71.png", "icon_background_color": "#7B9EB0", "icon_mask_base_uri": "https://maps.gstatic.com/mapfiles/place_api/icons/v2/school_pinlet", "international_phone_number": "+34 918 43 04 43", "name": "Colegio Público Cardenal Cisneros", "photos": [{"height": 2592, "html_attributions": ["<a href=\"https://maps.google.com/maps/contrib/102804404598671278295\">Jesús Lastra Martínez</a>"], "photo_reference": "AWn5SU4es6x54mRxIwo51F8u0BELCRY717RfRwxxctj0umYRlGViqXGue0oORqOQtqikp6vgN4lSLgySJqEX0GzmoXxDs3iBNJF5OGWTwGcJN_8GqniSQJm1aVjSvqI6a4NmeNMSW8a0WgL0KbxjGi159x8c8k64qccj6pLNGMbzmqXpLG8wuIFc4gqN-ZD1n9gLdb5-QXVTk-8VmBCjcFkfHJU-nz_fKVSGlAhVrJDD6FtQNChJCjVCcZ3npGCBCJAKc1B82TeOH3ux2LeeUvG_zkr88CgrFSTpCmZGji49c1yWYoU1Zh5QSTB0sYl3vQ8p9P4mGgIX2qEQTNLt1R2FNLmFmq84vpPJn6lEUigA-N_3XxC9DrVcUPaaYzXJweQIvhRPBii3L21TDVJTO6wUBXVpzUBdO9w8lOiBfJmI0tJOG6cU0vuZq-rUE7EfXbu8NmGonOuOXMZ58D_bQfepHFmIOp07u49HFNIn65ZKGa3VaeBGcLVFK25Hmy2146cTZ2_g9KXz0IeRp-4Qka50a9iW5WU9YAEcNYQAsAct99FDPrDDrMUAS6EBbiqI9Kjs9O4PWNFq_ay3f7M5-GK4rUIUCaRJ_MCTTn6IxbqN5K77ac9imD-U9rx8VnDXlTsDSD6_Ww", "width": 4608}], "place_id": "ChIJbf_9aX_EQw0RTE4MsPp65Ww", "plus_code": {"compound_code": "RFG7+35 Torrelaguna, Spain", "global_code": "8CGRRFG7+35"}, "reference": "ChIJbf_9aX_EQw0RTE4MsPp65Ww", "scope": "GOOGLE", "types": ["school", "point_of_interest", "establishment"], "vicinity": "Calle de Fray José de Almonacid, 13, Torrelaguna"}, {"business_status": "OPERATIONAL", "geometry": {"location": {"lat": 40.82733999999999, "lng": -3.537896999999999}, "viewport": {"northeast": {"lat": 40.8288234302915, "lng": -3.536568769708499}, "southwest": {"lat": 40.8261254697085, "lng": -3.539266730291502}}}, "icon": "https://maps.gstatic.com/mapfiles/place_api/icons/v1/png_71/shopping-71.png", "icon_background_color": "#4B96F3", "icon_mask_base_uri": "https://maps.gstatic.com/mapfiles/place_api/icons/v2/shopping_pinlet", "international_phone_number": "+34 918 43 08 41", "name": "HERBOLARIO TORRENATURA y ECOTIENDA (Productos Ecológicos)", "opening_hours": {"open_now": false}, "photos": [{"height": 1920, "html_attributions": ["<a href=\"https://maps.google.com/maps/contrib/117604141543554586346\">Ansel García</a>"], "photo_reference": "AWn5SU7IN74-cSsNDPfTJEtC-mi75L8oroy5eTrbgUDm5CHqvUFwryOaSR2N-G7c9haGUyyrG6Dw1kS6RsCHgBSBcvH2QuSultR5nPEqojDtVD7O7RZi28nNQUXJbCK3a4FGbXvqy4fgxxifzEoVuYI-KizYRR1AdVnya_YtqIep-0jlmHhbAQfIPLOGDRGUnYCW9vldwAztIo8N2L9rwsTPFa0oQyCtwRf5IUFlOzWEa7YcL5A1ZvXKjIVNVuSs8D4_ERN2gmh8FXqfFJrqXLvJh4jkB5owtfZgp3dr-jb6fs9v9HxGT6vHtr9Nq4DQRQU4q28lrsdLaZ_8WdfSQbFij4WGl4q1qJ0fmuBaI__EzQQbnU01PjcYKf0A__EMQe74srkllcDVg6H-bPvZnqBY4B6dJpNLVS0N4d-aCMs-cIl9iY13OUtrlXnH5Mn-ek-NrN7VhHQI-1vQrvdDiavqSe85WSOBnKPebCZtqfG4-gNd7u9MiL-VxsUKfhXwKvdTlajcgcLDVTNPnVv5BogR3fYO0JdbRDsXcI-27Sb_SgUuNIMncuhBny-nZDSBpQHCRWipeaAy2aSxjtKp0zmSBlqFpFovUuTMg2HuNNk9ZafcJpe4ExL5TIprTDWxOHdpLTJerg", "width": 1080}], "place_id": "ChIJy_8DDIHDQw0RzhazeAXTYxk", "plus_code": {"compound_code": "RFG6+WR Torrelaguna, Spain", "global_code": "8CGRRFG6+WR"}, "rating": 4.1, "reference": "ChIJy_8DDIHDQw0RzhazeAXTYxk", "scope": "GOOGLE", "types": ["point_of_interest", "store", "establishment"], "user_ratings_total": 58, "vicinity": "Calle del Cardenal Cisneros, 5, Torrelaguna"}, {"business_status": "OPERATIONAL", "geometry": {"location": {"lat": 40.821046, "lng": -3.559027}, "viewport": {"northeast": {"lat": 40.82233833029149, "lng": -3.557647219708498}, "southwest": {"lat": 40.81964036970849, "lng": -3.560345180291502}}}, "icon": "https://maps.gstatic.com/mapfiles/place_api/icons/v1/png_71/restaurant-71.png", "icon_background_color": "#FF9E67", "icon_mask_base_uri": "https://maps.gstatic.com/mapfiles/place_api/icons/v2/restaurant_pinlet", "international_phone_number": "+34 648 77 68 53", "name": "Finca Equilibrium", "opening_hours": {"open_now": false}, "photos": [{"height": 3264, "html_attributions": ["<a href=\"https://maps.google.com/maps/contrib/104558813642934609119\">Finca Equilibrium</a>"], "photo_reference": "AWn5SU7Px0OUbZHuf7vJsqi36TGGnIileoCFaJnw14zDS54hvaQroBeAk9PeeZwTKcRkPwTObkORqLoOYU8hNArGt3o6pw--fejluxOxv025AYnSEcirNO89n0LXuVjWheMybrlq_YnU2d6q1wPnZekkSpxOknTzd_JqKg-NTAqfjoLvkuF1jSdu2VJAKkDTmAm5-pYzb7OVzHv2230uWMymxXUt4FshlEfE8k8i94mYocoB5ysxGRVanWhmh-AhVQ5dnYQSLv7QakaMAHJ4TvEnLoU7c-S1SYaR0smQP3tQCKPgZurAdMEM1xAF7ePn2ZC_ybkK9tEoZaA", "width": 2448}], "place_id": "ChIJac8eIGLEQw0Rq73wNEALQ58", "plus_code": {"compound_code": "RCCR+C9 Torrelaguna, Spain", "global_code": "8CGRRCCR+C9"}, "price_level": 2, "rating": 4.4, "reference": "ChIJac8eIGLEQw0Rq73wNEALQ58", "scope": "GOOGLE", "types": ["restaurant", "bar", "point_of_interest", "food", "establishment"], "user_ratings_total": 916, "vicinity": "Carretera N-320. Km 334,55, Torrelaguna"}, {"business_status": "OPERATIONAL", "geometry": {"location": {"lat": 40.8236164, "lng": -3.538088299999999}, "viewport": {"northeast": {"lat": 40.8249511802915, "lng": -3.536802119708498}, "southwest": {"lat": 40.8222532197085, "lng": -3.539500080291501}}}, "icon": "https://maps.gstatic.com/mapfiles/place_api/icons/v1/png_71/civic_building-71.png", "icon_background_color": "#7B9EB0", "icon_mask_base_uri": "https://maps.gstatic.com/mapfiles/place_api/icons/v2/civic-bldg_pinlet", "international_phone_number": "+34 918 43 07 50", "name": "Oficina Decanato", "opening_hours": {"open_now": false}, "place_id": "ChIJJSHOdn_EQw0RWp4TJOt3aYc", "plus_code": {"compound_code": "RFF6+CQ Torrelaguna, Spain", "global_code": "8CGRRFF6+CQ"}, "reference": "ChIJJSHOdn_EQw0RWp4TJOt3aYc", "scope": "GOOGLE", "types": ["courthouse", "point_of_interest", "establishment"], "vicinity": "Calle Malacuera, 43, Torrelaguna"}, {"business_status": "OPERATIONAL", "geometry": {"location": {"lat": 40.83889999999999, "lng": -3.4989898}, "viewport": {"northeast": {"lat": 40.84017478029149, "lng": -3.497715969708498}, "southwest": {"lat": 40.83747681970849, "lng": -3.500413930291502}}}, "icon": "https://maps.gstatic.com/mapfiles/place_api/icons/v1/png_71/shopping-71.png", "icon_background_color": "#4B96F3", "icon_mask_base_uri": "https://maps.gstatic.com/mapfiles/place_api/icons/v2/shoppingcart_pinlet", "international_phone_number": "+34 697 49 60 03", "name": "Mercado Artrana", "opening_hours": {"open_now": false}, "place_id": "ChIJhSyn0fjPQw0RuMGvK2G6nX4", "plus_code": {"compound_code": "RGQ2+HC Torremocha de Jarama, Spain", "global_code": "8CGRRGQ2+HC"}, "rating": 3.5, "reference": "ChIJhSyn0fjPQw0RuMGvK2G6nX4", "scope": "GOOGLE", "types": ["grocery_or_supermarket", "point_of_interest", "store", "food", "establishment"], "user_ratings_total": 2, "vicinity": "Calle Torrearte, 2, Nave 8, Torremocha de Jarama"}, {"business_status": "OPERATIONAL", "geometry": {"location": {"lat": 40.82661249999999, "lng": -3.53992}, "viewport": {"northeast": {"lat": 40.82795763029149, "lng": -3.538569969708497}, "southwest": {"lat": 40.82525966970849, "lng": -3.541267930291501}}}, "icon": "https://maps.gstatic.com/mapfiles/place_api/icons/v1/png_71/generic_business-71.png", "icon_background_color": "#7B9EB0", "icon_mask_base_uri": "https://maps.gstatic.com/mapfiles/place_api/icons/v2/generic_pinlet", "international_phone_number": "+34 918 43 06 55", "name": "Mancomunidad de Servicios Sociales Sierra Norte", "opening_hours": {"open_now": false}, "place_id": "ChIJ-z7Oy4HDQw0R_Sbg2Hcrr0w", "plus_code": {"compound_code": "RFG6+J2 Torrelaguna, Spain", "global_code": "8CGRRFG6+J2"}, "rating": 4.3, "reference": "ChIJ-z7Oy4HDQw0R_Sbg2Hcrr0w", "scope": "GOOGLE", "types": ["point_of_interest", "establishment"], "user_ratings_total": 19, "vicinity": "Calle del, Conde de Barcelona, 11, Torrelaguna"}, {"business_status": "OPERATIONAL", "geometry": {"location": {"lat": 40.8255597, "lng": -3.5424032}, "viewport": {"northeast": {"lat": 40.8269177302915, "lng": -3.541025019708498}, "southwest": {"lat": 40.82421976970851, "lng": -3.543722980291502}}}, "icon": "https://maps.gstatic.com/mapfiles/place_api/icons/v1/png_71/generic_business-71.png", "icon_background_color": "#7B9EB0", "icon_mask_base_uri": "https://maps.gstatic.com/mapfiles/place_api/icons/v2/generic_pinlet", "international_phone_number": "+34 699 37 92 79", "name": "Enviroline", "opening_hours": {"open_now": false}, "place_id": "ChIJMzThp3_DQw0RGwo8LMMsj8Y", "plus_code": {"compound_code": "RFG5+62 Torrelaguna, Spain", "global_code": "8CGRRFG5+62"}, "rating": 5, "reference": "ChIJMzThp3_DQw0RGwo8LMMsj8Y", "scope": "GOOGLE", "types": ["point_of_interest", "establishment"], "user_ratings_total": 3, "vicinity": "Camino de Olivillas, 15, Torrelaguna"}, {"business_status": "OPERATIONAL", "geometry": {"location": {"lat": 40.8395365, "lng": -3.4979117}, "viewport": {"northeast": {"lat": 40.8409521802915, "lng": -3.496651369708498}, "southwest": {"lat": 40.8382542197085, "lng": -3.499349330291502}}}, "icon": "https://maps.gstatic.com/mapfiles/place_api/icons/v1/png_71/shopping-71.png", "icon_background_color": "#4B96F3", "icon_mask_base_uri": "https://maps.gstatic.com/mapfiles/place_api/icons/v2/shopping_pinlet", "international_phone_number": "+34 918 43 15 69", "name": "Taller el Arce", "opening_hours": {"open_now": false}, "place_id": "ChIJB2wZuFjBQw0RUUw4W6qRdxg", "plus_code": {"compound_code": "RGQ2+RR Torremocha de Jarama, Spain", "global_code": "8CGRRGQ2+RR"}, "rating": 4.5, "reference": "ChIJB2wZuFjBQw0RUUw4W6qRdxg", "scope": "GOOGLE", "types": ["store", "point_of_interest", "establishment"], "user_ratings_total": 2, "vicinity": "Calle Torrearte, 18, Torremocha de Jarama"}, {"business_status": "OPERATIONAL", "geometry": {"location": {"lat": 40.8391368, "lng": -3.5004826}, "viewport": {"northeast": {"lat": 40.84040898029149, "lng": -3.499239969708498}, "southwest": {"lat": 40.8377110197085, "lng": -3.501937930291502}}}, "icon": "https://maps.gstatic.com/mapfiles/place_api/icons/v1/png_71/generic_business-71.png", "icon_background_color": "#7B9EB0", "icon_mask_base_uri": "https://maps.gstatic.com/mapfiles/place_api/icons/v2/generic_pinlet", "international_phone_number": "+34 918 43 10 55", "name": "Residencia de Ancianos de Torremocha", "opening_hours": {"open_now": false}, "photos": [{"height": 2988, "html_attributions": ["<a href=\"https://maps.google.com/maps/contrib/116026758827414534136\">Carlos Morán</a>"], "photo_reference": "AWn5SU5SdxfjFG9-xH2862YM9YOUHC8g74AXdxH4X5mWvVa1yb9NJ5k0P_DoZ3XV1Z4NoRN7XJzmN8u1AU49oqXafzNAKi5p-jx3KrEVoeygmPR_99HXUeiFnBohmsh7jXSKGNsZ--kmEBLRyf7iu02oCsoFy_ThytobDiM3ZLoMLACZNGvcB3kKuGvW10wUwpDaQ7rsq7yt_cB92os72IB_uG231HhhXNimh7idaKdoUoldTr-Q4QwIYmobhwoMU0XebhlNW3BmSdfQ2q2wU-7Sx7REZnR4nAXgEiWI3yIjVTgcZo7tH5iB21jMB64YhRQDjLQG29VPVbS39O5VmgJol-ixfeiAXIxA5-epc_q8FYpf9QhTkwHEzi2GbHrcEwXbTITnxjLb6iqEafJ_9hNdOHqHp-O80Na6WBCGBiWazvthULKEIWdrWqOdyxpvouPJ1ASubCSyczhPFr-20z68zEbEV8Pd-OFFcm-FPAd67UZsfM5z5jfubLtFq7pWwoieLOpRmZkhJbhY2iPqzG_Z-HacYn2582PUtQZq4tWbLqFizOWvoPPkVJZYP-gIBI8HnYQEHuWxk9PIPd4G7djl4ymFYTEekfbcVHJ1AwHT_SwApo1SqIBBAjkenvJcXPGN", "width": 5312}], "place_id": "ChIJ9bzvxFnBQw0RbhxTQuU5Ouo", "plus_code": {"compound_code": "RFQX+MR Torremocha de Jarama, Spain", "global_code": "8CGRRFQX+MR"}, "rating": 3.2, "reference": "ChIJ9bzvxFnBQw0RbhxTQuU5Ouo", "scope": "GOOGLE", "types": ["health", "point_of_interest", "establishment"], "user_ratings_total": 37, "vicinity": "Calle Canal de Isabel II, 19, Torremocha de Jarama"}, {"business_status": "OPERATIONAL", "geometry": {"location": {"lat": 40.839532, "lng": -3.4979016}, "viewport": {"northeast": {"lat": 40.8409517302915, "lng": -3.496643919708498}, "southwest": {"lat": 40.8382537697085, "lng": -3.499341880291502}}}, "icon": "https://maps.gstatic.com/mapfiles/place_api/icons/v1/png_71/generic_business-71.png", "icon_background_color": "#7B9EB0", "icon_mask_base_uri": "https://maps.gstatic.com/mapfiles/place_api/icons/v2/generic_pinlet", "international_phone_number": "+34 618 30 94 49", "name": "Gubiarte", "opening_hours": {"open_now": true}, "photos": [{"height": 2048, "html_attributions": ["<a href=\"https://maps.google.com/maps/contrib/113255192498770859701\">Gubiarte</a>"], "photo_reference": "AWn5SU4-Boo1wrWbpU9RgyZYnG1YXZ5_K3ouy0X4kmlOmdSgzG_ojTPSOgoh2Q4sD9u_Cv3vt9lYJT6AGHALk1jyDMdLJFVDXFFB1L2DQ8ErYceGkvWNdxGQ5YFaAoR9-CGM6LnK63uWV0XUopqhVX7cUXHQ9x3KcnREymcC5NzTYA2ktNCKx-bvdhjQbTeD8epaZdwYRe-hiEbG5DH7MEYYc6GhycScYiE2ErMv7zlJxFFUpcecPqGaliZRQ79peYekO_sT0L6g857xTVK95RLk4ryQbXzzK6bIn6NcJKBBBpUJGbEFUM5_3lcrQAbgZyE1eQ3Jw00kki4", "width": 1133}], "place_id": "ChIJ9bzvxFnBQw0RgidLUhQeNts", "plus_code": {"compound_code": "RGQ2+RR Torremocha de Jarama, Spain", "global_code": "8CGRRGQ2+RR"}, "rating": 5, "reference": "ChIJ9bzvxFnBQw0RgidLUhQeNts", "scope": "GOOGLE", "types": ["point_of_interest", "establishment"], "user_ratings_total": 13, "vicinity": "Torremocha de Jarama"}, {"business_status": "OPERATIONAL", "geometry": {"location": {"lat": 40.8240252, "lng": -3.5382382}, "viewport": {"northeast": {"lat": 40.82535883029151, "lng": -3.536957219708498}, "southwest": {"lat": 40.82266086970851, "lng": -3.539655180291502}}}, "icon": "https://maps.gstatic.com/mapfiles/place_api/icons/v1/png_71/generic_business-71.png", "icon_background_color": "#7B9EB0", "icon_mask_base_uri": "https://maps.gstatic.com/mapfiles/place_api/icons/v2/generic_pinlet", "international_phone_number": "+34 918 43 11 52", "name": "Soltermic", "opening_hours": {"open_now": false}, "photos": [{"height": 262, "html_attributions": ["<a href=\"https://maps.google.com/maps/contrib/112345521060450292215\">Soltermic</a>"], "photo_reference": "AWn5SU7Bnr_FYzX0vHmg3ZsGg_RIe6y307jxgxppO_ZVckjeKz-YEIjgSdeRi-IApUsPzb6Yr9i8AI0qchlxLB4QAnyBI3maJbuDLyAaBOZbJyGaNXj5PoIi-yJmkJ9otIYTSTbOpGkDn_pgtoTdoeswLZavlJvgHx0FcNTmcc0YuSfAt6qe4yN4M2qGa6CQiUeKouosAA_brALjXPtCh3vbnwqzt8CnhHLYjFyqGEMeAQKjU3TJTLkcos_ZPGDLrLK1-H0npfD6RNOY6nFFRejqyF3i8ck9N59ubUhP4vNcQbZy1fC4U3yxsXX26WU6e3roUkBulbw4X0k", "width": 350}], "place_id": "ChIJO-QZfoDDQw0RL6_AXnBzzm8", "plus_code": {"compound_code": "RFF6+JP Torrelaguna, Spain", "global_code": "8CGRRFF6+JP"}, "rating": 4.3, "reference": "ChIJO-QZfoDDQw0RL6_AXnBzzm8", "scope": "GOOGLE", "types": ["point_of_interest", "establishment"], "user_ratings_total": 6, "vicinity": "Calle Malacuera, 37, Torrelaguna"}, {"business_status": "OPERATIONAL", "geometry": {"location": {"lat": 40.83913559999999, "lng": -3.4997334}, "viewport": {"northeast": {"lat": 40.84043563029149, "lng": -3.498312969708498}, "southwest": {"lat": 40.8377376697085, "lng": -3.501010930291502}}}, "icon": "https://maps.gstatic.com/mapfiles/place_api/icons/v1/png_71/generic_business-71.png", "icon_background_color": "#7B9EB0", "icon_mask_base_uri": "https://maps.gstatic.com/mapfiles/place_api/icons/v2/generic_pinlet", "international_phone_number": "+34 918 68 36 82", "name": "Oficina de Turismo Municipal de Torremocha del Jarama", "opening_hours": {"open_now": false}, "photos": [{"height": 3456, "html_attributions": ["<a href=\"https://maps.google.com/maps/contrib/114635068743448937457\">R</a>"], "photo_reference": "AWn5SU6k_ispZZG0I3faPVAzQhRVwF52qOFvMtm98BU2Wftn5fIaegt1EplmcUCGyJBdA42KXud4l7l8utiL9dbUUb0nnxW_vA_X8z3FvHtruhlFmjg4aLnYgDw_0X69SlMrKXZfOhhzhuXvP9eKfCeaxiXHCQWQsX6ry9PwDikbJF92T91nER1kkftwHvboCBAdBrkmKzArEfYInQS2wIL8bsj-9znzHRnWrsboZPTyWYRo1Oi6VNlAt6wQY9Sq8uTn96DUHWU1cEfpjFJtD7omApDz8sNiDl8Fh3_9h771tTB_Ok_vBPNV3QrrfpEeKA74BpO_Z6sZApHQIwJUW9UaspALfDJ0jQTUZhfCvq1JosuojkIu9Ep-qHx6I8jRGbjwLCX7XTP4TKWW2dAUI7V5djqzO24_zfhWukrawTnSOr1gxV_SFt8mrBFBUXp4nFjE5mggpl9pdvkZt-0UTB9zs3Xbfdj8ZwzPKuuL8gqz6tOy9hbTRGMyv0-yd44Cmn3DS16iYkMNP5cy-AJURywNJ76emOzy6CXVPAzSUDHPXe_U2HlcECWSy_j-liF0wzkvlkoNen09RlOptbTYsrTUUC_53GVnWAhLO3k8DDp2zY3xGk2gfFbwmmPY2nT9F3lMfq8mXSf9", "width": 4608}], "place_id": "ChIJD1e3pFjBQw0RBDTa9uTVO0E", "plus_code": {"compound_code": "RGQ2+M4 Torremocha de Jarama, Spain", "global_code": "8CGRRGQ2+M4"}, "rating": 4.6, "reference": "ChIJD1e3pFjBQw0RBDTa9uTVO0E", "scope": "GOOGLE", "types": ["travel_agency", "point_of_interest", "establishment"], "user_ratings_total": 8, "vicinity": "Polígono Artesanal, Calle Torrearte, 3, Torremocha de Jarama"}, {"business_status": "OPERATIONAL", "geometry": {"location": {"lat": 40.8271686, "lng": -3.5379739}, "viewport": {"northeast": {"lat": 40.82847503029149, "lng": -3.536515619708498}, "southwest": {"lat": 40.82577706970849, "lng": -3.539213580291502}}}, "icon": "https://maps.gstatic.com/mapfiles/place_api/icons/v1/png_71/generic_business-71.png", "icon_background_color": "#7B9EB0", "icon_mask_base_uri": "https://maps.gstatic.com/mapfiles/place_api/icons/v2/generic_pinlet", "international_phone_number": "+34 918 48 55 71", "name": "KAITUNA TOURS", "opening_hours": {"open_now": false}, "photos": [{"height": 4864, "html_attributions": ["<a href=\"https://maps.google.com/maps/contrib/116486513852460206969\">KAITUNA TOURS</a>"], "photo_reference": "AWn5SU66kOnUVate47GjAlDtWpYpHKpGEhrSnyx7BaLeK_uU31CGZ1d5aQg2fE_CnsFt7Merew7oI8aRBd7R0xMycDAR9AHt9-L82AubqraiAPMYX-yl5djW9HKUeHNoGg1mth0zYhUjzM141j8zn-Gg8cf9Uhl2fVJbhGR12O1laoX0R3QnNHRzKchLnWRf10kRR8aoM2Kt3Z66rUXxPfzj2o6-dBZfVVnOgKJEF5ctZm1Ul6ve-l-nwADu3hbp1r4TvxBqVQOy4oXeEYMZzmw2Xu7azpGLcZtsYB8s1Q8FPIayL5nSjhJR5VrpkMBQg2afqPSx-THfxRQIz_j4nppH38NxgVS-Tu4z19061O_Qdt_p185XiNxevV6-KDChxhcrW9-c6-B_V21Nrxg0_zu3A8zLntWEW2Sd73rFhqGYPSd3eMDG9FTRGKiVzLuqsJnkHM_1Pq7_6CAhF4rHrIxE_aZMCsKmIhkb8xhthxzNJ2G72zMVpS2iLvl3ZVJx5wKvDz2VhcSvzqCJmRDMNfR5r1agBYY6Is750hpapkXW-HRp1h_5Mtv3qkbge1pLHkvRQfd-rvJjTGAK9jlNdIVDDhI-zgS5yohnpk2tOArIE4rf4zVbLvR8TBjBnt0rE5RZKo4qZw", "width": 2736}], "place_id": "ChIJw9CenoHDQw0Rt1wIdxIX9bo", "plus_code": {"compound_code": "RFG6+VR Torrelaguna, Spain", "global_code": "8CGRRFG6+VR"}, "rating": 4.8, "reference": "ChIJw9CenoHDQw0Rt1wIdxIX9bo", "scope": "GOOGLE", "types": ["travel_agency", "point_of_interest", "establishment"], "user_ratings_total": 35, "vicinity": "Calle del Cardenal Cisneros, 7, Torrelaguna"}, {"geometry": {"location": {"lat": 40.7928359, "lng": -3.4970447}, "viewport": {"northeast": {"lat": 40.80142191022352, "lng": -3.46951246790905}, "southwest": {"lat": 40.78447735577461, "lng": -3.502365070723427}}}, "icon": "https://maps.gstatic.com/mapfiles/place_api/icons/v1/png_71/geocode-71.png", "icon_background_color": "#7B9EB0", "icon_mask_base_uri": "https://maps.gstatic.com/mapfiles/place_api/icons/v2/generic_pinlet", "name": "Caraquiz", "photos": [{"height": 3375, "html_attributions": ["<a href=\"https://maps.google.com/maps/contrib/108025644706422929032\">ANTONIO CATALAN</a>"], "photo_reference": "AWn5SU4bIM4gr6V5vHsII8e0o32_H5VTQ7Ic38xf3H_HwzreXWYKX48Nfpa91trBLbHJgqZFwVngtmqsWkbyPVhHtSlUT0zpSdzPT1vMJaVrhnNSesOrc4ZZEJY2EE1OlgykNI2e42qtBtm1LWFCBm4TDuJoXPW5lPODcf8hxBzee5wWvntwZitzZFEgC6_1zlhwaiDgoP7l7OPUBZbaxwfwObsLcSb3bP1l6sR4TRwy8vHHRgZ71ochK60hoFXvxlmFT-r0RTjgZsziymlAVC8FVfOPMDuFy6GP8hGaK7FLJEOjDTNPH7xBh4LcniiEQt7jq9FmfacVhFMAOteFARAUVfZsf1Bo0VCnA_FtXTaYgDy0ATnEphnFh2ghnMxwWK1mFc_2-3vwid0lL4NHd7TFgwnTjiiNyEiGlUvhENbVfsyZ4vCGEFtxUdGB7jDkcYZZkb7bsw3bGIliXSzP9Y--k6xKQvndDxAoTNUlyBogeK37-glT7nNlScLis2PYvkpv3SHb97gMUoRKyKfLZz1_tpsOpnWw0JQQXKg6fgsjNUVNbEsRGoMhs9Grx2Akr1GUgZomXb1DgU_UvhQK0kb1kREIXmE2XzOiRZnaXWKA3LdNVCBJsAIn-oCoE9GQZSEffoL9zA", "width": 6000}], "place_id": "ChIJ_9rCxhfBQw0RZVQdyp_m8t8", "reference": "ChIJ_9rCxhfBQw0RZVQdyp_m8t8", "scope": "GOOGLE", "types": ["locality", "political"], "vicinity": "Caraquiz"}]