[{"geometry": {"location": {"lat": 40.429024, "lng": -4.0567709}, "viewport": {"northeast": {"lat": 40.43662272098422, "lng": -4.048895872751463}, "southwest": {"lat": 40.42313512875106, "lng": -4.064310054349764}}}, "icon": "https://maps.gstatic.com/mapfiles/place_api/icons/v1/png_71/geocode-71.png", "icon_background_color": "#7B9EB0", "icon_mask_base_uri": "https://maps.gstatic.com/mapfiles/place_api/icons/v2/generic_pinlet", "name": "Quijorna", "photos": [{"height": 1860, "html_attributions": ["<a href=\"https://maps.google.com/maps/contrib/101321764474141234821\">ricardo fernández del Blanco</a>"], "photo_reference": "AWn5SU7EkGDanTKltaR0yekQrHjAebRwZo8RRzk6UmCEi15YrY5Jv9-rl65mF7fjhZO1byKP3n5fe_JaXrEparD4jD4_2WEtEZQiZbDbnSIKOJUABVzZgKpoW5HkiNAesBUqOWB3I0yPNBTQpdKsrgJ1bs1avCngg3RLacdAbhKrlb8ULSVt1I4sm-iNKSl05ox48RD-w3nBGuIyRJ2KrlsJkkU6bvRgF50ePcHBLqFG5auudldM7g0ZQA91hwCOIjyqU29hgV4r2Fk_SW6SG-QE0pNO0qlcDzfSztGFa4WWH1k8NshXVmG_q_3iKrKq2yhrsL-UKwWEUndIOQvjgcRYKgGhWP2d3qy2Hd4htS09t04trzWo2pAVPgCUMOUYk_-6APF-4SX4AIxqhN0CEulR2KzjHabYiHKsjLHlkDeVbjV9-ttLRcAVCmryt71gnspownLAqe4yE0UQaryqguS1p4g0XyYvd141UqXecbGkss0hF2rnkz_5ep7EtcDE3n7Fgb-lIt9KOvBfmzpe5QI9okCsrgptnA3T3saBIudXMpXlVdXryD9_qIphwzZ2nGjdOhIldJD7rm8_wBhgFlKK0OC3uky7rlDYJYm9IXfxMPpbqiCgIljC9mIvd_34wVhJWaBI0Edl", "width": 4032}], "place_id": "ChIJ3cmcgm6YQQ0ROWwUtqxsmO0", "reference": "ChIJ3cmcgm6YQQ0ROWwUtqxsmO0", "scope": "GOOGLE", "types": ["locality", "political"], "vicinity": "Quijorna"}, {"business_status": "OPERATIONAL", "geometry": {"location": {"lat": 40.43003619999999, "lng": -4.057330299999999}, "viewport": {"northeast": {"lat": 40.43136793029149, "lng": -4.055953369708497}, "southwest": {"lat": 40.4286699697085, "lng": -4.058651330291502}}}, "icon": "https://maps.gstatic.com/mapfiles/place_api/icons/v1/png_71/school-71.png", "icon_background_color": "#7B9EB0", "icon_mask_base_uri": "https://maps.gstatic.com/mapfiles/place_api/icons/v2/school_pinlet", "international_phone_number": "+34 918 16 86 64", "name": "Colegio Público Príncipes de Asturias", "opening_hours": {"open_now": false}, "photos": [{"height": 635, "html_attributions": ["<a href=\"https://maps.google.com/maps/contrib/105849035694465541768\">R M</a>"], "photo_reference": "AWn5SU7QdEsaDiqNPbbSUyssl481l_iHMXYSQj0LEqhciXDTPkKrgW0PmBAphtzdrHlcSUpt5ENhKmtTapt8KszWHobQjyBPmUgTQe_vUzHcjOxnC37_ULZPWUhvJ4wk5qRcKE3u_1KcqmDVClplRfWL1uIHcwak6yR-_xzoNdjefbdhgjM9LF8eVrJaNKD1vpocJ_E5MzxulK8j3WLt_-IWEliMxxzOLENjGQXet01O3Dp6a5yU3VuZkMblZKzG7A3j8dfCvPNRdv-dx5IJFaH4_plFsBAFevXzAGUgE543k4lE1tbtBt8rxmuqn1-U70jnFaOpMRRrYlZxeY4TwpKvWPjPJlERgYZLP3yFBUi_MwUGLxpA3BLbn6ZfX2B7ArNO23TsNlW6Igb3aR9DrqkInKgyU1LAsNCTmXsLd_OKW9RsrbBvxh9ZKeMIHaxsR-pWBjwb6GS07ha_c5VuISIIK8hjpAWKLZGHy2hInjLNuP3odss7k2lZryElvOh_jxJJrym7qGhplhtCDVXUOu9dS58LYHAJzzN7u5ty8vBg8t5ZtlZfBykOsjty6OekCm919uI1u8Se35gmcP_5XXkmVtNhhaKcImKLu5tej6pBJEl2WLb6sPo6heytgxoazCOBlBHjZ_tS", "width": 846}], "place_id": "ChIJgSBlY2-YQQ0RLqbFm4_A29g", "plus_code": {"compound_code": "CWJV+23 Quijorna, Spain", "global_code": "8CGQCWJV+23"}, "reference": "ChIJgSBlY2-YQQ0RLqbFm4_A29g", "scope": "GOOGLE", "types": ["point_of_interest", "school", "establishment"], "vicinity": "Calle Virgen del Rocío, 0, Quijorna"}, {"business_status": "OPERATIONAL", "geometry": {"location": {"lat": 40.4317138, "lng": -4.0545056}, "viewport": {"northeast": {"lat": 40.4330627302915, "lng": -4.053155969708498}, "southwest": {"lat": 40.4303647697085, "lng": -4.055853930291502}}}, "icon": "https://maps.gstatic.com/mapfiles/place_api/icons/v1/png_71/generic_business-71.png", "icon_background_color": "#7B9EB0", "icon_mask_base_uri": "https://maps.gstatic.com/mapfiles/place_api/icons/v2/generic_pinlet", "international_phone_number": "+34 918 15 91 41", "name": "Pavimentos y Soleras Robles Gil S.L.", "place_id": "ChIJJTvzaAuZQQ0RQxQiWX6zlFw", "plus_code": {"compound_code": "CWJW+M5 Quijorna, Spain", "global_code": "8CGQCWJW+M5"}, "reference": "ChIJJTvzaAuZQQ0RQxQiWX6zlFw", "scope": "GOOGLE", "types": ["point_of_interest", "establishment"], "vicinity": "Calle las Huertas, 22, Quijorna"}, {"business_status": "OPERATIONAL", "geometry": {"location": {"lat": 40.4284441, "lng": -4.054115900000001}, "viewport": {"northeast": {"lat": 40.4297236802915, "lng": -4.052798769708498}, "southwest": {"lat": 40.4270257197085, "lng": -4.055496730291502}}}, "icon": "https://maps.gstatic.com/mapfiles/place_api/icons/v1/png_71/generic_business-71.png", "icon_background_color": "#7B9EB0", "icon_mask_base_uri": "https://maps.gstatic.com/mapfiles/place_api/icons/v2/generic_pinlet", "international_phone_number": "+34 918 16 89 50", "name": "Aname Instrumentación Científica", "opening_hours": {"open_now": false}, "photos": [{"height": 674, "html_attributions": ["<a href=\"https://maps.google.com/maps/contrib/108593770718551602981\">Aname Instrumentación Científica</a>"], "photo_reference": "AWn5SU6VaMlv16aS1w8pGITe6wfFX8Vs4_5Ce24dJIBXqSeXxggazMuYVaKa5tLSEbBUVoH0Tq7uZReyQtetA3jsh_3lKduewNYhVOF4SmClHv8iFbBv3X_B5Qv7hL5NoaMQ1_miZLQ7i1FYJLF37rOyGsc-FUbA2398nUsmBkhZ0XqF1uIOwe2IVaTIdk-dxiVmuDfY3I1LKd0n9ESEHSQ9LVKwM8mK42Z-EgEtlLYQRgene0_1DHpVeHxR6RKetea-WRLBK9HYYMAZpgjiR_AVZu-HJEz87_0Zew05IcE7SZzilvhTaKDf4QYIOv6e3TO84qkWmPEDAHQ", "width": 1198}], "place_id": "ChIJa2ZOFm-YQQ0RSDPM7WtRWbw", "plus_code": {"compound_code": "CWHW+99 Quijorna, Spain", "global_code": "8CGQCWHW+99"}, "rating": 2.6, "reference": "ChIJa2ZOFm-YQQ0RSDPM7WtRWbw", "scope": "GOOGLE", "types": ["point_of_interest", "establishment"], "user_ratings_total": 5, "vicinity": "Calle la Rioja, 1, A, Quijorna"}, {"business_status": "OPERATIONAL", "geometry": {"location": {"lat": 40.4245555, "lng": -4.0584074}, "viewport": {"northeast": {"lat": 40.4258862302915, "lng": -4.056959719708498}, "southwest": {"lat": 40.4231882697085, "lng": -4.059657680291503}}}, "icon": "https://maps.gstatic.com/mapfiles/place_api/icons/v1/png_71/generic_business-71.png", "icon_background_color": "#7B9EB0", "icon_mask_base_uri": "https://maps.gstatic.com/mapfiles/place_api/icons/v2/generic_pinlet", "international_phone_number": "+34 672 58 27 40", "name": "MadridLimpieza", "opening_hours": {"open_now": false}, "place_id": "ChIJ641hpW2YQQ0R_LpGFHqV1uk", "plus_code": {"compound_code": "CWFR+RJ Quijorna, Spain", "global_code": "8CGQCWFR+RJ"}, "reference": "ChIJ641hpW2YQQ0R_LpGFHqV1uk", "scope": "GOOGLE", "types": ["point_of_interest", "establishment"], "vicinity": "Calle Sorolla, 4, Quijorna"}, {"business_status": "OPERATIONAL", "geometry": {"location": {"lat": 40.4267712, "lng": -4.0574365}, "viewport": {"northeast": {"lat": 40.4282226302915, "lng": -4.056098019708497}, "southwest": {"lat": 40.4255246697085, "lng": -4.058795980291502}}}, "icon": "https://maps.gstatic.com/mapfiles/place_api/icons/v1/png_71/worship_general-71.png", "icon_background_color": "#7B9EB0", "icon_mask_base_uri": "https://maps.gstatic.com/mapfiles/place_api/icons/v2/worship_christian_pinlet", "name": "Iglesia de San Juan Evangelista", "opening_hours": {"open_now": false}, "photos": [{"height": 3024, "html_attributions": ["<a href=\"https://maps.google.com/maps/contrib/116113035359974956091\">fernando monzon</a>"], "photo_reference": "AWn5SU5fDo1sd9zw3FkJjBaE1VN9SEPorIuifldEDv4Z0GiJA0urcg5Pdy-LdwN6fhWEjIeDTa11JmsQgfRx58iwvT8GAFVxmWr8lDXiQCpS2VOo2QRQ01ui31R4kv0f2zN2B0g5hpmALDh-OYVea3PT9N6h3Gw4t8ANFxfrqtII_0ZuHETkN-fskjyEdGutJVJVfFZ7VMNZ8qEc-po8KoIv75yK8QXwMT2nkxAcHk_e1vTkNeTLnr25CcRHLZjUC3JrvMnIRSUmlBOrIbNvun8Dmq7HnroFVFO-n6sag-vAO1tAwFUV5iGOPmqVN9SZoeQzAjkOUJ-6_DcB7hTpNjbMGv30kjt-uRzp8CiK3hMnVWl4HPSS3B6c1Dh30r7Bgvw2V95QJs8WOPqE7jnUBHSEh0cUzSpzPj4UgtmwaCvmx_KXXfgWJSQcmVhstJUsAoQOfWd3KQUezmWyFiUnWNaAB2gSuQGZ9iqALcXvXBgbMWLQyTrAE4Y8A2UdVczPMzOWJJ5PP-6K0IpB7rN_V25RPOj689jZAMVPw7Q9WXQmRQL76rMqiVYSoEvsR080Ck5I3gAjKVFAGBXv1lsJudt0NAF0cmo3DtJ7LvBDKuLexRop0Kf-ZkUHhCnJ9u8qvFvLvBfOLg", "width": 4032}], "place_id": "ChIJ8zxTd26YQQ0RFNeeLfwvDlU", "plus_code": {"compound_code": "CWGV+P2 Quijorna, Spain", "global_code": "8CGQCWGV+P2"}, "rating": 4.6, "reference": "ChIJ8zxTd26YQQ0RFNeeLfwvDlU", "scope": "GOOGLE", "types": ["church", "place_of_worship", "point_of_interest", "establishment"], "user_ratings_total": 24, "vicinity": "S/N,, Plaza de la Iglesia, Quijorna"}, {"business_status": "OPERATIONAL", "geometry": {"location": {"lat": 40.42664159999999, "lng": -4.057848599999999}, "viewport": {"northeast": {"lat": 40.4280302302915, "lng": -4.056433419708497}, "southwest": {"lat": 40.4253322697085, "lng": -4.059131380291502}}}, "icon": "https://maps.gstatic.com/mapfiles/place_api/icons/v1/png_71/generic_business-71.png", "icon_background_color": "#7B9EB0", "icon_mask_base_uri": "https://maps.gstatic.com/mapfiles/place_api/icons/v2/generic_pinlet", "international_phone_number": "+34 627 91 04 67", "name": "Reforyuste", "opening_hours": {"open_now": false}, "place_id": "ChIJ_QJP2_h1QQ0Rv99ws-Z8i2Q", "plus_code": {"compound_code": "CWGR+MV Quijorna, Spain", "global_code": "8CGQCWGR+MV"}, "rating": 4.8, "reference": "ChIJ_QJP2_h1QQ0Rv99ws-Z8i2Q", "scope": "GOOGLE", "types": ["point_of_interest", "general_contractor", "establishment"], "user_ratings_total": 18, "vicinity": "Calle Navalcarnero, 23, portal 3 bajo a, Quijorna"}, {"business_status": "OPERATIONAL", "geometry": {"location": {"lat": 40.4270646, "lng": -4.057969}, "viewport": {"northeast": {"lat": 40.4285161802915, "lng": -4.056536669708497}, "southwest": {"lat": 40.4258182197085, "lng": -4.059234630291502}}}, "icon": "https://maps.gstatic.com/mapfiles/place_api/icons/v1/png_71/generic_business-71.png", "icon_background_color": "#7B9EB0", "icon_mask_base_uri": "https://maps.gstatic.com/mapfiles/place_api/icons/v2/generic_pinlet", "international_phone_number": "+34 918 16 80 29", "name": "Sonrisabucal", "opening_hours": {"open_now": false}, "photos": [{"height": 400, "html_attributions": ["<a href=\"https://maps.google.com/maps/contrib/100343877861732793504\">Sonrisabucal</a>"], "photo_reference": "AWn5SU7xtTbdQ83VTGh-Dr56OoC0W4tLXdyXSYHq434flEb7nPscuI_oGY8Myjkjw3-hhDr3z50C9BH4yWLDq7WEl9f2tY5XGQM_eD7Ny66kqK3GdsXTVTVn9VAfzXwZn8ztP21fUODpIUQ9-6srGOm195pDGltmBuO0Pabo6YhMIDTC5w5hE8MP-WehtP0OVANndlvL-srxV1xhfKznf-c4AMKbs6LUMpb3SLJCR8D3De3lxfkhbYZ6QDcUdBz0YtW1iZ_ubkh8FDC9mQYd71YJ31yU5SmXlVHBkznggkyHFO0PyX2PnII-TIgKFIyC1JFPoRXfuhuAbCY", "width": 400}], "place_id": "ChIJX-agcm6YQQ0RmM5UYYybqEk", "plus_code": {"compound_code": "CWGR+RR Quijorna, Spain", "global_code": "8CGQCWGR+RR"}, "rating": 3.9, "reference": "ChIJX-agcm6YQQ0RmM5UYYybqEk", "scope": "GOOGLE", "types": ["point_of_interest", "health", "establishment"], "user_ratings_total": 7, "vicinity": "Calle Navalcarnero, 28, Quijorna"}, {"business_status": "OPERATIONAL", "geometry": {"location": {"lat": 40.4269734, "lng": -4.056525}, "viewport": {"northeast": {"lat": 40.4283647802915, "lng": -4.055142369708499}, "southwest": {"lat": 40.4256668197085, "lng": -4.057840330291503}}}, "icon": "https://maps.gstatic.com/mapfiles/place_api/icons/v1/png_71/civic_building-71.png", "icon_background_color": "#7B9EB0", "icon_mask_base_uri": "https://maps.gstatic.com/mapfiles/place_api/icons/v2/civic-bldg_pinlet", "international_phone_number": "+34 918 15 53 49", "name": "Oficina Rural de Correos", "opening_hours": {"open_now": false}, "photos": [{"height": 2268, "html_attributions": ["<a href=\"https://maps.google.com/maps/contrib/110498914120509478542\">David Ramos</a>"], "photo_reference": "AWn5SU4fZS0xzpnLbHnTleEZZQE_bBwqeFeJ8kNyLuFpMzluigSclrQcjEIEkqWW3AGotLEug0VZC_gPc67ghtAZz3H7NMwZNDLgu5GC5bpHegxMR9cw740qVxK1nFg2KwEUjUEfSspKyR2I62ZQdnLsz70iPK3-djETjxuKiUnD9qmKkI5msWHFKRawziNn7CYfeFOTSyE5bgQLdtx_8WtpxPJz5bq3xP3tBKbCkZuwTua6H16Puv0FNrj0GWr4p_UYxFFw9NZxPiBqO8knNdkQ6Jb5fuy4ffJ_FwHvoWCF6FLcnmkRulCtoQMa35cGMwQV94bR0M8Q1LFPolUppjHT4a6xNlBcJS3Co3Z2JDyMJ8qCTp70a-qCo2Y3N7Y4WABWMTk4X5Tuxi7-Bq6zXCZwP31BaH8PoO3xCDhBXx03GEniHh1fdCdyM8RQqy9p-dPeEhBB8VXiQb3EhOR-A__ShiCTQW_GwjnPzNK2ssNmyVjacPJ-A5en1S67pYvfCQ2InFZRAujMoRhOYFLbKsyzO7OdfWb78Lf6Yvg5No9FhlSXq6mcve5lcEvFEulOHYeW8h2eJeBPqGen8ie31XuQbFyFkgXWbscmN1uXFQ2gtYfSY3DYK2Dd18OkkQPTMcFXJmUbzw", "width": 4032}], "place_id": "ChIJrSlv1m2YQQ0RpdSQk89fM68", "plus_code": {"compound_code": "CWGV+Q9 Quijorna, Spain", "global_code": "8CGQCWGV+Q9"}, "rating": 1.4, "reference": "ChIJrSlv1m2YQQ0RpdSQk89fM68", "scope": "GOOGLE", "types": ["post_office", "finance", "point_of_interest", "establishment"], "user_ratings_total": 19, "vicinity": "Calle del Campo, 8, Quijorna"}, {"business_status": "OPERATIONAL", "geometry": {"location": {"lat": 40.42750829999999, "lng": -4.057566599999999}, "viewport": {"northeast": {"lat": 40.4288065802915, "lng": -4.056177019708498}, "southwest": {"lat": 40.4261086197085, "lng": -4.058874980291503}}}, "icon": "https://maps.gstatic.com/mapfiles/place_api/icons/v1/png_71/pharmacy-71.png", "icon_background_color": "#F88181", "icon_mask_base_uri": "https://maps.gstatic.com/mapfiles/place_api/icons/v2/pharmacy_pinlet", "international_phone_number": "+34 918 16 81 68", "name": "Farmacia Quijorna M T Lobo", "opening_hours": {"open_now": false}, "photos": [{"height": 1080, "html_attributions": ["<a href=\"https://maps.google.com/maps/contrib/117150777421486022655\">Farmacia Maria Teresa Lobo</a>"], "photo_reference": "AWn5SU7fKjkbPIm7yuAx30-1_ephKVh5G1BGprS3NJs11Gc2ZNDB9aUQA5whkR1EXcmPVlnr5i7siuxT1hEWimgr3MrFP-YT2NbayAbfRgnxzaGACw9-5d_ikxQqXinJeqr6w64NvPWM1WR7AENmyXsG6H3pynEBlJ-iwr_zFRl8l05P5IEm66kRO1ffxaEjSUnqj10hUwEK3EjwuMdxz8ICKAOAQM5v56L3AV4JazP7EjiX0JHr19j47nqbrX3Zxj7UMqm6QC7w2plXl_ZR0smyVG0MJWhiKNiYNFG_YQWnFg15J4LhT-0Bv8emjK4YNHgBlNw3rR2apCw", "width": 1920}], "place_id": "ChIJKT0waW6YQQ0RZ2ugOQk8kN8", "plus_code": {"compound_code": "CWHR+2X Quijorna, Spain", "global_code": "8CGQCWHR+2X"}, "rating": 3.7, "reference": "ChIJKT0waW6YQQ0RZ2ugOQk8kN8", "scope": "GOOGLE", "types": ["pharmacy", "point_of_interest", "health", "store", "establishment"], "user_ratings_total": 36, "vicinity": "2 Bis, Plaza del Doctor Santos Muñoz Burón, Quijorna"}, {"business_status": "OPERATIONAL", "geometry": {"location": {"lat": 40.425656, "lng": -4.0572696}, "viewport": {"northeast": {"lat": 40.4269670302915, "lng": -4.055898619708498}, "southwest": {"lat": 40.4242690697085, "lng": -4.058596580291502}}}, "icon": "https://maps.gstatic.com/mapfiles/place_api/icons/v1/png_71/school-71.png", "icon_background_color": "#7B9EB0", "icon_mask_base_uri": "https://maps.gstatic.com/mapfiles/place_api/icons/v2/school_pinlet", "international_phone_number": "+34 918 16 85 87", "name": "Centro educación", "place_id": "ChIJWS0Bz22YQQ0RfmDsAairxz0", "plus_code": {"compound_code": "CWGV+73 Quijorna, Spain", "global_code": "8CGQCWGV+73"}, "reference": "ChIJWS0Bz22YQQ0RfmDsAairxz0", "scope": "GOOGLE", "types": ["point_of_interest", "school", "establishment"], "vicinity": "Paseo de San Isidro, 4, Quijorna"}, {"business_status": "OPERATIONAL", "geometry": {"location": {"lat": 40.42558, "lng": -4.057419999999999}, "viewport": {"northeast": {"lat": 40.4270564802915, "lng": -4.055823769708498}, "southwest": {"lat": 40.4243585197085, "lng": -4.058521730291503}}}, "icon": "https://maps.gstatic.com/mapfiles/place_api/icons/v1/png_71/bank-71.png", "icon_background_color": "#909CE1", "icon_mask_base_uri": "https://maps.gstatic.com/mapfiles/place_api/icons/v2/bank-intl_pinlet", "international_phone_number": "+34 600 40 40 90", "name": "CaixaBank", "opening_hours": {"open_now": false}, "photos": [{"height": 1192, "html_attributions": ["<a href=\"https://maps.google.com/maps/contrib/116482671463484662384\">CaixaBank</a>"], "photo_reference": "AWn5SU4667jwCV_7rBTYlfqh0LqjD0Hur3X21wsxNp3a3jNAVyWPiOVNwUAih3gM9HVslBxcEoTnZEWve4SToEPQe5ru0I6FrT1CT_djb2BP9D1rTGGvi3zQ0nBW4RA9r0SbM6mBUO0CGXSRFhiZNmHr7h2yOON7orl1Rv1W4P-xrGFVn-LRusJHPmzOgmS2MfNvm9SNTZNW8zglpeFfgrLaqYSt3MX6T-rWGDRMLYV_AvBTc2s8ahEn74t120sjkECCwiFN0LHMUuuofrsJHlmTGF5bOMUCl5-hBaSkuARuAEqE01BdIkQGLJbjN8czczfxmMxfITL0voY", "width": 2120}], "place_id": "ChIJHXXDzW2YQQ0RkvbNE-MrKj8", "plus_code": {"compound_code": "CWGV+62 Quijorna, Spain", "global_code": "8CGQCWGV+62"}, "rating": 2, "reference": "ChIJHXXDzW2YQQ0RkvbNE-MrKj8", "scope": "GOOGLE", "types": ["bank", "finance", "point_of_interest", "establishment"], "user_ratings_total": 16, "vicinity": "Paseo de San Isidro, 2, Quijorna"}, {"business_status": "OPERATIONAL", "geometry": {"location": {"lat": 40.4275333, "lng": -4.0580813}, "viewport": {"northeast": {"lat": 40.4288810802915, "lng": -4.056655169708497}, "southwest": {"lat": 40.42618311970851, "lng": -4.059353130291502}}}, "icon": "https://maps.gstatic.com/mapfiles/place_api/icons/v1/png_71/school-71.png", "icon_background_color": "#7B9EB0", "icon_mask_base_uri": "https://maps.gstatic.com/mapfiles/place_api/icons/v2/school_pinlet", "international_phone_number": "+34 656 16 22 65", "name": "Escuela Infantil El Jardín de los Sueños", "opening_hours": {"open_now": false}, "photos": [{"height": 2000, "html_attributions": ["<a href=\"https://maps.google.com/maps/contrib/117984739433273725881\">Escuela Infantil El Jardín de los Sueños</a>"], "photo_reference": "AWn5SU4ZVZAOsgt4EB6lCz29EOZGVipW5GjCk6_pIz5KBmzFpASHmt2r7_gUYlidQG32508yVBjHET_MtB9YWl1s1t_yH6p0Yj58w_aC8LBEuquSunS_POJa9BSZj3VLmeL496nztYfbTbeRaR1cG7wdv2BMhLYl1W1ri6RqNj_pi9rSP8qiVjjONr2a9nBvM8GO6LMIfpH7E8LCQtbzC7ZWUD3kiUJl0sq8Jklcn_rzpvK0b8tlLEzIauXrG63lAM04YZk_4l7psk12_EfKnehKS_gPHFiMctNhn-waEeFX1JLOBzOJgI-56UHNAoWPHxOsx6YQar0QEss", "width": 1500}], "place_id": "ChIJNVAia26YQQ0RJdHlJmOGtQU", "plus_code": {"compound_code": "CWHR+2Q Quijorna, Spain", "global_code": "8CGQCWHR+2Q"}, "rating": 4.7, "reference": "ChIJNVAia26YQQ0RJdHlJmOGtQU", "scope": "GOOGLE", "types": ["point_of_interest", "school", "establishment"], "user_ratings_total": 3, "vicinity": "Plaza del Doctor Santos Muñoz Burón, 7, Quijorna"}, {"business_status": "OPERATIONAL", "geometry": {"location": {"lat": 40.4277048, "lng": -4.057812800000001}, "viewport": {"northeast": {"lat": 40.4290361802915, "lng": -4.056521069708497}, "southwest": {"lat": 40.42633821970851, "lng": -4.059219030291501}}}, "icon": "https://maps.gstatic.com/mapfiles/place_api/icons/v1/png_71/civic_building-71.png", "icon_background_color": "#7B9EB0", "icon_mask_base_uri": "https://maps.gstatic.com/mapfiles/place_api/icons/v2/civic-bldg_pinlet", "international_phone_number": "+34 918 16 83 77", "name": "SERVICIOS SOCIALES DE QUIJORNA", "opening_hours": {"open_now": false}, "place_id": "ChIJmd50am6YQQ0Rwr1XxZouOvk", "plus_code": {"compound_code": "CWHR+3V Quijorna, Spain", "global_code": "8CGQCWHR+3V"}, "rating": 5, "reference": "ChIJmd50am6YQQ0Rwr1XxZouOvk", "scope": "GOOGLE", "types": ["local_government_office", "point_of_interest", "establishment"], "user_ratings_total": 4, "vicinity": "Plaza del Doctor Santos Muñoz Burón, Quijorna"}, {"business_status": "OPERATIONAL", "geometry": {"location": {"lat": 40.4273643, "lng": -4.0551161}, "viewport": {"northeast": {"lat": 40.4286686302915, "lng": -4.053712519708498}, "southwest": {"lat": 40.42597066970851, "lng": -4.056410480291502}}}, "icon": "https://maps.gstatic.com/mapfiles/place_api/icons/v1/png_71/generic_business-71.png", "icon_background_color": "#7B9EB0", "icon_mask_base_uri": "https://maps.gstatic.com/mapfiles/place_api/icons/v2/generic_pinlet", "international_phone_number": "+34 918 16 80 57", "name": "Studio25", "opening_hours": {"open_now": false}, "photos": [{"height": 4032, "html_attributions": ["<a href=\"https://maps.google.com/maps/contrib/108146538042350644705\">Studio25</a>"], "photo_reference": "AWn5SU5tTBpKSEAdOruTW9H1EtWnvBHfx6GlhS5LCfHLO5DFbD2yTHYLp_xa88xiwR8qa2BewVxQT65Hue6G_2RJwUkGqKXeNmOedAH-fnXx6pOyfg6r2PWc_y0e3YF5ZGOmTh4jiAqqxWthWpFaOgdPjGQd61XUuTa497zoqHp7wTjtFFE9mKy3FtyA08KwjIG8k1rIOjOIcrbytNXjAZRhbNi7PzL_5hMnAmSdJuRoqL9S-M4P5gveE96HpntsVgz_DyPizphF_EHNq_-NqVFCP2awFp6IHASjKjVy1n-5271_YxzQ1EOzRdxFNSqiIUeCB2SQ5npKRgs", "width": 3024}], "place_id": "ChIJv0YlvG6YQQ0RYYoFRUCO1D0", "plus_code": {"compound_code": "CWGV+WX Quijorna, Spain", "global_code": "8CGQCWGV+WX"}, "rating": 4.4, "reference": "ChIJv0YlvG6YQQ0RYYoFRUCO1D0", "scope": "GOOGLE", "types": ["hair_care", "point_of_interest", "establishment"], "user_ratings_total": 296, "vicinity": "Avenida Villanueva de la Cañada, 3, Quijorna"}, {"business_status": "OPERATIONAL", "geometry": {"location": {"lat": 40.4282404, "lng": -4.0561611}, "viewport": {"northeast": {"lat": 40.4295408802915, "lng": -4.054771319708497}, "southwest": {"lat": 40.4268429197085, "lng": -4.057469280291501}}}, "icon": "https://maps.gstatic.com/mapfiles/place_api/icons/v1/png_71/generic_business-71.png", "icon_background_color": "#7B9EB0", "icon_mask_base_uri": "https://maps.gstatic.com/mapfiles/place_api/icons/v2/generic_pinlet", "international_phone_number": "+34 649 73 86 07", "name": "La Foto Belle", "opening_hours": {"open_now": true}, "photos": [{"height": 1281, "html_attributions": ["<a href=\"https://maps.google.com/maps/contrib/108367771501696010198\">La Foto Belle</a>"], "photo_reference": "AWn5SU7x7pOlvruoOYGqgOdXq4sAYhvimuyHyjqLqj6B2X4Z7etFXOSNLpioQa-SZTxN2-lgjTryS-VO72VHOv2lZR2jwUX2dT43f0jRLu-36A3tUf9KA_g9DfYqrQEquM_f42q8DWzG-jE87iS3HLRVgKrKhMP3ob9MnRI0LjvlQDwZ8R4QCsqSNZKlmGQm-2kyh0XH37eDSc1MY51V4KojrOpVtifg1ceWGkTp_4gyxRCwvr1AOBSuYrNM-YRe1o93Pb-4Ot5c83r_3oWrdvarJYXHV84gVK-AdIe3kQE42xouqbY1OnDzmT0P6Nxp4QbK7F2Vvn7DQG0", "width": 1920}], "place_id": "ChIJ5fsj7m6YQQ0RkNRK8_PyM-k", "plus_code": {"compound_code": "CWHV+7G Quijorna, Spain", "global_code": "8CGQCWHV+7G"}, "reference": "ChIJ5fsj7m6YQQ0RkNRK8_PyM-k", "scope": "GOOGLE", "types": ["point_of_interest", "general_contractor", "establishment"], "vicinity": "Calle Quejigo, 3, Quijorna"}, {"business_status": "OPERATIONAL", "geometry": {"location": {"lat": 40.4291542, "lng": -4.0547552}, "viewport": {"northeast": {"lat": 40.4304610302915, "lng": -4.053356619708498}, "southwest": {"lat": 40.4277630697085, "lng": -4.056054580291502}}}, "icon": "https://maps.gstatic.com/mapfiles/place_api/icons/v1/png_71/generic_business-71.png", "icon_background_color": "#7B9EB0", "icon_mask_base_uri": "https://maps.gstatic.com/mapfiles/place_api/icons/v2/generic_pinlet", "international_phone_number": "+34 902 88 15 55", "name": "Promolex", "place_id": "ChIJ053TKW-YQQ0RDXaUnMWAAys", "plus_code": {"compound_code": "CWHW+M3 Quijorna, Spain", "global_code": "8CGQCWHW+M3"}, "reference": "ChIJ053TKW-YQQ0RDXaUnMWAAys", "scope": "GOOGLE", "types": ["lawyer", "point_of_interest", "establishment"], "vicinity": "Calle Quejigo, 35, Quijorna"}, {"business_status": "OPERATIONAL", "geometry": {"location": {"lat": 40.4290105, "lng": -4.053332699999999}, "viewport": {"northeast": {"lat": 40.4303786302915, "lng": -4.052053469708497}, "southwest": {"lat": 40.4276806697085, "lng": -4.054751430291502}}}, "icon": "https://maps.gstatic.com/mapfiles/place_api/icons/v1/png_71/generic_business-71.png", "icon_background_color": "#7B9EB0", "icon_mask_base_uri": "https://maps.gstatic.com/mapfiles/place_api/icons/v2/generic_pinlet", "international_phone_number": "+34 619 95 49 80", "name": "Editorial Leibros, S.L.U.", "photos": [{"height": 4032, "html_attributions": ["<a href=\"https://maps.google.com/maps/contrib/102352528045473827526\">Luis Lorenzo Sampedro</a>"], "photo_reference": "AWn5SU6grhJMahb7DmJalDq5mcIovGCkYq3XFshNkBPVOPFr1xXLfR1MGvlES9svXvFDlcVFkmoYD1N-zZzjGJ2WvS_moGoO6JWD1kAaPPOv8LmJbKcURdntygc9CciOrriJgeEBniBqQF6R5pbB7c4GdkUIn1ik9-2rKwMuYGLiKWgzFn0hKhaNLnME9aSk8UIMW02emLM3VVg_8i-pYTHCtOIE-WdSpBbROgt1QpLFJeyJoEm7Yn0PIL17JeXPLujouvnJ3BrUzOPU66ZzNfc5ujij-pnDZwPFdyvvv4Z7AIOJNPC52XOwC5Oq2s8K_7RQI-CF8QrRK_2oRBgmHuFZwdIIfK-WH-y8p33HEN5XIm166-ePCa_8tayOK2Tbx1SXoX_A9DOUXtbmv3oRvbZVFeYYwcxQPo9M-jUh6VgkP18KWenZpcygdi_MCjLXlLLThep0pMks2OFb_OEdHYMtypMOXWiJldqQUnVJd0npNrgFzNxvKSiH46I8ZQplGw34Hbc7cXouqsf2gDShCzrORqoHd_Vh8AtvJ8-kQMpxRPJG3Q7SzgSAfBvR7pxzGhNS06ASAn0N-_j3qfVd5AkkWdQQvhmVvnjiQeny9-wkaIQQbZHb2vYRwfZa1jc1vjYymqp61g", "width": 3024}], "place_id": "ChIJYUAiJ2mYQQ0RLN9LwLg6EE0", "plus_code": {"compound_code": "CWHW+JM Quijorna, Spain", "global_code": "8CGQCWHW+JM"}, "rating": 5, "reference": "ChIJYUAiJ2mYQQ0RLN9LwLg6EE0", "scope": "GOOGLE", "types": ["point_of_interest", "establishment"], "user_ratings_total": 12, "vicinity": "Calle la Rioja, 8, Quijorna"}, {"business_status": "OPERATIONAL", "geometry": {"location": {"lat": 40.427157, "lng": -4.051446399999999}, "viewport": {"northeast": {"lat": 40.42847778029149, "lng": -4.050096419708498}, "southwest": {"lat": 40.4257798197085, "lng": -4.052794380291503}}}, "icon": "https://maps.gstatic.com/mapfiles/place_api/icons/v1/png_71/generic_business-71.png", "icon_background_color": "#7B9EB0", "icon_mask_base_uri": "https://maps.gstatic.com/mapfiles/place_api/icons/v2/generic_pinlet", "international_phone_number": "+34 680 22 78 48", "name": "Club de fútbol Quijorna", "opening_hours": {"open_now": false}, "photos": [{"height": 1920, "html_attributions": ["<a href=\"https://maps.google.com/maps/contrib/109927227326565177119\">Manuel Gonzalez</a>"], "photo_reference": "AWn5SU5F8gjj5bj23qBhtbbR4LceqLhKvFXnkq2uOYs6e0OVRrcmT6KTzq2xKoMFaQkQ3Nf3JwKREkzCfDXm1QTrD5cDdTFTSsyVf_40ZByLy3i9ddybETSmJR-m_RPO-Z5XAiHImmUfbgffR_rp_Y7DUznViRNxS1wRdFw8nhMhyYcLqiTJ_2B-LguytzIzhxkSYbRAxe3zqgHT9WTD3Zg5QbdArbUg-5Ujde1nlTwXHfcqRzLXxlYDx67XECk-RHyzOcWLR9yw7lU93EFZbb1eCfEoobyNnrdoim1jiUBabc_57TC-pzw3_NxsZNTcHEYi9_-fXIG51wMAeb6pUfgmPvwm6YISpD47AtoJhdzq1yvkZQoMIH-I9fC7VYbSIDDXUl4MrdDDONebuAL37n7cGg5l8dpdw7m18B4Z26wnfdSYzXM94Bs0J1D7qdY0gULNt7LQs2HiAkojl65tTz46bzYniWiZxW0_veobq6sS91XkTRM6tpPUHBSbhy1xHvXI-_FRkNTMviPlTl8JIuAnycRAx66bZanGDpwOr35anKZLoTzEd7UZWPCEnn4iZTucVeZUhaY21NWMc62xFeKJGXFvT5-Ca34PRddewdFwKoZNfaW8jMyuqcnKB9ukAy54ZZVduM8A", "width": 2560}], "place_id": "ChIJCYmKY2mYQQ0RdG4iRDalGCM", "plus_code": {"compound_code": "CWGX+VC Quijorna, Spain", "global_code": "8CGQCWGX+VC"}, "rating": 3.9, "reference": "ChIJCYmKY2mYQQ0RdG4iRDalGCM", "scope": "GOOGLE", "types": ["point_of_interest", "establishment"], "user_ratings_total": 17, "vicinity": "Calle del Pinar, Quijorna"}, {"business_status": "OPERATIONAL", "geometry": {"location": {"lat": 40.43124580000001, "lng": -4.0574197}, "viewport": {"northeast": {"lat": 40.4325684302915, "lng": -4.056125319708498}, "southwest": {"lat": 40.4298704697085, "lng": -4.058823280291502}}}, "icon": "https://maps.gstatic.com/mapfiles/place_api/icons/v1/png_71/generic_business-71.png", "icon_background_color": "#7B9EB0", "icon_mask_base_uri": "https://maps.gstatic.com/mapfiles/place_api/icons/v2/generic_pinlet", "international_phone_number": "+34 902 05 06 50", "name": "Inteligencia Activa", "place_id": "ChIJH14K82-YQQ0R-W8-jEWrI60", "plus_code": {"compound_code": "CWJV+F2 Quijorna, Spain", "global_code": "8CGQCWJV+F2"}, "reference": "ChIJH14K82-YQQ0R-W8-jEWrI60", "scope": "GOOGLE", "types": ["point_of_interest", "establishment"], "vicinity": "Calle Principes de Asturias, 1, Quijorna"}]