[{"business_status": "OPERATIONAL", "geometry": {"location": {"lat": 40.3972145, "lng": -3.4845657}, "viewport": {"northeast": {"lat": 40.39857413029149, "lng": -3.483243919708498}, "southwest": {"lat": 40.3958761697085, "lng": -3.485941880291501}}}, "icon": "https://maps.gstatic.com/mapfiles/place_api/icons/v1/png_71/bank-71.png", "icon_background_color": "#909CE1", "icon_mask_base_uri": "https://maps.gstatic.com/mapfiles/place_api/icons/v2/bank-intl_pinlet", "international_phone_number": "+34 916 79 43 70", "name": "Banco Sabadell", "opening_hours": {"open_now": false}, "photos": [{"height": 1080, "html_attributions": ["<a href=\"https://maps.google.com/maps/contrib/112305435690963084643\">Banco Sabadell</a>"], "photo_reference": "AWn5SU7x6LicGezmTyzivCpmn0CZmX4CyQPM-aMwN3LiWTq6widLr2Zt1EPctlebyjqXFxB-OvgZe0zk_4jOOZbR6_Bh-AumV3tWVr_y35kCnYQXOT6gVN6yhKMAgQ5VJULk-LB-pMibIgQhKfOSa_STsAta0PFB_qdsAfTMY2-Tci6upnZFN1npe5f01-iFPs5b8QbhsiQp3KCKE80051jGILKJa_MhK-M02Iz6UNN6GQvhRkZx2m0ugrKNEceYtgCAeMDj7tnF7rWXlv6gD9QCsar_1gPhMgWgVYr-MMULFTNWW-mIwuZWbFnUu4xXzwcCVKGh-rGNxPQ", "width": 1920}], "place_id": "ChIJi4CtaLRLSQ0R7QU0EZCb1Ic", "plus_code": {"compound_code": "9GW8+V5 Mejorada del Campo, Spain", "global_code": "8CGR9GW8+V5"}, "rating": 2.9, "reference": "ChIJi4CtaLRLSQ0R7QU0EZCb1Ic", "scope": "GOOGLE", "types": ["bank", "atm", "accounting", "finance", "point_of_interest", "establishment"], "user_ratings_total": 14, "vicinity": "Calle de la Comunidad de Madrid, 1, Mejorada del Campo"}, {"business_status": "OPERATIONAL", "geometry": {"location": {"lat": 40.3974778, "lng": -3.4845963}, "viewport": {"northeast": {"lat": 40.3987732802915, "lng": -3.483275269708498}, "southwest": {"lat": 40.3960753197085, "lng": -3.485973230291501}}}, "icon": "https://maps.gstatic.com/mapfiles/place_api/icons/v1/png_71/bank-71.png", "icon_background_color": "#909CE1", "icon_mask_base_uri": "https://maps.gstatic.com/mapfiles/place_api/icons/v2/bank-intl_pinlet", "international_phone_number": "+34 916 79 05 90", "name": "BBVA", "opening_hours": {"open_now": false}, "photos": [{"height": 720, "html_attributions": ["<a href=\"https://maps.google.com/maps/contrib/100623769660522165198\">BBVA</a>"], "photo_reference": "AWn5SU54cZeDmp0bUgSNu1g0bop2YhgtMzoRvehPRCoKMER8g3VcQUVuAcIKV-5CnY-CAUsKRUoAQWijAqt1GsKOPYR45gZTY_POOetMCKKmKVm2MkxGIkl2OuBDD7euQnGLDIsw8Eq6suXySm0YiJxytSDge9WKlbFi7C4DP1xvuyogI_v-hUvzruj6JYr29_fCWy6rjxh6zu-O6BgR-v5SKumPIqMs46JcxDzpqjfZO5wfEUcYpVmmB2r2ZJkraTPdtdP4PIQJ8EOOTzzMogdsbHLR6r_243gyzI3-nqbspn4xm0sUZg61K5eHTU52e0JKkU2FMw20OW8", "width": 1280}], "place_id": "ChIJA7V3kJQ5Qg0RiWAF8ithjfE", "plus_code": {"compound_code": "9GW8+X5 Mejorada del Campo, Spain", "global_code": "8CGR9GW8+X5"}, "rating": 1.7, "reference": "ChIJA7V3kJQ5Qg0RiWAF8ithjfE", "scope": "GOOGLE", "types": ["bank", "atm", "accounting", "finance", "point_of_interest", "establishment"], "user_ratings_total": 47, "vicinity": "Calle Mayor, 20, Mejorada del Campo"}, {"business_status": "OPERATIONAL", "geometry": {"location": {"lat": 40.3955675, "lng": -3.484160499999999}, "viewport": {"northeast": {"lat": 40.3970256302915, "lng": -3.482882069708498}, "southwest": {"lat": 40.3943276697085, "lng": -3.485580030291501}}}, "icon": "https://maps.gstatic.com/mapfiles/place_api/icons/v1/png_71/atm-71.png", "icon_background_color": "#909CE1", "icon_mask_base_uri": "https://maps.gstatic.com/mapfiles/place_api/icons/v2/atm_pinlet", "international_phone_number": "+34 913 34 07 61", "name": "Cajero Euro Automatic Cash", "opening_hours": {"open_now": true}, "photos": [{"height": 900, "html_attributions": ["<a href=\"https://maps.google.com/maps/contrib/116820580974589044390\">Cajero Euro Automatic Cash</a>"], "photo_reference": "AWn5SU5LlzF9yjROUdZHLX49InmB2l-AVe8HMN06K0n6QBrpi7EaeobYiqUbSoiNfP5vXbionUfbZtD2mzLiljMLE96BFbsydsP-GGnne3imssngRlVy27U4cPZGa_08-adthLfSi_-BuSYKyQ4o0Qg4umt513CCzyO4lvTqZzK_Vo7BLJzPMdYqCBqe7rkf4Vx-vUWd_2gZ3mEKJJVW5xH7EvxoWzVXH5pQNSxB6UpPA0-lKcRFWYHn1lUa2iYwxoqSyv3NeR--FwRLvE0UY1gkG-YWiFq_TvuC6jcX29gUlygC3OT--DD3WmBSYpmw_-69NS1po-3fMC0", "width": 1600}], "place_id": "ChIJsUGwQZQ5Qg0RTAPYKl7Fn4w", "plus_code": {"compound_code": "9GW8+68 Mejorada del Campo, Spain", "global_code": "8CGR9GW8+68"}, "reference": "ChIJsUGwQZQ5Qg0RTAPYKl7Fn4w", "scope": "GOOGLE", "types": ["atm", "finance", "point_of_interest", "establishment"], "vicinity": "Avenida Juan Gris, 2, Mejorada del Campo"}, {"business_status": "OPERATIONAL", "geometry": {"location": {"lat": 40.3969538, "lng": -3.4904598}, "viewport": {"northeast": {"lat": 40.3982346302915, "lng": -3.489098119708498}, "southwest": {"lat": 40.3955366697085, "lng": -3.491796080291501}}}, "icon": "https://maps.gstatic.com/mapfiles/place_api/icons/v1/png_71/bank-71.png", "icon_background_color": "#909CE1", "icon_mask_base_uri": "https://maps.gstatic.com/mapfiles/place_api/icons/v2/bank-intl_pinlet", "international_phone_number": "+34 916 68 06 34", "name": "Ibercaja Banco", "opening_hours": {"open_now": false}, "photos": [{"height": 900, "html_attributions": ["<a href=\"https://maps.google.com/maps/contrib/116716061441501067162\">Ibercaja Banco</a>"], "photo_reference": "AWn5SU57NNogjkL9UgIVzkzPLUQEgbBbhLM1ODtIGsln-wKqRJepUL4k0s_XpZNsMO_JH4m5Nwa-gh12InhHESnbB4FhjNNWBG5OGEbwKUuP7cvIbnihLdz9UnoaiqkSsJyrOwxDPKUuEXW7AQlquMkaX45rgI3OxzNGZl4R_kIguFMPFj2LXgPuWqphygiGHw4H8n66T_BTw9dz5scdVqYwHcVSl8B_54r8B5lUDpo0C2ibWSwdlCIHQLfXve9JdgjPpA0r2-SYQqhyjb3GBFsfBMIdrJ4015vAcr9Qc_Xwctu-aAoCIFtZQnyloLQqh-F1wLAxlPD3CAk", "width": 1600}], "place_id": "ChIJk6EWfI05Qg0ReP6bR2g9qss", "plus_code": {"compound_code": "9GW5+QR Mejorada del Campo, Spain", "global_code": "8CGR9GW5+QR"}, "rating": 2.4, "reference": "ChIJk6EWfI05Qg0ReP6bR2g9qss", "scope": "GOOGLE", "types": ["bank", "atm", "accounting", "finance", "point_of_interest", "establishment"], "user_ratings_total": 8, "vicinity": "Avenida de la Constitución, 24, Mejorada del Campo"}, {"business_status": "OPERATIONAL", "geometry": {"location": {"lat": 40.3966513, "lng": -3.4905005}, "viewport": {"northeast": {"lat": 40.3980751302915, "lng": -3.489165569708498}, "southwest": {"lat": 40.3953771697085, "lng": -3.491863530291502}}}, "icon": "https://maps.gstatic.com/mapfiles/place_api/icons/v1/png_71/bank-71.png", "icon_background_color": "#909CE1", "icon_mask_base_uri": "https://maps.gstatic.com/mapfiles/place_api/icons/v2/bank-intl_pinlet", "international_phone_number": "+34 916 79 05 66", "name": "Banco Santander", "opening_hours": {"open_now": false}, "photos": [{"height": 720, "html_attributions": ["<a href=\"https://maps.google.com/maps/contrib/117057389445420278250\">Banco Santander</a>"], "photo_reference": "AWn5SU5QtYgri1IbF_fuEVD816sZif7tBWYk3Wf1FBgKurMD2n0-XnBuHHrhBXiL07xt5QM0ANgbQ0b_4Ad31shWsj-GsPUWZmmRnFeYA_FTgGB125PdUHQQXQ4DbLNnm3bmlPFm6kTNVmmjK4jvOld4WXTH8lSj53vnMZfejlPZUSscv-aufDdT4toG7Yuz2_jKinIwMBw7_-jpyIi9y85WNtx2ICVvE69gHzS1ROEcwPl9Y4uHIc99uHCEkk1SlHPyunq6LDzdcT3wwUJ2MQOEiNGAMQ8fwK6w8exT7h94xrT787qFdg3MXCnzOV856GzWN42-rhhWijY", "width": 1280}], "place_id": "ChIJu9c_X-05Qg0RDuATVahdb0w", "plus_code": {"compound_code": "9GW5+MQ Mejorada del Campo, Spain", "global_code": "8CGR9GW5+MQ"}, "rating": 2.1, "reference": "ChIJu9c_X-05Qg0RDuATVahdb0w", "scope": "GOOGLE", "types": ["bank", "atm", "finance", "point_of_interest", "establishment"], "user_ratings_total": 21, "vicinity": "Avenida de la Constitución, 23, Mejorada del Campo"}, {"business_status": "OPERATIONAL", "geometry": {"location": {"lat": 40.3971055, "lng": -3.4845479}, "viewport": {"northeast": {"lat": 40.39837498029149, "lng": -3.483216019708498}, "southwest": {"lat": 40.39567701970849, "lng": -3.485913980291502}}}, "icon": "https://maps.gstatic.com/mapfiles/place_api/icons/v1/png_71/atm-71.png", "icon_background_color": "#909CE1", "icon_mask_base_uri": "https://maps.gstatic.com/mapfiles/place_api/icons/v2/atm_pinlet", "international_phone_number": "+34 963 08 50 00", "name": "Cajero Banco Sabadell", "place_id": "ChIJY49Xj5Q5Qg0RikTGGeAlEX8", "plus_code": {"compound_code": "9GW8+R5 Mejorada del Campo, Spain", "global_code": "8CGR9GW8+R5"}, "reference": "ChIJY49Xj5Q5Qg0RikTGGeAlEX8", "scope": "GOOGLE", "types": ["atm", "finance", "point_of_interest", "establishment"], "vicinity": "Calle de la Comunidad de Madrid, 1, Mejorada del Campo"}, {"business_status": "OPERATIONAL", "geometry": {"location": {"lat": 40.39709179999999, "lng": -3.4842068}, "viewport": {"northeast": {"lat": 40.3984554802915, "lng": -3.482753569708498}, "southwest": {"lat": 40.3957575197085, "lng": -3.485451530291502}}}, "icon": "https://maps.gstatic.com/mapfiles/place_api/icons/v1/png_71/atm-71.png", "icon_background_color": "#909CE1", "icon_mask_base_uri": "https://maps.gstatic.com/mapfiles/place_api/icons/v2/atm_pinlet", "international_phone_number": "+34 900 404 090", "name": "ATM CaixaBank - Cajero", "opening_hours": {"open_now": true}, "photos": [{"height": 681, "html_attributions": ["<a href=\"https://maps.google.com/maps/contrib/111828290594356520451\">ATM CaixaBank - Cajero</a>"], "photo_reference": "AWn5SU6NKpqAKdZT-ng3Z9SdjDvp5oyf5fBoWYLgDaC9QvmaS-ptHs8y5sWYhsVIato2muwFtABJQ_-47S_tga3Zp3GJmd2c1Nb97FuHSRYwt1Inbfs-wpDccn3OfiJ9K5JxUlAQPgpEkRUCmTWIqP8WLprtVyMYT28NIJVC5IFz8fpRVu2DdwYyVHtMGE69atlmQBG6XEJ9JxuvBbjaD7zhxq-I1ngNbG-TGEEq21vgQz-Rei012z6pk4umWbrHmJqJA3vngiM892LI5u46hLM48kAq_33Zs7trX0N0jFKeta1Api0KWChzqnl-NtUYkNcLqXZlVrSSK74", "width": 1024}], "place_id": "ChIJYTymnk85Qg0RYCiaPJy46ag", "plus_code": {"compound_code": "9GW8+R8 Mejorada del Campo, Spain", "global_code": "8CGR9GW8+R8"}, "reference": "ChIJYTymnk85Qg0RYCiaPJy46ag", "scope": "GOOGLE", "types": ["atm", "finance", "point_of_interest", "establishment"], "vicinity": "Avenida de la Concordia, 19, Mejorada del Campo"}, {"business_status": "OPERATIONAL", "geometry": {"location": {"lat": 40.395565, "lng": -3.4842513}, "viewport": {"northeast": {"lat": 40.39706338029151, "lng": -3.482790869708499}, "southwest": {"lat": 40.39436541970851, "lng": -3.485488830291502}}}, "icon": "https://maps.gstatic.com/mapfiles/place_api/icons/v1/png_71/atm-71.png", "icon_background_color": "#909CE1", "icon_mask_base_uri": "https://maps.gstatic.com/mapfiles/place_api/icons/v2/atm_pinlet", "international_phone_number": "+34 900 404 090", "name": "ATM CaixaBank - Cajero", "photos": [{"height": 900, "html_attributions": ["<a href=\"https://maps.google.com/maps/contrib/113217139724894121261\">ATM CaixaBank - Cajero</a>"], "photo_reference": "AWn5SU4tQCG9A2bchaElfnmrVvOh8n0oaZikZkLf7_I5tr8GZQ4ahbAcMcK1P1QimygS6dQSspBzGumQ0EA4W0g4DQbFLoKS8PgytdbHGl7Xo94gxr7J0VSZpLSHGv9B47KjtqY0VQ6gYkYlA__sfitla5MjAdd8dekhk4OEyO5vBR_P9a1akPSboTldt3XUzNeYoQlkTrrRoFg8fjYA070vaULe1eIBCTvtGpDQD1qXsFIt3tHk7wI6swKvZEyELXjYTSyreH7IrKHbsfpV-9rxQWHS654YxtM46_Xm2tBY1WutUE38j2K2hK0MNGMsS1qn0Q48jkXlwUg", "width": 1600}], "place_id": "ChIJNcP6Nlo5Qg0RW4nCfLdnvZc", "plus_code": {"compound_code": "9GW8+67 Mejorada del Campo, Spain", "global_code": "8CGR9GW8+67"}, "reference": "ChIJNcP6Nlo5Qg0RW4nCfLdnvZc", "scope": "GOOGLE", "types": ["atm", "finance", "point_of_interest", "establishment"], "vicinity": "C.C, Avenida Juan Gris, Mejorada del Campo"}, {"business_status": "OPERATIONAL", "geometry": {"location": {"lat": 40.3955675, "lng": -3.484160499999999}, "viewport": {"northeast": {"lat": 40.3970256302915, "lng": -3.482882069708498}, "southwest": {"lat": 40.3943276697085, "lng": -3.485580030291501}}}, "icon": "https://maps.gstatic.com/mapfiles/place_api/icons/v1/png_71/atm-71.png", "icon_background_color": "#909CE1", "icon_mask_base_uri": "https://maps.gstatic.com/mapfiles/place_api/icons/v2/atm_pinlet", "name": "Punto Nickel - LOCUTORIO DAMYER", "opening_hours": {"open_now": false}, "place_id": "ChIJMUN_GmY5Qg0Re-OaYPlhpCA", "plus_code": {"compound_code": "9GW8+68 Mejorada del Campo, Spain", "global_code": "8CGR9GW8+68"}, "reference": "ChIJMUN_GmY5Qg0Re-OaYPlhpCA", "scope": "GOOGLE", "types": ["atm", "bank", "finance", "point_of_interest", "establishment"], "vicinity": "Avenida Juan Gris, 2, LOCAL 5, Mejorada del Campo"}, {"business_status": "OPERATIONAL", "geometry": {"location": {"lat": 40.3950659, "lng": -3.4844496}, "viewport": {"northeast": {"lat": 40.3965080302915, "lng": -3.483011669708498}, "southwest": {"lat": 40.39381006970851, "lng": -3.485709630291502}}}, "icon": "https://maps.gstatic.com/mapfiles/place_api/icons/v1/png_71/atm-71.png", "icon_background_color": "#909CE1", "icon_mask_base_uri": "https://maps.gstatic.com/mapfiles/place_api/icons/v2/atm_pinlet", "name": "Punto Nickel - LOCUTORIO CONFORNET", "opening_hours": {"open_now": false}, "place_id": "ChIJL2NTQM05Qg0RvnfKnE2F-sw", "plus_code": {"compound_code": "9GW8+26 Mejorada del Campo, Spain", "global_code": "8CGR9GW8+26"}, "rating": 5, "reference": "ChIJL2NTQM05Qg0RvnfKnE2F-sw", "scope": "GOOGLE", "types": ["atm", "bank", "finance", "point_of_interest", "establishment"], "user_ratings_total": 1, "vicinity": "Avenida Juan Gris, 4, Local 19, Mejorada del Campo"}, {"business_status": "OPERATIONAL", "geometry": {"location": {"lat": 40.39197849999999, "lng": -3.4847191}, "viewport": {"northeast": {"lat": 40.39345263029149, "lng": -3.483378169708498}, "southwest": {"lat": 40.39075466970849, "lng": -3.486076130291501}}}, "icon": "https://maps.gstatic.com/mapfiles/place_api/icons/v1/png_71/atm-71.png", "icon_background_color": "#909CE1", "icon_mask_base_uri": "https://maps.gstatic.com/mapfiles/place_api/icons/v2/atm_pinlet", "name": "Punto Nickel - ESTANCO MEJORADA DEL CAMPO 002", "opening_hours": {"open_now": false}, "place_id": "ChIJxVHI7LE5Qg0RntK8UKCKT7U", "plus_code": {"compound_code": "9GR8+Q4 Mejorada del Campo, Spain", "global_code": "8CGR9GR8+Q4"}, "reference": "ChIJxVHI7LE5Qg0RntK8UKCKT7U", "scope": "GOOGLE", "types": ["atm", "bank", "finance", "point_of_interest", "establishment"], "vicinity": "Calle Francisco de Goya, 8, LOCAL 18, Mejorada del Campo"}]