[{"geometry": {"location": {"lat": 40.2744815, "lng": -3.9111089}, "viewport": {"northeast": {"lat": 40.29492775590274, "lng": -3.899415416666351}, "southwest": {"lat": 40.25868812367635, "lng": -3.93246049320753}}}, "icon": "https://maps.gstatic.com/mapfiles/place_api/icons/v1/png_71/geocode-71.png", "icon_background_color": "#7B9EB0", "icon_mask_base_uri": "https://maps.gstatic.com/mapfiles/place_api/icons/v2/generic_pinlet", "name": "Arroyomolinos", "photos": [{"height": 1816, "html_attributions": ["<a href=\"https://maps.google.com/maps/contrib/105024828048042632684\">Borja Fajardo</a>"], "photo_reference": "AWn5SU7MNU7GvXWB1LZ6rZukC6K8Uvut12A_FXbqYPZI-8_sZwBQG2y4YC6OAhxGPxkQEpSCuVwxexd9ZcfgYap-K9EffnQqY--vepqkVmGewedDoVfkILzzVJZQ-hhHxmjfodI4xOxgneGM6qFm4LMpywYrg3HQj6E_46x3GaWB-a_Yojw4jG8BVGQzC3qsotN1FF3BKU5B9LAuzzvY-IQYobdEm955-M-yc2q2ljjJ_uvfRLAQSAky0O6rUyiD-I9I0rRKa4BRKN8B7dKMXHyFYc4krRD2_opAgqxT56WDUibdVONN243nx-7sT04dLBruZhi4VuAtY3VbGIFIY-_CTrRgd3DOSVnX1grOA1djfD3x-E5RXN9lWyyOesYNzopM-H6GBUnnVUkZA5owb_OMTx0tuZS7ZzZ2ZJ5gLfjTIxbAu925VNIjJO7Ttnk6z-dcEL71tJWwtPCwoGSwumyMkvFtyxHt1pXfAuY24CI618vj7rqyqVgwG5516EopkDxm-aCUkg7qY1fOq-ZNreXWpqJN-R0BfzyDOfDlUbjfQyVohdKzxjn5xgYHwKhHktWYc0pqJ-QdnrARq7c8_nwsRu1pmNnImd-jWZXHFJKhrrkiaKI6SFffpiTYmlY6TVkw0gnVwg", "width": 4032}], "place_id": "ChIJJemvUJaSQQ0RapVjTnsPUsg", "reference": "ChIJJemvUJaSQQ0RapVjTnsPUsg", "scope": "GOOGLE", "types": ["locality", "political"], "vicinity": "Arroyomolinos"}, {"business_status": "OPERATIONAL", "geometry": {"location": {"lat": 40.26954, "lng": -3.9200026}, "viewport": {"northeast": {"lat": 40.2708909302915, "lng": -3.918621969708499}, "southwest": {"lat": 40.26819296970851, "lng": -3.921319930291503}}}, "icon": "https://maps.gstatic.com/mapfiles/place_api/icons/v1/png_71/bank-71.png", "icon_background_color": "#909CE1", "icon_mask_base_uri": "https://maps.gstatic.com/mapfiles/place_api/icons/v2/bank-intl_pinlet", "international_phone_number": "+34 916 89 70 05", "name": "BBVA", "opening_hours": {"open_now": false}, "photos": [{"height": 720, "html_attributions": ["<a href=\"https://maps.google.com/maps/contrib/112301721007351783308\">BBVA</a>"], "photo_reference": "AWn5SU6OvwCkFmM10mztC7jL8WdnsOussBJD9_rhBWtbspe4pybktjUx2NdZl00OgQb0BeTxVpEFb0vKJVM6tx7KuQY7AT-jRXnWJ6zmsGvmTdLc6mEBX4roDiSk-F4GQE5Ea9wkbMWOEe6vstT2Ts72lu1mPhjePXdDeJQg1vIMXiVSbNHQro3pcshmGP58FychL0z4pVdPaiHXOmlR4y_XCajzI8upjz6kvgwyPk8z1jXNc6wYJL9OGR8cQny_MvNAKrXLMI1dOOwOGnmsGtxpzb9q4HJah44O2Wkrxv-g0ecQqaxIclshHKclx-nNuSqzyaI3K_bCMCA", "width": 1280}], "place_id": "ChIJy1DyFZGSQQ0RCl03YX2vzJI", "plus_code": {"compound_code": "739H+RX Arroyomolinos, Spain", "global_code": "8CGR739H+RX"}, "rating": 1.8, "reference": "ChIJy1DyFZGSQQ0RCl03YX2vzJI", "scope": "GOOGLE", "types": ["bank", "atm", "accounting", "finance", "point_of_interest", "establishment"], "user_ratings_total": 41, "vicinity": "Calle de la Fuente, 7, Arroyomolinos"}, {"business_status": "OPERATIONAL", "geometry": {"location": {"lat": 40.2735008, "lng": -3.9226071}, "viewport": {"northeast": {"lat": 40.2749131302915, "lng": -3.921266869708498}, "southwest": {"lat": 40.2722151697085, "lng": -3.923964830291502}}}, "icon": "https://maps.gstatic.com/mapfiles/place_api/icons/v1/png_71/generic_business-71.png", "icon_background_color": "#7B9EB0", "icon_mask_base_uri": "https://maps.gstatic.com/mapfiles/place_api/icons/v2/generic_pinlet", "international_phone_number": "+34 622 93 93 64", "name": "Fisioterapeutas Arroyomolinos - Energy Pilates", "opening_hours": {"open_now": false}, "photos": [{"height": 1058, "html_attributions": ["<a href=\"https://maps.google.com/maps/contrib/107623167127306439065\">Fisioterapeutas Arroyomolinos - Energy Pilates</a>"], "photo_reference": "AWn5SU7FA33K5rQBbiHnRxBdY9yIaKypFUhsh0O4JG-43uXDHJATAerx8u1JYcrjxssH0pOmMl3uMpgV79YYfP8fWhQ0PMo_gVnRzPMQUgx-yD8f5yu_mXqMF_HXwsGx4fR5ZgOLAOn7_lJ4oIWTy6goHuP4FKalcN0BUzgkfF2Ivgde16qthX_YiV3dmeW_18TatECAfSWwI0zBYXHWL0brHxiZXc2sEj4t_Ka6LNetgdheJYmC5jtUq2VR7QWfMOQ2knauDLtvVGYQa3GVB4gR4B6HKvIzl9cWPYMwJ6V_7QjGvkFN35xo3NLuP-kmdcMeeREk3CUYhNo", "width": 1058}], "place_id": "ChIJtedy6aIoQg0R2BfbYf02P00", "plus_code": {"compound_code": "73FG+CX Arroyomolinos, Spain", "global_code": "8CGR73FG+CX"}, "rating": 4.6, "reference": "ChIJtedy6aIoQg0R2BfbYf02P00", "scope": "GOOGLE", "types": ["physiotherapist", "gym", "point_of_interest", "health", "establishment"], "user_ratings_total": 68, "vicinity": "Avenida de las Castañeras, 32, Arroyomolinos"}, {"business_status": "OPERATIONAL", "geometry": {"location": {"lat": 40.2802347, "lng": -3.9260563}, "viewport": {"northeast": {"lat": 40.2814899302915, "lng": -3.924672369708497}, "southwest": {"lat": 40.2787919697085, "lng": -3.927370330291502}}}, "icon": "https://maps.gstatic.com/mapfiles/place_api/icons/v1/png_71/generic_business-71.png", "icon_background_color": "#7B9EB0", "icon_mask_base_uri": "https://maps.gstatic.com/mapfiles/place_api/icons/v2/generic_pinlet", "international_phone_number": "+34 629 05 23 65", "name": "Imágenes Aéreas", "photos": [{"height": 654, "html_attributions": ["<a href=\"https://maps.google.com/maps/contrib/117713429341191778318\">Imágenes Aéreas</a>"], "photo_reference": "AWn5SU4smczNNON7u7KF2jW8Xv3meFiwJp16LSH59YM0y3AuukEfCSlGx5elJyWT8zZZ2K9lBOMGfqTHvva_aFTxN9mBZX74Srwkt93I-9tP9IJ2TqaInmGsRr6LybZAbUscW2YgLolx8iqVf__w2Xg6VBN5ZoGBQKOER5kdz7-ifSfjtkDh9Q-G7s7ZdgqNWmR1qOONNNh3QxRx4gTMtdEliR9gsK6i4aO7bY3PXCAQn5yqTgsThlViY-lOkO_27cJr6fQFDhEhVNj64oPmEBxGFUQ7Rw8jvdK0JilKGq7qtMu-RGNr6iA848vfr1XznVrHDWv9bIdfoJ0", "width": 980}], "place_id": "ChIJAQDQc1woQg0Rkf7wTS7OXHM", "plus_code": {"compound_code": "73JF+3H Arroyomolinos, Spain", "global_code": "8CGR73JF+3H"}, "rating": 5, "reference": "ChIJAQDQc1woQg0Rkf7wTS7OXHM", "scope": "GOOGLE", "types": ["point_of_interest", "store", "establishment"], "user_ratings_total": 2, "vicinity": "Avenida de Francia, 83, Arroyomolinos"}, {"business_status": "OPERATIONAL", "geometry": {"location": {"lat": 40.2739632, "lng": -3.9128361}, "viewport": {"northeast": {"lat": 40.2753807302915, "lng": -3.911342519708498}, "southwest": {"lat": 40.2726827697085, "lng": -3.914040480291503}}}, "icon": "https://maps.gstatic.com/mapfiles/place_api/icons/v1/png_71/civic_building-71.png", "icon_background_color": "#7B9EB0", "icon_mask_base_uri": "https://maps.gstatic.com/mapfiles/place_api/icons/v2/civic-bldg_pinlet", "international_phone_number": "+34 916 89 96 12", "name": "Guardia Civil de Arroyomolinos-Humanes", "opening_hours": {"open_now": true}, "photos": [{"height": 2080, "html_attributions": ["<a href=\"https://maps.google.com/maps/contrib/100046698271826312477\">JL Iz</a>"], "photo_reference": "AWn5SU4i_MdG4GaproXVfYPHl4-YXlS6SdIsQEhnp6UntbN1pLI5XfvS9ssaYQdPnWxUOztoOlcp2IKeI7zYOBvY2ZfgFLljzaS1x9WgQ9mzYw_GcrfFjhAMuogiHI4Y7-Do1I5IXM7w-a7PHB1x1xOgJ830qeIYM2mz1D4v2d564YrYnFjCKiXgZGLJCnjZQohcQsqlc-eWn2vEaOTuJJ5dEPuR_UAX1VLaFjxRqb2CEy7ndNSPpkz3saDrO2zEKxW0YihhJnedclmXyOEbak3EzDX4j88OpcBrFvWsSLldvrdUJbH5lhQKK79uAoDMIXYutmN0R8ATKUEaiXxo1Rmvu_gRndEBKbkyJwotXkMcCmvEjD_y1oER9xpqhU8pFAyf6O3tUXa0-XnFCUQqVg4fUYAAawxJDVbJ33vGJt78EoOvBZFCgRMFTb9amQTciv7yyqQxRMalfP9xRjUgcrOqwfHliXHSAoC9htlC-VMM617JCZtG6PfFkrrf34Cs2YZtSSnlASyc6UNsJ9o1R7UZVwvNWLemxW_pCx3R8DksgCINrc1OHV95LqYjP3bkfhbUCint-YUwM3Vu4gsnO7vVpe7CujYHChqRK12gcVcUFTTc7n61vLjiDBoP1v2425a3LHgwcY1b", "width": 4624}], "place_id": "ChIJNfmUm5qSQQ0RxtkMROwsf6k", "plus_code": {"compound_code": "73FP+HV Arroyomolinos, Spain", "global_code": "8CGR73FP+HV"}, "rating": 4.6, "reference": "ChIJNfmUm5qSQQ0RxtkMROwsf6k", "scope": "GOOGLE", "types": ["police", "point_of_interest", "establishment"], "user_ratings_total": 22, "vicinity": "Calle Madrid, 33, Arroyomolinos"}, {"business_status": "OPERATIONAL", "geometry": {"location": {"lat": 40.27447739999999, "lng": -3.9209923}, "viewport": {"northeast": {"lat": 40.2758566802915, "lng": -3.919710619708497}, "southwest": {"lat": 40.2731587197085, "lng": -3.922408580291502}}}, "icon": "https://maps.gstatic.com/mapfiles/place_api/icons/v1/png_71/generic_business-71.png", "icon_background_color": "#7B9EB0", "icon_mask_base_uri": "https://maps.gstatic.com/mapfiles/place_api/icons/v2/generic_pinlet", "international_phone_number": "+34 916 09 14 20", "name": "MITATA, Escuela Infantil", "opening_hours": {"open_now": false}, "photos": [{"height": 768, "html_attributions": ["<a href=\"https://maps.google.com/maps/contrib/108505102840350096834\">MITATA, Escuela Infantil</a>"], "photo_reference": "AWn5SU6lUI6y7y_CSNaxfBiJRDysTumcEqKB96LdE6-GiaFNORy77Nn_hCO0xNC6nvkX3uXDeZHxcyxkPD_mAWRMOl_f3dfYDq8OVC0PSk7L6Ljx77lizNnOVRxd4WSYqo3v1j23Vg9KC7siRd2yf08YSoNxIsd3Y8jIBsCVqLcttHkK8FxlaMhId3hGSNhLzI-jkocMySYRg_z8XTXNvqiXP9vg8q7VmijXFCz4pzYSfhnLbtatbYls6TGuYhsuPq4brbPaTSRdWtMvlF2wjW4wQ9hSku-GtSvmJqmz_abVfgineFfg8jwraje2LUhzr9EddbuQF8kgFE0", "width": 1024}], "place_id": "ChIJP-5aDY6SQQ0RrhMk3ds-BBc", "plus_code": {"compound_code": "73FH+QJ Arroyomolinos, Spain", "global_code": "8CGR73FH+QJ"}, "rating": 4.8, "reference": "ChIJP-5aDY6SQQ0RrhMk3ds-BBc", "scope": "GOOGLE", "types": ["point_of_interest", "health", "establishment"], "user_ratings_total": 39, "vicinity": "Avenida de las Castañeras, 34, Arroyomolinos"}, {"business_status": "OPERATIONAL", "geometry": {"location": {"lat": 40.28086, "lng": -3.91876}, "viewport": {"northeast": {"lat": 40.2822594302915, "lng": -3.917486169708498}, "southwest": {"lat": 40.27956146970851, "lng": -3.920184130291502}}}, "icon": "https://maps.gstatic.com/mapfiles/place_api/icons/v1/png_71/shopping-71.png", "icon_background_color": "#4B96F3", "icon_mask_base_uri": "https://maps.gstatic.com/mapfiles/place_api/icons/v2/shoppingcart_pinlet", "international_phone_number": "+34 900 958 311", "name": "Lidl", "opening_hours": {"open_now": false}, "photos": [{"height": 3024, "html_attributions": ["<a href=\"https://maps.google.com/maps/contrib/117164244456785404159\">thegamer blanco</a>"], "photo_reference": "AWn5SU7oxi9anUuoRJgZlDzxcYi0ZQMVWjg0n0f2PztjEUz-mVvuvc9YGyFv1NP0vER78KRu1FLTNTTP2O97raPIT5ySuA2N4K0i_kUA2xC9cL2zdTWDJJPvy-TancQGpKx_aYRVWjd8B_jDT9z5v197I_R9oIzuS78HLG5z4uDmtaL_ja7Jo2gaDvbOAmvb6rKU7RU1yE4dCGmT3REENwMxMQ78MP5Py0GKHEScuD0H9qsURHHAWeZh_h7c0tRpQLFJdQk7LNL2knm4QYz-1QtAvH7iaxZSc9lYX_Nzh6_ZSRbknUX_IZg2FvDyEhrO7HqQ5yhGpNEaE36eWj5ROnO7poytSHWz43Eq_rqA2zrN7HGzjZ1O0Z6XVAKtXNBx_DH7rSmI5Prm25Ox8lfllHGcwuUzPqB3qlCg8Ni26_cZFJ09Xy8nLQkfBCrA2pRXHj9B0NKpIWAwUSEhPpnPIJ_Xz5Cm1bLincOw7PoErYEOq9rNEXJBznVdS-4TlkEAA0nFJl4LxkFjDnWQb2_kv36wb85j4YzlZIgcCr8ErmAuzAgFNBfdR1DhEkGepGEy5noZDVhLgiCbgISbSe9nQgSPi1JtyVnNDQwYIC7vtD7xQG8-D9yZw6ZChBB3C1YGd6nHFojRyi-B", "width": 4032}], "place_id": "ChIJe6QI_IiSQQ0RJ-GrlgokZ5w", "plus_code": {"compound_code": "73JJ+8F Arroyomolinos, Spain", "global_code": "8CGR73JJ+8F"}, "rating": 4.2, "reference": "ChIJe6QI_IiSQQ0RJ-GrlgokZ5w", "scope": "GOOGLE", "types": ["supermarket", "grocery_or_supermarket", "food", "point_of_interest", "store", "establishment"], "user_ratings_total": 1719, "vicinity": "Calle de Marbella, 74, Arroyomolinos"}, {"business_status": "OPERATIONAL", "geometry": {"location": {"lat": 40.274153, "lng": -3.9185082}, "viewport": {"northeast": {"lat": 40.2755140802915, "lng": -3.917514519708498}, "southwest": {"lat": 40.2728161197085, "lng": -3.920212480291502}}}, "icon": "https://maps.gstatic.com/mapfiles/place_api/icons/v1/png_71/school-71.png", "icon_background_color": "#7B9EB0", "icon_mask_base_uri": "https://maps.gstatic.com/mapfiles/place_api/icons/v2/school_pinlet", "international_phone_number": "+34 916 09 12 83", "name": "Public school the Castañeras", "photos": [{"height": 3000, "html_attributions": ["<a href=\"https://maps.google.com/maps/contrib/111953426491916305171\">David Goliathp</a>"], "photo_reference": "AWn5SU76A8Db3O8r3MDuTnDwuxbX5UZnP0cPioXUZ_LYc2IABpDH2borAcp5dSJw99uhkW5OtgbvF6pERSnbdvzf8F93SVhNGUW_Ib0ihyKSUfQReZikVdG1vO1HYN_U6kNkiue08Cm4Lh4gcflzJnPc9NU1UyRkoWc0yb4vq9GXaizOXth_4jOm1W2jdQCPYBMlQ6hZPICpsLi4ANSu2aOD0S1_hVUIvABre2OFzf9ovwJoQgCmKsHCaTsJNl3ErjSrfh18_YgXb8wy_q_FvV07NtD5QYMQKOe9k6qlI_FCDpSRWuI4EMJFiCT6NDJ3jY1VjGscrUcHWYfEh46X4ZTy011S-VZv_FYztu36_nlU2jW2Iwn-W02uQxgupyKazo1FOeWACba1GyHj9no-s8enq11j5eDPTu9Sp5Uap_CB-ZZR6-_2SwZWUadGaVl66nuRDwTLKKrqqV78PNJ-2YxVLSPA_P__dwvs170SuXMAWvcoBOLEX1ryvMCFQtQXaOQvBx_9TaQXCjmgWx-WoKykBEdSYL_iW149KyyG0O4ByYp_jbIFjclZLSHY9ostFc0IBEe4gpundFnOYOqYCLLRQwTuQ3DBm_FoptM6tkC5MWVPTyRy7vr4OUiKUmfyOPawlG_KiQ", "width": 4000}], "place_id": "ChIJE_GC-pGSQQ0RVeftfZEAY9s", "plus_code": {"compound_code": "73FJ+MH Arroyomolinos, Spain", "global_code": "8CGR73FJ+MH"}, "reference": "ChIJE_GC-pGSQQ0RVeftfZEAY9s", "scope": "GOOGLE", "types": ["point_of_interest", "school", "establishment"], "vicinity": "Calle de Andalucía, 8, Arroyomolinos"}, {"business_status": "OPERATIONAL", "geometry": {"location": {"lat": 40.2694702, "lng": -3.920618999999999}, "viewport": {"northeast": {"lat": 40.2708045802915, "lng": -3.919235369708497}, "southwest": {"lat": 40.2681066197085, "lng": -3.921933330291501}}}, "icon": "https://maps.gstatic.com/mapfiles/place_api/icons/v1/png_71/generic_business-71.png", "icon_background_color": "#7B9EB0", "icon_mask_base_uri": "https://maps.gstatic.com/mapfiles/place_api/icons/v2/generic_pinlet", "international_phone_number": "+34 916 89 90 22", "name": "MAPFRE", "opening_hours": {"open_now": false}, "photos": [{"height": 2431, "html_attributions": ["<a href=\"https://maps.google.com/maps/contrib/102376323190450226952\">MAPFRE</a>"], "photo_reference": "AWn5SU43TJJmF7-YayK7trL_fxYoIY2TEapFmTTViKvy0Z_sUbbJgmh4KWkT3s0P5-MAjFFjyj9pt1gkGRIxTcQJ-yDPQD0Z4MJdOcTaKCO5RaLAuCDu4kxRLFpkHxwvHToIkQpGqlJsUow7mWKiTK2UgpzigeCQOuv5kI-eq_xxw5PyuqpBLV7YXyyBS0EYjuVGMrf4YkM0kR8wyj8zb3z6GWdJ8e-x7Al76rjVSwClMQM1rDOfcAmDFW3ClDF1M4Hd8Wi9Satutq2LY7KR9iwQxFJllSqW3bjmPpgoe_eHkBNhriaLVQAybW5DL9UW2kb7NyTC0tSGtaM", "width": 1758}], "place_id": "ChIJCSj5P5GSQQ0Rno26dlkkvWc", "plus_code": {"compound_code": "739H+QQ Arroyomolinos, Spain", "global_code": "8CGR739H+QQ"}, "rating": 3.5, "reference": "ChIJCSj5P5GSQQ0Rno26dlkkvWc", "scope": "GOOGLE", "types": ["insurance_agency", "accounting", "finance", "point_of_interest", "health", "establishment"], "user_ratings_total": 11, "vicinity": "Calle de la Iglesia, 6, Arroyomolinos"}, {"business_status": "OPERATIONAL", "geometry": {"location": {"lat": 40.2699829, "lng": -3.9202733}, "viewport": {"northeast": {"lat": 40.27129283029149, "lng": -3.918955019708498}, "southwest": {"lat": 40.26859486970849, "lng": -3.921652980291502}}}, "icon": "https://maps.gstatic.com/mapfiles/place_api/icons/v1/png_71/generic_business-71.png", "icon_background_color": "#7B9EB0", "icon_mask_base_uri": "https://maps.gstatic.com/mapfiles/place_api/icons/v2/generic_pinlet", "international_phone_number": "+34 916 85 54 72", "name": "Deluxe Peluqueros", "opening_hours": {"open_now": false}, "photos": [{"height": 1016, "html_attributions": ["<a href=\"https://maps.google.com/maps/contrib/105900525241325637236\">Deluxe Peluqueros</a>"], "photo_reference": "AWn5SU7HNcqiN9L0Jy_0VKNi74OBM99uiekvfKf3TkqtNPg59LktyVMRZI15xT08tofQsdg_s8uyc9vOiUrTjYBPtY_9L-8G2fi5xjvJzBas5NOPo1bmV5Xwq6luX1Um-aIz5G_-LVWCULMNgKZkmoiUMLGGcK6ZkUUH_4zEiqrKCJ66DLjDZrfddddJoLUrfZHZS9KtGp4fqpb3bsSVlrPVrp16cjiaHjnY3kp9btRI3pv7dPwqamFcQDfGqUw_jKLoXsMvPtvrLD-N67GO7btn2BJT9tgDQeyeQzKCGycQSmVSn_hOyL92uc4JN075XFawbPI_kGZu2yA", "width": 1440}], "place_id": "ChIJByT9bZGSQQ0RYRMNl5u6tJ8", "plus_code": {"compound_code": "739H+XV Arroyomolinos, Spain", "global_code": "8CGR739H+XV"}, "rating": 4.7, "reference": "ChIJByT9bZGSQQ0RYRMNl5u6tJ8", "scope": "GOOGLE", "types": ["hair_care", "beauty_salon", "spa", "point_of_interest", "establishment"], "user_ratings_total": 87, "vicinity": "Plaza de España, 3, Arroyomolinos"}, {"business_status": "OPERATIONAL", "geometry": {"location": {"lat": 40.2748992, "lng": -3.918319}, "viewport": {"northeast": {"lat": 40.2761681302915, "lng": -3.916924869708498}, "southwest": {"lat": 40.2734701697085, "lng": -3.919622830291502}}}, "icon": "https://maps.gstatic.com/mapfiles/place_api/icons/v1/png_71/generic_business-71.png", "icon_background_color": "#7B9EB0", "icon_mask_base_uri": "https://maps.gstatic.com/mapfiles/place_api/icons/v2/generic_pinlet", "international_phone_number": "+34 662 58 72 52", "name": "PRD&CONSULTORES EMPRESARIALES S.L.", "photos": [{"height": 415, "html_attributions": ["<a href=\"https://maps.google.com/maps/contrib/104160077139248712117\">PRD&amp;CONSULTORES EMPRESARIALES S.L.</a>"], "photo_reference": "AWn5SU7_PWmo_QzXIvXm6wp3qMaJPH-3-gl-wwccoO3alv3C7FiWXdzT1R2WY0BuvnQbxOUvavzNFS7i7Ka_2X8qbfOvUWk_DmXskFYKizXlpFakZxh9UfCzrcxTX6_hxdQdSziuiGV6sPvBSIRz7zHytLBZZEL9hTdxGhauEURED8_axfZ-ztDO9elOXE20zX-l-N6R37XEG12tnRJYEWEdnoj2-qUasZj9zVS_WdLpx6PrMb6x3eHzRNsgIJhHt5JdmINuZutD_Xtmn2Ao-8MiP50hyeozzNBZezXV87VQpzphmMNOAXxx6VEvfEW5SVpuTrHv4m3T70s", "width": 625}], "place_id": "ChIJS1_UF94nQg0RqBNDWNeYDD8", "plus_code": {"compound_code": "73FJ+XM Arroyomolinos, Spain", "global_code": "8CGR73FJ+XM"}, "reference": "ChIJS1_UF94nQg0RqBNDWNeYDD8", "scope": "GOOGLE", "types": ["real_estate_agency", "point_of_interest", "establishment"], "vicinity": "Calle Roquetas de Mar, 5, Arroyomolinos"}, {"business_status": "OPERATIONAL", "geometry": {"location": {"lat": 40.2764495, "lng": -3.916672}, "viewport": {"northeast": {"lat": 40.2778981302915, "lng": -3.914945669708497}, "southwest": {"lat": 40.2752001697085, "lng": -3.917643630291502}}}, "icon": "https://maps.gstatic.com/mapfiles/place_api/icons/v1/png_71/school-71.png", "icon_background_color": "#7B9EB0", "icon_mask_base_uri": "https://maps.gstatic.com/mapfiles/place_api/icons/v2/school_pinlet", "international_phone_number": "+34 678 07 27 68", "name": "Centro Educativo A3", "opening_hours": {"open_now": false}, "place_id": "ChIJMwLgwIiSQQ0RP_tIRvSziaA", "plus_code": {"compound_code": "73GM+H8 Arroyomolinos, Spain", "global_code": "8CGR73GM+H8"}, "rating": 4.1, "reference": "ChIJMwLgwIiSQQ0RP_tIRvSziaA", "scope": "GOOGLE", "types": ["point_of_interest", "establishment"], "user_ratings_total": 10, "vicinity": "Calle de Marbella, 1, Arroyomolinos"}, {"business_status": "OPERATIONAL", "geometry": {"location": {"lat": 40.2688168, "lng": -3.9209814}, "viewport": {"northeast": {"lat": 40.2701782302915, "lng": -3.919634269708498}, "southwest": {"lat": 40.26748026970851, "lng": -3.922332230291502}}}, "icon": "https://maps.gstatic.com/mapfiles/place_api/icons/v1/png_71/generic_business-71.png", "icon_background_color": "#7B9EB0", "icon_mask_base_uri": "https://maps.gstatic.com/mapfiles/place_api/icons/v2/generic_pinlet", "international_phone_number": "+34 916 89 71 07", "name": "NARGANES&ROIS ABOGADOS, ADMINISTRACION DE FINCAS", "opening_hours": {"open_now": false}, "photos": [{"height": 1083, "html_attributions": ["<a href=\"https://maps.google.com/maps/contrib/114295722166350953019\">NARGANES&amp;ROIS ABOGADOS, ADMINISTRACION DE FINCAS</a>"], "photo_reference": "AWn5SU5G0lpupXILb8Wu97QBSIDe_S1nGU88AFODl748U4y10DkVdQ3z2bGrA3l9WCTdVxrJLY0bYbHtjgoYtIDIkJkgMW-zgTCBqMwwWaKr4KdulX3mhYmV8roiGy0IIzFWcNwQSO2Y3THXpPPD9b4Il6gvxsUq4RdxKRQxnTDHw9WykL1Kd5K9U16vj0SX9bQda8wxWwnjZIdhtRMg1pJLW3C8ZKPDtIjugFd5Ot9CnDN52l4bvGX6YEwKsCEHeh8qBcNamE-wdodfpbXibOAntGQEu7doeSsbj6F5AyIWGvUrTb7C5np-aEdNYQBazo5X7ez8pu5n3Iw", "width": 1300}], "place_id": "ChIJLUu0WpGSQQ0Rn49lkrISS3c", "plus_code": {"compound_code": "739H+GJ Arroyomolinos, Spain", "global_code": "8CGR739H+GJ"}, "rating": 3.7, "reference": "ChIJLUu0WpGSQQ0Rn49lkrISS3c", "scope": "GOOGLE", "types": ["lawyer", "point_of_interest", "establishment"], "user_ratings_total": 6, "vicinity": "Calle Navalcarnero, 1-A, 2º B, Arroyomolinos"}, {"business_status": "OPERATIONAL", "geometry": {"location": {"lat": 40.273762, "lng": -3.9213761}, "viewport": {"northeast": {"lat": 40.27520983029149, "lng": -3.919892919708498}, "southwest": {"lat": 40.2725118697085, "lng": -3.922590880291502}}}, "icon": "https://maps.gstatic.com/mapfiles/place_api/icons/v1/png_71/generic_business-71.png", "icon_background_color": "#7B9EB0", "icon_mask_base_uri": "https://maps.gstatic.com/mapfiles/place_api/icons/v2/generic_pinlet", "international_phone_number": "+34 916 89 99 42", "name": "Ursae Minoris S.L.", "place_id": "ChIJj4tZBY6SQQ0RxssWtDtCJEs", "plus_code": {"compound_code": "73FH+GC Arroyomolinos, Spain", "global_code": "8CGR73FH+GC"}, "rating": 5, "reference": "ChIJj4tZBY6SQQ0RxssWtDtCJEs", "scope": "GOOGLE", "types": ["lawyer", "point_of_interest", "establishment"], "user_ratings_total": 1, "vicinity": "Calle de Castilla y León, 13, LOCAL 1, Arroyomolinos"}, {"business_status": "OPERATIONAL", "geometry": {"location": {"lat": 40.2670085, "lng": -3.9201011}, "viewport": {"northeast": {"lat": 40.2683442302915, "lng": -3.918826219708497}, "southwest": {"lat": 40.2656462697085, "lng": -3.921524180291502}}}, "icon": "https://maps.gstatic.com/mapfiles/place_api/icons/v1/png_71/bank-71.png", "icon_background_color": "#909CE1", "icon_mask_base_uri": "https://maps.gstatic.com/mapfiles/place_api/icons/v2/bank-intl_pinlet", "international_phone_number": "+34 916 09 52 57", "name": "Ibercaja Banco", "opening_hours": {"open_now": false}, "photos": [{"height": 900, "html_attributions": ["<a href=\"https://maps.google.com/maps/contrib/101328748762740271645\">Ibercaja Banco</a>"], "photo_reference": "AWn5SU7x8Q8p8fb3RtSSnLUyM8ZiM-KtvfWKZ5RmDbMCE-huq88LiXgcXoxQhUA0s0Q21DlDyoXgBLewt-Mr2zMbGzGUOhYhHEPtCelMM_jJra_Uubeje_uhtCneYaoQlbvCE3Ume-HUwtYXQ9DXaR2tV8qGbeRl-iYkJ1LwjaSa1pER_-oGw4T_JlUcHBm9A1rZp3ajVuXi8x0nIDxMnrqPGvBEPWD8MNl7mCmAqUGWYtvkIToFhXuzrBzgzm7VRYAd514v7eDkHAQalrGqa5Lq30v77W_QvTCt2wgjc6o8jEkqBOgKbXLAk9YhEkLBf-zhGPC2NAzQ", "width": 1600}], "place_id": "ChIJHaM9zpaSQQ0RWApxD2S7kAw", "plus_code": {"compound_code": "738H+RX Arroyomolinos, Spain", "global_code": "8CGR738H+RX"}, "rating": 1.9, "reference": "ChIJHaM9zpaSQQ0RWApxD2S7kAw", "scope": "GOOGLE", "types": ["bank", "atm", "accounting", "finance", "point_of_interest", "establishment"], "user_ratings_total": 22, "vicinity": "Plaza Mayor, 11, Local 1, Arroyomolinos"}, {"business_status": "OPERATIONAL", "geometry": {"location": {"lat": 40.26920619999999, "lng": -3.9194336}, "viewport": {"northeast": {"lat": 40.2705250802915, "lng": -3.918093069708497}, "southwest": {"lat": 40.2678271197085, "lng": -3.920791030291502}}}, "icon": "https://maps.gstatic.com/mapfiles/place_api/icons/v1/png_71/generic_business-71.png", "icon_background_color": "#7B9EB0", "icon_mask_base_uri": "https://maps.gstatic.com/mapfiles/place_api/icons/v2/generic_pinlet", "international_phone_number": "+34 916 09 53 51", "name": "Taller Motor 94 Arroyomolinos", "opening_hours": {"open_now": false}, "photos": [{"height": 1192, "html_attributions": ["<a href=\"https://maps.google.com/maps/contrib/112351755135247297919\">Taller Motor 94 Arroyomolinos</a>"], "photo_reference": "AWn5SU49c5JwBbeXkXiT6JDrPv2gMgHZ3l66rIaGyN81aeKTaunIRruDu8ypAC3ViGQyDtaOIgMz6NbO2Cmjj-fxvMlhif_yAeYWT3_FLTIqVoO0QofWrdN-eBziUsvMLzOF-hcItkQlYmO9-fJsw-kJu9KFdorWmO9nhwjOCq6MctRYQaN-6BqcKL53gzNbVYxQZ-XaHGUUVWAXq6z4ixhma78SbnZ-HBSnHAjJLIcawmnwQuQi_mPhQ-6plcHgVq6kwClO7MOl2-ptAZKxemmE4G5x4RzIOJlXwC1Qqg1WWuAzkw36Gro_yeG5RFWRo_3NOGKLK0qtFr4", "width": 2120}], "place_id": "ChIJFRGiI5GSQQ0R54HGn4DJ5mk", "plus_code": {"compound_code": "739J+M6 Arroyomolinos, Spain", "global_code": "8CGR739J+M6"}, "rating": 4.8, "reference": "ChIJFRGiI5GSQQ0R54HGn4DJ5mk", "scope": "GOOGLE", "types": ["car_repair", "point_of_interest", "establishment"], "user_ratings_total": 157, "vicinity": "Calle Moraleja, 15, Arroyomolinos"}, {"business_status": "OPERATIONAL", "geometry": {"location": {"lat": 40.2795114, "lng": -3.918108400000001}, "viewport": {"northeast": {"lat": 40.2809123302915, "lng": -3.916693419708499}, "southwest": {"lat": 40.2782143697085, "lng": -3.919391380291503}}}, "icon": "https://maps.gstatic.com/mapfiles/place_api/icons/v1/png_71/generic_business-71.png", "icon_background_color": "#7B9EB0", "icon_mask_base_uri": "https://maps.gstatic.com/mapfiles/place_api/icons/v2/generic_pinlet", "international_phone_number": "+34 696 00 63 12", "name": "Espacio de Luna", "opening_hours": {"open_now": false}, "photos": [{"height": 3120, "html_attributions": ["<a href=\"https://maps.google.com/maps/contrib/104875194481430717553\">Espacio de luna</a>"], "photo_reference": "AWn5SU6vgSDKfx-6bzZBWgNHBeZi0LhqCZUZINgY4pGb74hZs_sOUI7ysDKvPYvA7CZsqHdbCbaAOFiU4xGdOfaOdypls3cXsv_C9i2x0vu0m4sseyXDYJ4TzOLgvvycwePs2AGWCC3RKjnqdseC9CVNOWBurK5VoSaCw6fNMoFgkvJEfR-j4xiJMcZhXnXo0R9Jp9TnBrz4QP-yxMz_etnFi1SxT8E1nidPzV-b5uyTy7OZs8G-kNA0OZ8QX83L1WmNRPrZNFX5rLVUHbwjeSMKburQEeyy9rbvToL3ps8dxPLfWVh-k2xzqttNtGAKQdyhtQs1brCZ0Dj_F84Q9dqPwwyXRL4KjP22-JDGGUzbnk40x2uFtxTm1DcjuqlkOCJhY3iin8Ioz7my0_i5MH_DEFSGxCLzh1FYNZ9L_zS917IDCyT5jpYhs3BEluq5bqOyUcZ-G1pddnNof-ezNf2WB64UoZVZKcQhECNf6LfmDT0OcJS_EgWfRJRNjlshbDl09RyFpp7lxehP6ljG5cad8yMd8geV5GV-eUIVBcYL5ytqdNjQrpIJpmzAvHmSQYSk865X-zVWNkM0yXjEDTeQBCb-NOjzA8YRcBjcp57wF08OtyfW6e_6Ja0MqKlSrAmMWPE_NA", "width": 4160}], "place_id": "ChIJO1b37oiSQQ0RVkFOG-3lc1o", "plus_code": {"compound_code": "73HJ+RQ Arroyomolinos, Spain", "global_code": "8CGR73HJ+RQ"}, "rating": 4.8, "reference": "ChIJO1b37oiSQQ0RVkFOG-3lc1o", "scope": "GOOGLE", "types": ["gym", "spa", "point_of_interest", "school", "health", "establishment"], "user_ratings_total": 51, "vicinity": "Calle de Marbella, 37, Arroyomolinos"}, {"business_status": "OPERATIONAL", "geometry": {"location": {"lat": 40.2756183, "lng": -3.9203138}, "viewport": {"northeast": {"lat": 40.2770246802915, "lng": -3.918963369708498}, "southwest": {"lat": 40.2743267197085, "lng": -3.921661330291502}}}, "icon": "https://maps.gstatic.com/mapfiles/place_api/icons/v1/png_71/school-71.png", "icon_background_color": "#7B9EB0", "icon_mask_base_uri": "https://maps.gstatic.com/mapfiles/place_api/icons/v2/school_pinlet", "international_phone_number": "+34 916 09 50 15", "name": "Escuela Infantil Albéniz", "opening_hours": {"open_now": false}, "photos": [{"height": 800, "html_attributions": ["<a href=\"https://maps.google.com/maps/contrib/117303770984799454380\">Fernando Rodríguez Vico</a>"], "photo_reference": "AWn5SU5suKm0fDwNQ647-6iNhRMhG91r8vDNoF2a5I0N0eIOVU9MW27ZEKUTt6RjiO-6KMKtuuoomHsm6eIwYGbE11QoC1mZS8n2dRk-8b84ktVDgii6YFgx_am-vkK7oxFOlVjh1XYeVJG3ElJD9H_jtBZjxXZ26Ehak7h_1qjL9D22zerXS_AKlF-Z0A8lmTzNBvYzqdUMyHkMhV1ngcXbfUIz6kpOSFXn8JPViWxRf5A8qPlcyVz2oe6ZuOievOO-knp66ljpYOqOXhOcPSegTiXle8D1proZ1YfxfoYvBi3RKY5c7c6C3calIrh1F4-fRewgRN2yn0uLJEJV29zwVBtifNyklfJVA8hQf1hph1DJMqQaUMbe9Gp7Y__Ii0ppznolVRKpgQ5dU9_Skt10rEn9zk9bwlSA1hH-LAEdtL1Q5sZQqQ-aRg8Iipb3iUUWiMo4D_pbV6tEK-sqkj2Vjq_O-H405neiBwTnrvqSwU8WH6xjy52lBgezT7kKFlRMcauZ8xt2YeQm9iaVpa7SC-0U6FKx155jTrp78ixUpkfmFF1uGCMgvQKRoYFXW2mv_FYF9OwJlcINO76aml0D-LUSci_Me5n8LnDu9XHmBs0DexAijdvFmJwkGWrsyjKXPLxVTQ", "width": 597}], "place_id": "ChIJDcpac5GSQQ0RQ4Yi4u5uJxk", "plus_code": {"compound_code": "73GH+6V Arroyomolinos, Spain", "global_code": "8CGR73GH+6V"}, "rating": 4.7, "reference": "ChIJDcpac5GSQQ0RQ4Yi4u5uJxk", "scope": "GOOGLE", "types": ["point_of_interest", "school", "health", "establishment"], "user_ratings_total": 15, "vicinity": "Calle Arroyo de los Combos, Nº32, Arroyomolinos"}, {"business_status": "OPERATIONAL", "geometry": {"location": {"lat": 40.2739357, "lng": -3.9206404}, "viewport": {"northeast": {"lat": 40.2751815302915, "lng": -3.919082169708497}, "southwest": {"lat": 40.2724835697085, "lng": -3.921780130291502}}}, "icon": "https://maps.gstatic.com/mapfiles/place_api/icons/v1/png_71/generic_business-71.png", "icon_background_color": "#7B9EB0", "icon_mask_base_uri": "https://maps.gstatic.com/mapfiles/place_api/icons/v2/generic_pinlet", "international_phone_number": "+34 916 14 16 70", "name": "Madox Travel Group", "opening_hours": {"open_now": false}, "photos": [{"height": 853, "html_attributions": ["<a href=\"https://maps.google.com/maps/contrib/102455329444176314361\">Madox Travel Group</a>"], "photo_reference": "AWn5SU5Ne030g44_uhvJe8yEHF1gV_UpX6mP1B4G5EIV6CoAwj3tst_p1dXBXSImfFNIMeQBNHsLtobn-Fwy8IXEcc8f6OZhwLWjD18_tnkRmaqsYsEktb5FJJWhsE7G17NtViLfoiKKQ5vV06VD8EZ_PQfQ8mv_Ts-Lj-CnCuQFdR7dWsCqTtq_9L-Fzj0VXez0dnNH7ygpxynaj4PAdRqeEklhNX85efkTwFdaBbUvSG9XULtCej28iFiPG_NadxG2IiKnzBgjM1W32Q4ZozjnWpKGcyc8209AYspCaeHFIOg7-7YScL1MglGKaZbjMpI2bqexKbNOTxE", "width": 1280}], "place_id": "ChIJ0xVxg46SQQ0R0HcebOW6UNA", "plus_code": {"compound_code": "73FH+HP Arroyomolinos, Spain", "global_code": "8CGR73FH+HP"}, "rating": 5, "reference": "ChIJ0xVxg46SQQ0R0HcebOW6UNA", "scope": "GOOGLE", "types": ["travel_agency", "point_of_interest", "establishment"], "user_ratings_total": 2, "vicinity": "Calle de Cantabria, 10, Local 1, Arroyomolinos"}, {"business_status": "OPERATIONAL", "geometry": {"location": {"lat": 40.2662416, "lng": -3.9065153}, "viewport": {"northeast": {"lat": 40.2675659302915, "lng": -3.905139019708497}, "southwest": {"lat": 40.2648679697085, "lng": -3.907836980291501}}}, "icon": "https://maps.gstatic.com/mapfiles/place_api/icons/v1/png_71/generic_business-71.png", "icon_background_color": "#7B9EB0", "icon_mask_base_uri": "https://maps.gstatic.com/mapfiles/place_api/icons/v2/generic_pinlet", "international_phone_number": "+34 658 95 41 78", "name": "quiromasajearroyomolinos/albronte", "photos": [{"height": 2279, "html_attributions": ["<a href=\"https://maps.google.com/maps/contrib/107745323263023783025\">quiromasajearroyomolinos</a>"], "photo_reference": "AWn5SU6Oew6Hg3T3k0j5aI8sW7MbM6seZ9T43cbcf5tgldVlBGrlef2NwTuxRkJ9W2qvEpQeqDuCJv9AAnRTOGU9So_EC1p4q0LZ3cOTfhzT6V-p2Ozw_T21ibAtGU37UkUaDpYd6zwLYUwsENCfIKkZuxDAPGxnfzwwysSCz7khYntOWFiERnjFNWlA87BRQziH6xH3tcI-4D9jzq76d2LDIeqXiNM20F2N7DRZDnkfOs5R7Go3VsAXwWcuNjMl3VGBiY9zgEm4r6_FTVAtcMwPyE86sn_bSwuNHioB9kOhKftnLVg3eMiUrtiwGWifeQwvuB1hdo-XHyQ", "width": 2279}], "place_id": "ChIJF-pnLmCNQQ0RzfWHZnZvRMI", "plus_code": {"compound_code": "738V+F9 Arroyomolinos, Spain", "global_code": "8CGR738V+F9"}, "rating": 4.8, "reference": "ChIJF-pnLmCNQQ0RzfWHZnZvRMI", "scope": "GOOGLE", "types": ["point_of_interest", "establishment"], "user_ratings_total": 29, "vicinity": "Calle de Fuengirola, Arroyomolinos"}]