[{"business_status": "OPERATIONAL", "geometry": {"location": {"lat": 40.34699249999999, "lng": -4.1012173}, "viewport": {"northeast": {"lat": 40.3483506802915, "lng": -4.099875219708498}, "southwest": {"lat": 40.3456527197085, "lng": -4.102573180291502}}}, "icon": "https://maps.gstatic.com/mapfiles/place_api/icons/v1/png_71/generic_business-71.png", "icon_background_color": "#7B9EB0", "icon_mask_base_uri": "https://maps.gstatic.com/mapfiles/place_api/icons/v2/generic_pinlet", "name": "Carretas-Ayuntamiento", "place_id": "ChIJaehXabC9QQ0Ruzs1mmctGsc", "plus_code": {"compound_code": "8VWX+QG Villanueva de Perales, Spain", "global_code": "8CGQ8VWX+QG"}, "rating": 3, "reference": "ChIJaehXabC9QQ0Ruzs1mmctGsc", "scope": "GOOGLE", "types": ["transit_station", "point_of_interest", "establishment"], "user_ratings_total": 2, "vicinity": "Spain"}, {"business_status": "OPERATIONAL", "geometry": {"location": {"lat": 40.34703449999999, "lng": -4.101371299999999}, "viewport": {"northeast": {"lat": 40.3483655802915, "lng": -4.100010669708499}, "southwest": {"lat": 40.3456676197085, "lng": -4.102708630291502}}}, "icon": "https://maps.gstatic.com/mapfiles/place_api/icons/v1/png_71/bus-71.png", "icon_background_color": "#10BDFF", "icon_mask_base_uri": "https://maps.gstatic.com/mapfiles/place_api/icons/v2/bus_share_taxi_pinlet", "name": "Carretas-Parque", "place_id": "ChIJd7MxarC9QQ0REU0Ayte32Js", "plus_code": {"compound_code": "8VWX+RF Villanueva de Perales, Spain", "global_code": "8CGQ8VWX+RF"}, "reference": "ChIJd7MxarC9QQ0REU0Ayte32Js", "scope": "GOOGLE", "types": ["bus_station", "transit_station", "point_of_interest", "establishment"], "vicinity": "Spain"}, {"business_status": "OPERATIONAL", "geometry": {"location": {"lat": 40.3469009, "lng": -4.098613699999999}, "viewport": {"northeast": {"lat": 40.3482134802915, "lng": -4.097237419708497}, "southwest": {"lat": 40.3455155197085, "lng": -4.099935380291502}}}, "icon": "https://maps.gstatic.com/mapfiles/place_api/icons/v1/png_71/generic_business-71.png", "icon_background_color": "#7B9EB0", "icon_mask_base_uri": "https://maps.gstatic.com/mapfiles/place_api/icons/v2/generic_pinlet", "name": "Av.Rafaela De Arocena-PºEnrique Tierno Galván", "place_id": "ChIJWwR57rq9QQ0RxODaX9svPko", "plus_code": {"compound_code": "8WW2+QH Villanueva de Perales, Spain", "global_code": "8CGQ8WW2+QH"}, "reference": "ChIJWwR57rq9QQ0RxODaX9svPko", "scope": "GOOGLE", "types": ["transit_station", "point_of_interest", "establishment"], "vicinity": "Spain"}, {"business_status": "OPERATIONAL", "geometry": {"location": {"lat": 40.3468208, "lng": -4.0985537}, "viewport": {"northeast": {"lat": 40.3482007302915, "lng": -4.097227919708497}, "southwest": {"lat": 40.3455027697085, "lng": -4.099925880291501}}}, "icon": "https://maps.gstatic.com/mapfiles/place_api/icons/v1/png_71/generic_business-71.png", "icon_background_color": "#7B9EB0", "icon_mask_base_uri": "https://maps.gstatic.com/mapfiles/place_api/icons/v2/generic_pinlet", "name": "Av.Rafaela De Arocena-Ctra.M523", "place_id": "ChIJf64X7rq9QQ0R3vLNnzil-zg", "plus_code": {"compound_code": "8WW2+PH Villanueva de Perales, Spain", "global_code": "8CGQ8WW2+PH"}, "reference": "ChIJf64X7rq9QQ0R3vLNnzil-zg", "scope": "GOOGLE", "types": ["transit_station", "point_of_interest", "establishment"], "vicinity": "Spain"}, {"business_status": "OPERATIONAL", "geometry": {"location": {"lat": 40.3460999, "lng": -4.1048765}, "viewport": {"northeast": {"lat": 40.3474555302915, "lng": -4.103540819708498}, "southwest": {"lat": 40.3447575697085, "lng": -4.106238780291503}}}, "icon": "https://maps.gstatic.com/mapfiles/place_api/icons/v1/png_71/generic_business-71.png", "icon_background_color": "#7B9EB0", "icon_mask_base_uri": "https://maps.gstatic.com/mapfiles/place_api/icons/v2/generic_pinlet", "name": "Ctra.M523 -Hnos.Lorenzo Losada", "place_id": "ChIJSdKog7G9QQ0RDhLS6C6o3yY", "plus_code": {"compound_code": "8VWW+C2 Villanueva de Perales, Spain", "global_code": "8CGQ8VWW+C2"}, "reference": "ChIJSdKog7G9QQ0RDhLS6C6o3yY", "scope": "GOOGLE", "types": ["transit_station", "point_of_interest", "establishment"], "vicinity": "Spain"}, {"business_status": "OPERATIONAL", "geometry": {"location": {"lat": 40.3459473, "lng": -4.1048975}, "viewport": {"northeast": {"lat": 40.3473117302915, "lng": -4.103552369708498}, "southwest": {"lat": 40.3446137697085, "lng": -4.106250330291503}}}, "icon": "https://maps.gstatic.com/mapfiles/place_api/icons/v1/png_71/generic_business-71.png", "icon_background_color": "#7B9EB0", "icon_mask_base_uri": "https://maps.gstatic.com/mapfiles/place_api/icons/v2/generic_pinlet", "name": "Ctra.M523-Julio Álvarez Álvarez", "place_id": "ChIJTwdwgrG9QQ0RcEsWfCGsf8k", "plus_code": {"compound_code": "8VWW+92 Villanueva de Perales, Spain", "global_code": "8CGQ8VWW+92"}, "reference": "ChIJTwdwgrG9QQ0RcEsWfCGsf8k", "scope": "GOOGLE", "types": ["transit_station", "point_of_interest", "establishment"], "vicinity": "Spain"}, {"business_status": "OPERATIONAL", "geometry": {"location": {"lat": 40.3468781, "lng": -4.1269431}, "viewport": {"northeast": {"lat": 40.34823188029149, "lng": -4.125630719708498}, "southwest": {"lat": 40.34553391970849, "lng": -4.128328680291503}}}, "icon": "https://maps.gstatic.com/mapfiles/place_api/icons/v1/png_71/bus-71.png", "icon_background_color": "#10BDFF", "icon_mask_base_uri": "https://maps.gstatic.com/mapfiles/place_api/icons/v2/bus_share_taxi_pinlet", "name": "Cedros-PºDe Los Chopos", "photos": [{"height": 3840, "html_attributions": ["<a href=\"https://maps.google.com/maps/contrib/115604546253960523985\">Jorge Ramón García Contreras</a>"], "photo_reference": "AWn5SU4tz24abbv5ko3fONrhFLquJ6FU7Elwdjq6tRLB8-aUOhbL1ZmXaHoZaXfWYw7RGuthRkx6HDthIwasj7JcKfXZ45Ul1QHyGD6hUL6dWl2r5zEakdEAOdzAySqdqMVnPNJndidtOaJHcjo7Cp51eezSqGagascX2GDfWcQ0jB2xY-p5gXCGxtlt8lLjAm5ph-vR_OKpEj0Oo860XDkLLUmA-Yxfm3V6aNNuZz1S5KAs43CSh7biVdKqGqIdDDAheeeKvLi5k4rNka6KVEvc6KU8gl-F-GbBAV543hiPdhhM920mrgQCEuj3SA6Nb0E3Sk68C7hQ3mku70hudSRCgLipqm29ENMxFO4F4Uq4mtWmKENa4S_eViec90nqOJht_ewFYBR8AvrrsBbFcLRXKWLHeWlDUIefMWvMWUuuycs1NIhDd1fOvqkDfiERiYVIR55O259KLptrwnadgRbP3FZ2DmrPBBSVuTNFIZIBp11zc3rZLW0YJvkVcmnJOJoLrId6xHhkLkoWZhCDt53Ielp50eecFYK_EskiS-6pXHif-XMDdGiK53CkfxC1hrjgud9KXuJa3OApr--aSPvD-Pe9MuqqtgQZ7KQO45sK7qwRgbVK3lFdUn3T5b-mAbh_ODmLN_hN", "width": 2160}], "place_id": "ChIJgdCpR0O8QQ0RrYkuIl1PXTo", "plus_code": {"compound_code": "8VWF+Q6 Villamantilla, Spain", "global_code": "8CGQ8VWF+Q6"}, "rating": 5, "reference": "ChIJgdCpR0O8QQ0RrYkuIl1PXTo", "scope": "GOOGLE", "types": ["bus_station", "transit_station", "point_of_interest", "establishment"], "user_ratings_total": 1, "vicinity": "Spain"}, {"business_status": "OPERATIONAL", "geometry": {"location": {"lat": 40.34219, "lng": -4.12807}, "viewport": {"northeast": {"lat": 40.3435388302915, "lng": -4.126754619708498}, "southwest": {"lat": 40.3408408697085, "lng": -4.129452580291503}}}, "icon": "https://maps.gstatic.com/mapfiles/place_api/icons/v1/png_71/generic_business-71.png", "icon_background_color": "#7B9EB0", "icon_mask_base_uri": "https://maps.gstatic.com/mapfiles/place_api/icons/v2/generic_pinlet", "name": "Olivar-Polideportivo", "place_id": "ChIJU-Sr1kO8QQ0RpZ3ykF5R9NU", "plus_code": {"compound_code": "8VRC+VQ Villamantilla, Spain", "global_code": "8CGQ8VRC+VQ"}, "reference": "ChIJU-Sr1kO8QQ0RpZ3ykF5R9NU", "scope": "GOOGLE", "types": ["transit_station", "point_of_interest", "establishment"], "vicinity": "Spain"}, {"business_status": "OPERATIONAL", "geometry": {"location": {"lat": 40.3422165, "lng": -4.1282077}, "viewport": {"northeast": {"lat": 40.3435655302915, "lng": -4.126837419708498}, "southwest": {"lat": 40.3408675697085, "lng": -4.129535380291503}}}, "icon": "https://maps.gstatic.com/mapfiles/place_api/icons/v1/png_71/generic_business-71.png", "icon_background_color": "#7B9EB0", "icon_mask_base_uri": "https://maps.gstatic.com/mapfiles/place_api/icons/v2/generic_pinlet", "name": "Olivar-Polideportivo", "photos": [{"height": 1848, "html_attributions": ["<a href=\"https://maps.google.com/maps/contrib/108717692692300947496\">Oskitar HAz</a>"], "photo_reference": "AWn5SU6EWDEkkspQqwBumCnLKeYjGbHUt5L5mJj4JiOyTkjQkJsv02OeXJ6tKLCmp9NX_PZqfsbH10TfvDrccfrlg7sgfAAJhatPCxu2gOLsgi5CDbGd46xL_7jRn9kgvLpRDhwIccaRGZtJtaBWvtb84G7Wiq2dapx0GOZnjXOAjYRwJ-2jIHy1J1478-ChWibqC6S8UUM7vufdO3n7dLwx-rMxFJYNVAI8CfL9dbEJsRFVqgztlP9Xu3JAn92i4AJg1O-BdgEeYlLkwA8s_Q4dcqIpQWsGG2zNPlgtW-bGkZ5gLjpZ4HcCIV9n7kvJy1gn_F9yiH3T687E7jwThoEdpl4xCljzGvATfewUQtktZLj2fDX2j7VLKNxe-eVUkwJz0SRIE4IfzcajWCTvRYs2qG7vYf4ykvLYiKjqBWHICthPVQ2e3PJp9KxZxomj71tQB6EDmw-6stzSdsIOc51hruy2DwTjRX1Htu6t-u5WGqP5Ce6KqhOquxSXhXasvOEIngLPgKvD6D3mrYKWfd9omZ7AtMy8uysZTRudB59rnp9HxyNoFbavMl1PVbfHMYB_qqIzSnafWfUivm2o-etI3tyf77CSHXDpeyKuhwdMl5FNf5Ryv1PxWYC61KP9j-GEWr-Q2X6wX70xFJISuzDwVl5ot_o", "width": 4000}], "place_id": "ChIJ_zArf0G8QQ0Ry48F-waoXpE", "plus_code": {"compound_code": "8VRC+VP Villamantilla, Spain", "global_code": "8CGQ8VRC+VP"}, "rating": 5, "reference": "ChIJ_zArf0G8QQ0Ry48F-waoXpE", "scope": "GOOGLE", "types": ["transit_station", "point_of_interest", "establishment"], "user_ratings_total": 1, "vicinity": "Spain"}, {"business_status": "OPERATIONAL", "geometry": {"location": {"lat": 40.3389893, "lng": -4.1278477}, "viewport": {"northeast": {"lat": 40.3403445802915, "lng": -4.126500319708497}, "southwest": {"lat": 40.3376466197085, "lng": -4.129198280291502}}}, "icon": "https://maps.gstatic.com/mapfiles/place_api/icons/v1/png_71/generic_business-71.png", "icon_background_color": "#7B9EB0", "icon_mask_base_uri": "https://maps.gstatic.com/mapfiles/place_api/icons/v2/generic_pinlet", "name": "Ctra.M523-PºSan Antonio", "photos": [{"height": 4128, "html_attributions": ["<a href=\"https://maps.google.com/maps/contrib/100984270875485694657\">Rosi Nuñez</a>"], "photo_reference": "AWn5SU6HHE2KAv8nykOXkX7_nBdFN4cvuiNvUY4DV6YNPQxADHI-QAU1gZnmnioHVMS3mlTq876hTOSooZNpwsR-jRezD917kivAed6pdg2AL13tIEQbbTB_oFywYiclsKfv3uSS71W2aC0vwqSNxScmozITqklSRhvQkYuAlJaQkPy5JalrBj1hfkzG2HGwLhEwYeXz43Zl5jBfMlRPrlecoBKC3usbLW2Hccz08IyqOMiF2CXpco2gDPpqO3P5jqgu8gGMuRpxkzvTP_rJ_AaduZIcsUqVvQRZl-upEa_v6622h4_iQvw5w8JtVVnQz2wy3JP3tH0euZzWPVmSboFMHb-z6BrLiOP3bKJSzMb21XJ1lL4jH4YkmfGaVu28Jzpyd9702BAYt4Nx4V-Rv70AayfUGYgvdUNAFVVmId9YvjY5D2xKmbtb_v9TP9WKjBE3d2bl7yuX1LqAvWLHEthCdBkb9qEqRYWlWYaG4Ei2LQO2DsViUzLGTOHTomcs_wGB9Kz7-bykXmLWzOmCNAG8f0mEiiWZBUJwlNX9PKGboLw7QhMs4oU9TTNVjDUg_kFfzM4013fsBgL5aF5kbwp6OjOx2xWL3oUUVI78VJxEBMSlR7BvkUTJcFOHfMAQdo2sGdp4SdvY", "width": 2322}], "place_id": "ChIJqTEx8kC8QQ0R_mJ6Q-dacuI", "plus_code": {"compound_code": "8VQC+HV Villamantilla, Spain", "global_code": "8CGQ8VQC+HV"}, "rating": 4, "reference": "ChIJqTEx8kC8QQ0R_mJ6Q-dacuI", "scope": "GOOGLE", "types": ["transit_station", "point_of_interest", "establishment"], "user_ratings_total": 1, "vicinity": "Spain"}, {"business_status": "OPERATIONAL", "geometry": {"location": {"lat": 40.339522, "lng": -4.1282223}, "viewport": {"northeast": {"lat": 40.34087698029149, "lng": -4.126916619708497}, "southwest": {"lat": 40.3381790197085, "lng": -4.129614580291502}}}, "icon": "https://maps.gstatic.com/mapfiles/place_api/icons/v1/png_71/generic_business-71.png", "icon_background_color": "#7B9EB0", "icon_mask_base_uri": "https://maps.gstatic.com/mapfiles/place_api/icons/v2/generic_pinlet", "name": "Olivar-Ctra.M523", "place_id": "ChIJo2Yg-EC8QQ0RhgXSgpzrelA", "plus_code": {"compound_code": "8VQC+RP Villamantilla, Spain", "global_code": "8CGQ8VQC+RP"}, "rating": 1, "reference": "ChIJo2Yg-EC8QQ0RhgXSgpzrelA", "scope": "GOOGLE", "types": ["transit_station", "point_of_interest", "establishment"], "user_ratings_total": 1, "vicinity": "Spain"}]