[{"geometry": {"location": {"lat": 40.3665441, "lng": -3.3206352}, "viewport": {"northeast": {"lat": 40.37031953027152, "lng": -3.310859434831405}, "southwest": {"lat": 40.36460084719197, "lng": -3.323713175670796}}}, "icon": "https://maps.gstatic.com/mapfiles/place_api/icons/v1/png_71/geocode-71.png", "icon_background_color": "#7B9EB0", "icon_mask_base_uri": "https://maps.gstatic.com/mapfiles/place_api/icons/v2/generic_pinlet", "name": "Pozuelo del Rey", "photos": [{"height": 4624, "html_attributions": ["<a href=\"https://maps.google.com/maps/contrib/103322360241594595399\">Vicente Camarasa</a>"], "photo_reference": "AWn5SU6ygdKToU-4CAt6SkDZQrFQ7HS0Nnx0zz1F9A8TVs0QhcpGredYmoTY8S-LpEVpsuqZ3i1i-g32OAUKu6dqXd3xuXBZ7jq0xT9_-BTCc8Qwt4MWQaM4mnK_0ZNZgphbcUHNcllpjJOs_Rll2ptvJMcdwLPFihmNoP-P2TuHix5LQu291BGhKCfanCmcOEUxckMEd-i-At7V9vczqehxzsqQ1NJjJ3lgwCJetd7shEnXq4WKGb6Na3Mlabwb51DA1BM3kKfYZz_NeLPgT3lObpdWxfnjtfvs7uxvkRvIkw0iqf6Skgb56xNoNYaIPRqghLqqkuYOOAkr_kO7h0rdUvWGlGdgElZlY3COD5HNKOHcZ69mZLdkQSb9jQ30qzBRQDIFasFqWLAYLQD2gza3Th63hEU8MsaHt8q0iLYgYUBl5Esdk66AQ0LM2K9_C2SBTAfzPFsT4wYoAAMeq9zgA1m98JtRzbR8TZY-TB3EEKcdAJT7CMBiCROK6cssdLcoTjic_QcLSuBydNNnqHvHtHiACLW6mpEr4svaeVuPRQfbPSophvMEMahuSjSvATNK5SG9IYeVK8Nrc0cy7teFfzLyCPRDHaJPIZFweSdGiPN5LzeULDiWUukSMbM_oXOcFAvALZ8S", "width": 3472}], "place_id": "ChIJXTWZGj9EQg0RM4CEIDWNUDE", "reference": "ChIJXTWZGj9EQg0RM4CEIDWNUDE", "scope": "GOOGLE", "types": ["locality", "political"], "vicinity": "Pozuelo del Rey"}, {"business_status": "OPERATIONAL", "geometry": {"location": {"lat": 40.36572899999999, "lng": -3.322521099999999}, "viewport": {"northeast": {"lat": 40.3670469302915, "lng": -3.321179219708497}, "southwest": {"lat": 40.3643489697085, "lng": -3.323877180291501}}}, "icon": "https://maps.gstatic.com/mapfiles/place_api/icons/v1/png_71/generic_business-71.png", "icon_background_color": "#7B9EB0", "icon_mask_base_uri": "https://maps.gstatic.com/mapfiles/place_api/icons/v2/generic_pinlet", "international_phone_number": "+34 918 73 53 25", "name": "Suministros Garcerán S.L", "place_id": "ChIJbTHP8D5EQg0RVHRN_qakmEY", "plus_code": {"compound_code": "9M8G+7X Pozuelo del Rey, Spain", "global_code": "8CGR9M8G+7X"}, "rating": 5, "reference": "ChIJbTHP8D5EQg0RVHRN_qakmEY", "scope": "GOOGLE", "types": ["point_of_interest", "establishment"], "user_ratings_total": 2, "vicinity": "Calle del Real, Pozuelo del Rey"}, {"business_status": "OPERATIONAL", "geometry": {"location": {"lat": 40.3659373, "lng": -3.3222112}, "viewport": {"northeast": {"lat": 40.3673271302915, "lng": -3.320873219708498}, "southwest": {"lat": 40.3646291697085, "lng": -3.323571180291502}}}, "icon": "https://maps.gstatic.com/mapfiles/place_api/icons/v1/png_71/civic_building-71.png", "icon_background_color": "#7B9EB0", "icon_mask_base_uri": "https://maps.gstatic.com/mapfiles/place_api/icons/v2/civic-bldg_pinlet", "international_phone_number": "+34 918 73 50 30", "name": "Consultorio Local Pozuelo del Rey", "opening_hours": {"open_now": false}, "photos": [{"height": 2592, "html_attributions": ["<a href=\"https://maps.google.com/maps/contrib/108207283280361054861\">Luis Enrique Garcia</a>"], "photo_reference": "AWn5SU6nDD1dVcuqctXZNIy3dCEiU1er5Lg5axeRFr0Eabe4RUecGs72VQdtRCgWEaMix59cGVnkhD-MjoRxONdGseQJ5qelHLBSMwUuB81oaoawDkiqhhMkXjOv9jmi7_8or7g1nEFjJshwNsMLsSXLG3Y-nL5H93k4baqGic9sY6cVo6AoKvdmy2FC9IvHyNecZwtCqgdFbV8uaCnk-g9jtLh-ndsTm-Tvnt5F04leFZ0l6oBaqE_ADB0EbXVt52TZdQ0lM_IQIV-Mvp_22FlFyg-Epy_emvpTooRUcU3QHitaWTt4jcj-96UL_UZnyv2RbiZPtFC5WMzn2s0MhJw6-ODMoHcgZAe2wLNU05I8uT8vo_EmhVeKdlr5TQAxG0sworzuZbjJZDez7fyA16UmwgTBYtwc4JN8yz5tfdSoEQ1bwreE6bMI896yKHyz_I2-DDe5NF4hrQVT4CBKytAmxMzUSadaf97FwAmd2ijs-1HdTL3AIQ3XoH_0bIB7nRbI467Wnh4bxvgHm7IHCavrMS1tjLIBCmUj-THbo495hg_hIfZ7FrzstJ1cDCckucPGQCeLAgrQBKH9PCtvMVpLdPROKm91uz7xMLZCq5-pqpigEfSG-Vi_LKXq1VrnIX2baE6XjufR", "width": 4608}], "place_id": "ChIJBQUW9j5EQg0R4NJpKmgEiI4", "plus_code": {"compound_code": "9M8H+94 Pozuelo del Rey, Spain", "global_code": "8CGR9M8H+94"}, "rating": 3, "reference": "ChIJBQUW9j5EQg0R4NJpKmgEiI4", "scope": "GOOGLE", "types": ["point_of_interest", "health", "establishment"], "user_ratings_total": 2, "vicinity": "Calle de Valparaíso, 3, Pozuelo del Rey"}, {"business_status": "OPERATIONAL", "geometry": {"location": {"lat": 40.36745009999999, "lng": -3.313000699999999}, "viewport": {"northeast": {"lat": 40.3687300802915, "lng": -3.311639619708498}, "southwest": {"lat": 40.3660321197085, "lng": -3.314337580291502}}}, "icon": "https://maps.gstatic.com/mapfiles/place_api/icons/v1/png_71/generic_business-71.png", "icon_background_color": "#7B9EB0", "icon_mask_base_uri": "https://maps.gstatic.com/mapfiles/place_api/icons/v2/generic_pinlet", "international_phone_number": "+34 911 01 19 24", "name": "Reparación de ordenadores Madrid | Energie Technology | Punto Pozuelo del Rey", "opening_hours": {"open_now": false}, "place_id": "ChIJY1CLQp5GQg0RtFU_f88VL0Y", "plus_code": {"compound_code": "9M8P+XQ Pozuelo del Rey, Spain", "global_code": "8CGR9M8P+XQ"}, "rating": 4.3, "reference": "ChIJY1CLQp5GQg0RtFU_f88VL0Y", "scope": "GOOGLE", "types": ["electronics_store", "store", "point_of_interest", "establishment"], "user_ratings_total": 3, "vicinity": "Calle la Flor de la Mancha, 27, Pozuelo del Rey"}, {"business_status": "OPERATIONAL", "geometry": {"location": {"lat": 40.3662427, "lng": -3.321925799999999}, "viewport": {"northeast": {"lat": 40.3675436302915, "lng": -3.320352419708498}, "southwest": {"lat": 40.3648456697085, "lng": -3.323050380291502}}}, "icon": "https://maps.gstatic.com/mapfiles/place_api/icons/v1/png_71/civic_building-71.png", "icon_background_color": "#7B9EB0", "icon_mask_base_uri": "https://maps.gstatic.com/mapfiles/place_api/icons/v2/civic-bldg_pinlet", "international_phone_number": "+34 918 73 53 03", "name": "Pozuelo del Rey Town Hall", "opening_hours": {"open_now": false}, "photos": [{"height": 3072, "html_attributions": ["<a href=\"https://maps.google.com/maps/contrib/104949545086744570881\">Jonathan SEPULVEDA V</a>"], "photo_reference": "AWn5SU4UFmQDojioU7sZANtceUJmYTsKgdfBMCKhKnC0KSVj7qphEjROmgQlEyIbmfNLwlHsK1JO5IEB3TBToEJxt6m9_-gDzBm4Lu7Yaq6hNwj2UidxrILpOfJy-nSEkHC-RytlCsCZPSpgpssCcFCbhwMVLggZrnNBBAp_L9eIUGA4dN6sgf_vXOSWP8tUPS3AHvLenW6hB0LXQRrgb-PRExLnRBOJg1Cg_RHiKXITRPr5lnEjyuWEPfVxj3ubpg-vH2neogooD6QiFbQP4D649mVbh5kQwmVjR4Ib6QvijPpAcTgF5oDNfCVfFd9Ls8fG0SPWXYYKPZTd_7rOOOLPQ0B0bpuY1c_I5_Q1UwaOpS1xaA4eqqD6fM_yXRWiDAFHUDdUgfIX_a64fSP283r4pR8_tlK-dCaW_8yLVXFX9VIA5SPomWqUiBZwVGfseYDdv8y0ckRULpXI7VycRl17wvUJHtbzrcTtkHYtQr9nrqq1KfKbOGCLBoU1ebSzEa7hW-HMMigVcXHzLGRiBpNoNhouGxEiX6VLE5uJ0llHQjNMBxaCPWw7b-s0EaEoQ5kuhiKpqNxSpZMgYg7ic81lJuW1uCf2yTzhT79DUZ00yTaqyBvgwnTO-2Nji6PUsxqO", "width": 4096}], "place_id": "ChIJZ_Kk8D5EQg0RcR_bi18hquY", "plus_code": {"compound_code": "9M8H+F6 Pozuelo del Rey, Spain", "global_code": "8CGR9M8H+F6"}, "rating": 3.7, "reference": "ChIJZ_Kk8D5EQg0RcR_bi18hquY", "scope": "GOOGLE", "types": ["city_hall", "local_government_office", "point_of_interest", "establishment"], "user_ratings_total": 30, "vicinity": "Plaza de la Constitución, 1, Pozuelo del Rey"}, {"business_status": "OPERATIONAL", "geometry": {"location": {"lat": 40.3672243, "lng": -3.3190913}, "viewport": {"northeast": {"lat": 40.3685809802915, "lng": -3.317725119708498}, "southwest": {"lat": 40.3658830197085, "lng": -3.320423080291502}}}, "icon": "https://maps.gstatic.com/mapfiles/place_api/icons/v1/png_71/generic_business-71.png", "icon_background_color": "#7B9EB0", "icon_mask_base_uri": "https://maps.gstatic.com/mapfiles/place_api/icons/v2/generic_pinlet", "international_phone_number": "+34 918 72 60 64", "name": "Revocos y Reformas Pozuelo", "opening_hours": {"open_now": false}, "photos": [{"height": 448, "html_attributions": ["<a href=\"https://maps.google.com/maps/contrib/116715975153178173409\">Revocos y Reformas</a>"], "photo_reference": "AWn5SU6dYkvFbi4wLANTOpm2bTPiC3OsCJzyi7lssGf4tjuNKenPNyN6ugp6n_5HkQXRd4HKm0JAFllYON41YbHbE79pDXfBLCrS7HOE3cgdVPozG40kDXtKmYIABvYKov8DMn9O1EmEufd8hRSq9tzrhH6t2bpg8GUsZxwoMHYpq1Qcg9Qr97Wbyhwe4NlbCT-sKOXOilisYi_k8Dxi5aMG_PMtN_ztRbGzdSXfZFdCsbz9JDSVjPQ0wCBIEqONlwLYN_FG81sod5la-C9hs1D4poh7Wy3E0ajE01U-0EejiSB6SjxIl_sZQbNOmMt7CCBOhBggLfvk14I", "width": 798}], "place_id": "ChIJIXH5XT9EQg0RpA5xFqd9dmI", "plus_code": {"compound_code": "9M8J+V9 Pozuelo del Rey, Spain", "global_code": "8CGR9M8J+V9"}, "rating": 5, "reference": "ChIJIXH5XT9EQg0RpA5xFqd9dmI", "scope": "GOOGLE", "types": ["general_contractor", "point_of_interest", "establishment"], "user_ratings_total": 3, "vicinity": "Calle de la Alegría, 3, Pozuelo del Rey"}, {"business_status": "OPERATIONAL", "geometry": {"location": {"lat": 40.36651150000001, "lng": -3.3217509}, "viewport": {"northeast": {"lat": 40.36778013029151, "lng": -3.320270419708498}, "southwest": {"lat": 40.36508216970851, "lng": -3.322968380291502}}}, "icon": "https://maps.gstatic.com/mapfiles/place_api/icons/v1/png_71/worship_general-71.png", "icon_background_color": "#7B9EB0", "icon_mask_base_uri": "https://maps.gstatic.com/mapfiles/place_api/icons/v2/worship_christian_pinlet", "name": "Iglesia Santo Domingo de Silos", "photos": [{"height": 3024, "html_attributions": ["<a href=\"https://maps.google.com/maps/contrib/117904855116736038345\">Correcaminos70</a>"], "photo_reference": "AWn5SU7ya1JPy6mB5NdIAvCoVTMD7-QY66gS0AsdyjVp-3KxVC5XB-6kPb_6w9E15k8yJP0jocIQOQlpXytVmw1qkzc3zC6yNEBRHirQggwUraOcRn0rcEIayjTlcOsejVx-S8z0vxjer658L3kbepcOza1FIk-tdL6X7R_RSAiSvQrhYrqbpQTW-jTGF-HvbUUFL9QdL9T7naEVV9XmRRSG4SXsGa0kVLKfLtN42TYKh_sgohHBxN3e422dEZ2OFd8B81lbpwRmEwPnsAwjnHLwqoqyf-XGQ74fSK0OeG31pjYCd6X3aguDrmUNclayW4wOH_Oa0isbDn3DiFC0z4sQ1OhM2JrilIFs-3WPE-RCCdvS5JCSkv2JPvRXgl5MC7xemvGeyfCz73uVxxD4FJyRSuAmGXVjQyYGK3gUIiskhUTFTVMOuMJf6ZJQK6km2-hx5qL8OpNswwehjIE04JSIyh-7ozKtr8BYadT_gO3B8JJHDJotzkhSSEq4AKY_uSyo-oYvEm5vl9jL2udrAm-bosuO6iVFjByGrISJ1_mrvk_yEp1pCTug2HvrKaTB7d_zJFQxZA_wtDVHTQVf9eQ3cZZeTw2zjnW4w1o1Yh-oas_shSdrkXZF9UcMd7ESz9gdJ82DZQ", "width": 4032}], "place_id": "ChIJR8WGhm5FQg0RKrPCWOtyos8", "plus_code": {"compound_code": "9M8H+J7 Pozuelo del Rey, Spain", "global_code": "8CGR9M8H+J7"}, "rating": 4.4, "reference": "ChIJR8WGhm5FQg0RKrPCWOtyos8", "scope": "GOOGLE", "types": ["church", "place_of_worship", "point_of_interest", "establishment"], "user_ratings_total": 8, "vicinity": "Plaza de la Constitución, 2, Pozuelo del Rey"}, {"business_status": "OPERATIONAL", "geometry": {"location": {"lat": 40.3657869, "lng": -3.321363}, "viewport": {"northeast": {"lat": 40.3671771802915, "lng": -3.320014769708498}, "southwest": {"lat": 40.3644792197085, "lng": -3.322712730291502}}}, "icon": "https://maps.gstatic.com/mapfiles/place_api/icons/v1/png_71/school-71.png", "icon_background_color": "#7B9EB0", "icon_mask_base_uri": "https://maps.gstatic.com/mapfiles/place_api/icons/v2/school_pinlet", "international_phone_number": "+34 918 73 53 70", "name": "Escuela infantil Casa de Niños", "opening_hours": {"open_now": false}, "place_id": "ChIJ6f3ASoJFQg0RaxPw2Dd_ONM", "plus_code": {"compound_code": "9M8H+8F Pozuelo del Rey, Spain", "global_code": "8CGR9M8H+8F"}, "rating": 5, "reference": "ChIJ6f3ASoJFQg0RaxPw2Dd_ONM", "scope": "GOOGLE", "types": ["school", "point_of_interest", "establishment"], "user_ratings_total": 1, "vicinity": "Plaza de Carlos Ruiz, 2, Pozuelo del Rey"}, {"business_status": "OPERATIONAL", "geometry": {"location": {"lat": 40.3654535, "lng": -3.3211798}, "viewport": {"northeast": {"lat": 40.3667941302915, "lng": -3.319775919708498}, "southwest": {"lat": 40.3640961697085, "lng": -3.322473880291501}}}, "icon": "https://maps.gstatic.com/mapfiles/place_api/icons/v1/png_71/generic_business-71.png", "icon_background_color": "#7B9EB0", "icon_mask_base_uri": "https://maps.gstatic.com/mapfiles/place_api/icons/v2/generic_pinlet", "name": "Real-Nueva", "place_id": "ChIJp00zrD9EQg0Rl46NpPwfoHw", "plus_code": {"compound_code": "9M8H+5G Pozuelo del Rey, Spain", "global_code": "8CGR9M8H+5G"}, "reference": "ChIJp00zrD9EQg0Rl46NpPwfoHw", "scope": "GOOGLE", "types": ["transit_station", "point_of_interest", "establishment"], "vicinity": "Spain"}, {"business_status": "OPERATIONAL", "geometry": {"location": {"lat": 40.3652993, "lng": -3.3214931}, "viewport": {"northeast": {"lat": 40.36668158029149, "lng": -3.320144569708498}, "southwest": {"lat": 40.36398361970849, "lng": -3.322842530291502}}}, "icon": "https://maps.gstatic.com/mapfiles/place_api/icons/v1/png_71/generic_business-71.png", "icon_background_color": "#7B9EB0", "icon_mask_base_uri": "https://maps.gstatic.com/mapfiles/place_api/icons/v2/generic_pinlet", "name": "Fuente de agua potable", "place_id": "ChIJZ9TbMABFQg0RFzvN_pAmyus", "plus_code": {"compound_code": "9M8H+4C Pozuelo del Rey, Spain", "global_code": "8CGR9M8H+4C"}, "reference": "ChIJZ9TbMABFQg0RFzvN_pAmyus", "scope": "GOOGLE", "types": ["point_of_interest", "establishment"], "vicinity": "Calle del Real, 610A, Pozuelo del Rey"}, {"business_status": "OPERATIONAL", "geometry": {"location": {"lat": 40.36724639999999, "lng": -3.321888899999999}, "viewport": {"northeast": {"lat": 40.3685803302915, "lng": -3.320510369708498}, "southwest": {"lat": 40.3658823697085, "lng": -3.323208330291502}}}, "icon": "https://maps.gstatic.com/mapfiles/place_api/icons/v1/png_71/generic_business-71.png", "icon_background_color": "#7B9EB0", "icon_mask_base_uri": "https://maps.gstatic.com/mapfiles/place_api/icons/v2/generic_pinlet", "international_phone_number": "+34 918 75 55 33", "name": "José Clemente Rello Castillo", "place_id": "ChIJHXhO3D5EQg0RQuhw4DMHbnE", "plus_code": {"compound_code": "9M8H+V6 Pozuelo del Rey, Spain", "global_code": "8CGR9M8H+V6"}, "rating": 4, "reference": "ChIJHXhO3D5EQg0RQuhw4DMHbnE", "scope": "GOOGLE", "types": ["point_of_interest", "establishment"], "user_ratings_total": 2, "vicinity": "Calle Ronda de la Ermita, 11, Pozuelo del Rey"}, {"business_status": "OPERATIONAL", "geometry": {"location": {"lat": 40.3654366, "lng": -3.3209476}, "viewport": {"northeast": {"lat": 40.36674008029149, "lng": -3.319608769708498}, "southwest": {"lat": 40.36404211970849, "lng": -3.322306730291502}}}, "icon": "https://maps.gstatic.com/mapfiles/place_api/icons/v1/png_71/shopping-71.png", "icon_background_color": "#4B96F3", "icon_mask_base_uri": "https://maps.gstatic.com/mapfiles/place_api/icons/v2/shoppingcart_pinlet", "international_phone_number": "+34 918 73 43 07", "name": "Supermercado Hnos. Del Olmo", "opening_hours": {"open_now": false}, "place_id": "ChIJ05ArrD9EQg0R3TYrJ4pWf9w", "plus_code": {"compound_code": "9M8H+5J Pozuelo del Rey, Spain", "global_code": "8CGR9M8H+5J"}, "rating": 3.9, "reference": "ChIJ05ArrD9EQg0R3TYrJ4pWf9w", "scope": "GOOGLE", "types": ["grocery_or_supermarket", "store", "food", "point_of_interest", "establishment"], "user_ratings_total": 71, "vicinity": "Calle del Real, 1, Pozuelo del Rey"}, {"business_status": "OPERATIONAL", "geometry": {"location": {"lat": 40.3654151, "lng": -3.3208554}, "viewport": {"northeast": {"lat": 40.3667252302915, "lng": -3.319530919708498}, "southwest": {"lat": 40.3640272697085, "lng": -3.322228880291502}}}, "icon": "https://maps.gstatic.com/mapfiles/place_api/icons/v1/png_71/shopping-71.png", "icon_background_color": "#4B96F3", "icon_mask_base_uri": "https://maps.gstatic.com/mapfiles/place_api/icons/v2/shopping_pinlet", "name": "Carniceria", "opening_hours": {"open_now": false}, "place_id": "ChIJN5terj9EQg0RNXoNZKYBtq0", "plus_code": {"compound_code": "9M8H+5M Pozuelo del Rey, Spain", "global_code": "8CGR9M8H+5M"}, "reference": "ChIJN5terj9EQg0RNXoNZKYBtq0", "scope": "GOOGLE", "types": ["store", "food", "point_of_interest", "establishment"], "vicinity": "Calle del Real, 1, Pozuelo del Rey"}, {"business_status": "OPERATIONAL", "geometry": {"location": {"lat": 40.3671927, "lng": -3.3211418}, "viewport": {"northeast": {"lat": 40.3685517802915, "lng": -3.319806969708499}, "southwest": {"lat": 40.36585381970851, "lng": -3.322504930291502}}}, "icon": "https://maps.gstatic.com/mapfiles/place_api/icons/v1/png_71/generic_business-71.png", "icon_background_color": "#7B9EB0", "icon_mask_base_uri": "https://maps.gstatic.com/mapfiles/place_api/icons/v2/generic_pinlet", "international_phone_number": "+34 918 73 55 21", "name": "José María Del Olmo Díaz", "place_id": "ChIJFX49ID9EQg0R6fnbjDx1Kis", "plus_code": {"compound_code": "9M8H+VG Pozuelo del Rey, Spain", "global_code": "8CGR9M8H+VG"}, "reference": "ChIJFX49ID9EQg0R6fnbjDx1Kis", "scope": "GOOGLE", "types": ["point_of_interest", "establishment"], "vicinity": "Calle de la Virgen de la Cabeza, 6, Pozuelo del Rey"}, {"business_status": "OPERATIONAL", "geometry": {"location": {"lat": 40.36540049999999, "lng": -3.3208269}, "viewport": {"northeast": {"lat": 40.3667139302915, "lng": -3.319509719708499}, "southwest": {"lat": 40.3640159697085, "lng": -3.322207680291502}}}, "icon": "https://maps.gstatic.com/mapfiles/place_api/icons/v1/png_71/pharmacy-71.png", "icon_background_color": "#F88181", "icon_mask_base_uri": "https://maps.gstatic.com/mapfiles/place_api/icons/v2/pharmacy_pinlet", "international_phone_number": "+34 918 73 42 39", "name": "Farmacia", "opening_hours": {"open_now": false}, "photos": [{"height": 4032, "html_attributions": ["<a href=\"https://maps.google.com/maps/contrib/108365256548992135227\">Miguel Ángel Parla Loriente</a>"], "photo_reference": "AWn5SU459T7NqprndRQlYL1KrOETtyo2VlEwMEjmUBpZ6I5rsvUvBGjkTcJo1m8cEciBzpACyfH9HVE2uwV32Awgy_5S7ZyV_3BolFtzjNA9lDOYzL7OHjdkcI_85QS3AJVqnzTuuWUxs4BGsbFxTPOdEFFI0WXorvtJAeroeYnWihi-r-cCRYRf1XYsZk_B4-reZ9m6_CBxK_u3a5NYOJ4QnaX_EB6kU0jIBJh2fjpixl-QBA8p_kuWz477Ogs1k7xEu-EzYwNu3o_Mp0Hry88xZu9tfltbC6k3MaCD01r7Rcv9kagDUUoIxrjVZygybXP-WbSnBtiCt3shTvr0xZCGhS_crg9g44HWCAhyZxiRmfc350ODLE65TP8eye2rfqC9EBzVaxqcCmLxppGFUmz1cBE-Qe9Z2btJD734-3hXqa2DsZf4uFcHgN2o5JMjd04xntt9PHmX6lzQxhnS_CE2DtsMYZVyPNu9bTl_usZmF4Au104yoS3CmiZrFoGFAIkWWUN7u6nGmhXop1lKhf0EDOZdtEN1VzUzZU3DwZTyjv0EfKnTyEbMc9PRTpD2cFHrnNvQmOkMQPKnjvneG1nSS9DpwISaiCrq51wMTELWVAiXrz_Q43b0Fxfsd-DsO2KGg0QW080D", "width": 3024}], "place_id": "ChIJN_T5rT9EQg0R-hsoMdpKkoo", "plus_code": {"compound_code": "9M8H+5M Pozuelo del Rey, Spain", "global_code": "8CGR9M8H+5M"}, "rating": 4.9, "reference": "ChIJN_T5rT9EQg0R-hsoMdpKkoo", "scope": "GOOGLE", "types": ["pharmacy", "store", "point_of_interest", "health", "establishment"], "user_ratings_total": 18, "vicinity": "Calle del Real, 13, Pozuelo del Rey"}, {"business_status": "OPERATIONAL", "geometry": {"location": {"lat": 40.36493959999999, "lng": -3.321798499999999}, "viewport": {"northeast": {"lat": 40.3665005302915, "lng": -3.320452269708497}, "southwest": {"lat": 40.3638025697085, "lng": -3.323150230291501}}}, "icon": "https://maps.gstatic.com/mapfiles/place_api/icons/v1/png_71/park-71.png", "icon_background_color": "#4DB546", "icon_mask_base_uri": "https://maps.gstatic.com/mapfiles/place_api/icons/v2/tree_pinlet", "name": "Parque", "photos": [{"height": 2268, "html_attributions": ["<a href=\"https://maps.google.com/maps/contrib/115592124922280418224\">Filofteia Ilie</a>"], "photo_reference": "AWn5SU7Z2DVbByl9MRqa38icIpWSHjSk70olqsbNfJi4_mbBXcRta5mPhmLaX9gGJ94PkCd2COI254RjFume6etviZ7d6kC1ToxVDofEWC_aJ5bAzEmruhsaag5bfhCskM04DAqab0P04X5sMsiEFS0aJ2VtJAugYJ5vWsLpSPgSGyt0mKd3QKwiYfl9K2J5TQVFoC91WTH61qY_-BjDDutqakJNRWIpJgcbaHY8IilHm1lbevPIukC5H-IPKccVyAi7_2jWppUG-qYlTgYXnQGpFjQo2WTf5FgfZsm87-S9MQYGqXwF0_tESE1SVDkQA87IywnNZnem_Os9HMWwvjpKwgOliGfn38eLMAvZ7lVecuFz9s729FHzr0CijyViJoZt36mOfnHm_3rkuUVCa5j_uLFSWCJSAS0UtnKKC6_Zh1sBW1bDAKbrC9ADfM1R7XAteOr_DKayGb_PQxPLFfcJhk5sWBF8W5YUqpAqEJUrZrVgWszWbYfEk63HAvmrV4j2Xir0lL62-Al3SOy7QpNPOhs1LtTYNmHINqOgIDA30zJBuPL71Pyk-kJ0zY6_mVsDu4OY3PRtT-TDuQXAMhCcgaIkN96sV9cKhsmEe2rcy2dE2oLNBhlrws9PWm6n6zF0YSFw55_3", "width": 4032}], "place_id": "ChIJgfdj3ZZFQg0RFLUcqj67vJc", "plus_code": {"compound_code": "9M7H+X7 Pozuelo del Rey, Spain", "global_code": "8CGR9M7H+X7"}, "rating": 3.8, "reference": "ChIJgfdj3ZZFQg0RFLUcqj67vJc", "scope": "GOOGLE", "types": ["park", "point_of_interest", "establishment"], "user_ratings_total": 8, "vicinity": "Calle de Esparteros, 19, Pozuelo del Rey"}, {"business_status": "OPERATIONAL", "geometry": {"location": {"lat": 40.3669499, "lng": -3.3205988}, "viewport": {"northeast": {"lat": 40.36827358029149, "lng": -3.319249719708498}, "southwest": {"lat": 40.36557561970849, "lng": -3.321947680291502}}}, "icon": "https://maps.gstatic.com/mapfiles/place_api/icons/v1/png_71/generic_business-71.png", "icon_background_color": "#7B9EB0", "icon_mask_base_uri": "https://maps.gstatic.com/mapfiles/place_api/icons/v2/generic_pinlet", "international_phone_number": "+34 680 38 12 45", "name": "Essence Home - Casas prefabricadas", "opening_hours": {"open_now": false}, "photos": [{"height": 1024, "html_attributions": ["<a href=\"https://maps.google.com/maps/contrib/110245578734450482476\">Essence Home - Casas prefabricadas</a>"], "photo_reference": "AWn5SU6rFESDeZpSaaETlQoFmuD9T33sBqAQmGAIHhHj_9xAFBstN59LkqQQE_5yg_mvB3MHuMQNHUgZPnDI6I9p1p1FCw9ezZbzhVMaG9fkGHvHoR_v03S2FiESYByDbzSKujacQmvvDRAMJkKeR3X9V2llnvidpe_U8iAYE8978YZj-k5EMOiLqUeIRhEMMpO9ZBzbwcKyJ9epiBqBpn_1fqJu_C-ETD0a9_lW9im3Pb6oial7RiqaYDuNRqu7USP1bGv9V6suV4sbq8IcALnNa2AOjQoPIn2lkku3hmTmUxE_ZKbyxB5wSg7YIXoXcbbDZjp-jCQwvNE", "width": 1024}], "place_id": "ChIJcfBAO-5FQg0RDhToJtW9d00", "plus_code": {"compound_code": "9M8H+QQ Pozuelo del Rey, Spain", "global_code": "8CGR9M8H+QQ"}, "reference": "ChIJcfBAO-5FQg0RDhToJtW9d00", "scope": "GOOGLE", "types": ["general_contractor", "point_of_interest", "establishment"], "vicinity": "Pozuelo del Rey"}, {"business_status": "OPERATIONAL", "geometry": {"location": {"lat": 40.3653844, "lng": -3.3206676}, "viewport": {"northeast": {"lat": 40.36669568029149, "lng": -3.319311569708498}, "southwest": {"lat": 40.36399771970849, "lng": -3.322009530291501}}}, "icon": "https://maps.gstatic.com/mapfiles/place_api/icons/v1/png_71/generic_business-71.png", "icon_background_color": "#7B9EB0", "icon_mask_base_uri": "https://maps.gstatic.com/mapfiles/place_api/icons/v2/generic_pinlet", "international_phone_number": "+34 631 31 34 55", "name": "Peluquería barbería pozuelo del rey calle real 15 local 5", "opening_hours": {"open_now": false}, "photos": [{"height": 3000, "html_attributions": ["<a href=\"https://maps.google.com/maps/contrib/103209938662760240233\">jorge salvat pelegrin</a>"], "photo_reference": "AWn5SU52gBYHZXWpKFTVnTASETG8DILbHEwcLRryCZHvdkADZe1IoAbFMIMeaedDVnooQ6xoH_RlH11HFgVHhfGDzaACeeh1vrglBJfHl-7B2ww0T8-O7zu1MeOlpq4Ns17tDp7mSv4WPt5LedV0sLi6Fv1Z42Eob-FMPx3leINInISr2HTFsbysC9zzGFAGvOXMX_Y8Owr_5db33aYWe7_p9dF5gkAQShNtGn58SOVKQFUamq5AO-VIXm7mtbfE2dPtOZaeqLAUq5nlb8gATK3EA73rDaogzqIQZTQcW1hcSC5uBratbG0IRitJTiA0s9XtD5Tqwog2KtjBBp93dPeX8JnHuPPY_74QWA62UemOELEqfStn02EaIX3qaOHZ4jf1gRBDVM5SQ95rBePYgy8TwW2xJJRruQs99qV072hrHvV7gAhyS_Z_D-ROqwm8xAkqDrhjUfet9JQPGCEb0urkkdxOIhLWV-Qj41LmIg6aAS14Aoes4Ubu_WkXLlmL8-8PbJQsH6_fxnbpMHz5NOZvNrcKNd8PtX4v4g5F6G28mk0mOGtVOomvufmG1YFO7wGSsCUmNj-d1NVKT9-ksChybhwJc90xOyp2ti9NvLonmqOMcPOJbdrybmhfeAxowICLQQoxS4D0kAfv-Uaq0F-92f5bx0k", "width": 4000}], "place_id": "ChIJa3K0dABFQg0RfqnxOIOtFdE", "plus_code": {"compound_code": "9M8H+5P Pozuelo del Rey, Spain", "global_code": "8CGR9M8H+5P"}, "rating": 4.5, "reference": "ChIJa3K0dABFQg0RfqnxOIOtFdE", "scope": "GOOGLE", "types": ["hair_care", "point_of_interest", "establishment"], "user_ratings_total": 25, "vicinity": "Calle del Real, 15, local 5, Pozuelo del Rey"}, {"business_status": "OPERATIONAL", "geometry": {"location": {"lat": 40.3653844, "lng": -3.3206676}, "viewport": {"northeast": {"lat": 40.36669568029149, "lng": -3.319327019708498}, "southwest": {"lat": 40.36399771970849, "lng": -3.322024980291502}}}, "icon": "https://maps.gstatic.com/mapfiles/place_api/icons/v1/png_71/school-71.png", "icon_background_color": "#7B9EB0", "icon_mask_base_uri": "https://maps.gstatic.com/mapfiles/place_api/icons/v2/school_pinlet", "international_phone_number": "+34 631 99 44 17", "name": "Autoescuela Aza 1.0", "opening_hours": {"open_now": false}, "place_id": "ChIJo_ZCpT9EQg0RCAEeDe8yVS8", "plus_code": {"compound_code": "9M8H+5P Pozuelo del Rey, Spain", "global_code": "8CGR9M8H+5P"}, "reference": "ChIJo_ZCpT9EQg0RCAEeDe8yVS8", "scope": "GOOGLE", "types": ["point_of_interest", "establishment"], "vicinity": "Calle del Real, 15, Pozuelo del Rey"}, {"business_status": "OPERATIONAL", "geometry": {"location": {"lat": 40.3653844, "lng": -3.3206676}, "viewport": {"northeast": {"lat": 40.3666936802915, "lng": -3.319304219708499}, "southwest": {"lat": 40.3639957197085, "lng": -3.322002180291503}}}, "icon": "https://maps.gstatic.com/mapfiles/place_api/icons/v1/png_71/cafe-71.png", "icon_background_color": "#FF9E67", "icon_mask_base_uri": "https://maps.gstatic.com/mapfiles/place_api/icons/v2/cafe_pinlet", "international_phone_number": "+34 918 85 83 87", "name": "Cafeteria Enkuentros RESTAURANTE LOS ARCOS", "opening_hours": {"open_now": false}, "photos": [{"height": 3072, "html_attributions": ["<a href=\"https://maps.google.com/maps/contrib/113416786530712333660\">Jesús G.</a>"], "photo_reference": "AWn5SU6N2y8vSzuecG6NftFRTlR_2N2qpQvgkew1OS8TE6NRVkPbZTq2TUxadN7MZkt1XOmfBhlSl-C80E4qR_lPeSDLSXiiVvdNcOkzbwZmVg7RmtRaaM4cL_-CsR1kyOpUz-jEG-ad-G4NULdxGfm-WvOBdK5ZIINtLQDIydHVRVHNJb7RgUnRRcsMpz1vgqkh4-qCHQyhdkx47IYVvD55XzZ9Qw1jhRv5KOhvQ31yjxZ7hzj2jJk0ojrTRwCA8MenMJiUswNeLqZhTz4yaKuRP3XbUe7X69a2Nc57ZPNBao-klE0-XL1SoeCWdpNuu067xWCE75Djv-LVbptKCBHubr-ocImqgiKg_KM7a8awcS5704e5xc9oZg46BCDR3yQ56k1qxBv12gH9aYNwpF8YcFVvNt8vwrqxqa5xZ-5IUJjSaAVPt2U8cXYs5GD0bjO9F2MX8qdBDQowjGyNUfzkMlIA8rRMrOoH9XE_GiIvxVplHh-OjJA2OUYx2QoorqFfHUWA_pyK5cgoC6aOlSi5yzzcec1AYxUVjhEVJmRByuTD52YWMIvwTkPKPdFIiNGcNPEh7F6JOgkFs2ZpcmitDq7EP-antEu5h25MPb2rEAc8BJfNKeSgjtUi8sow2Evt9lsoGw", "width": 4096}], "place_id": "ChIJbTHP8D5EQg0RHSUp1T6bfBA", "plus_code": {"compound_code": "9M8H+5P Pozuelo del Rey, Spain", "global_code": "8CGR9M8H+5P"}, "rating": 4.1, "reference": "ChIJbTHP8D5EQg0RHSUp1T6bfBA", "scope": "GOOGLE", "types": ["cafe", "store", "food", "point_of_interest", "establishment"], "user_ratings_total": 108, "vicinity": "Calle del Real, 15, Pozuelo del Rey"}]