[{"business_status": "OPERATIONAL", "geometry": {"location": {"lat": 40.2041201, "lng": -3.8590322}, "viewport": {"northeast": {"lat": 40.20549678029149, "lng": -3.857740069708497}, "southwest": {"lat": 40.20279881970849, "lng": -3.860438030291502}}}, "icon": "https://maps.gstatic.com/mapfiles/place_api/icons/v1/png_71/bank-71.png", "icon_background_color": "#909CE1", "icon_mask_base_uri": "https://maps.gstatic.com/mapfiles/place_api/icons/v2/bank-intl_pinlet", "international_phone_number": "+34 918 10 32 10", "name": "Banco Sabadell", "opening_hours": {"open_now": false}, "photos": [{"height": 1080, "html_attributions": ["<a href=\"https://maps.google.com/maps/contrib/105348047079285848088\">Banco Sabadell</a>"], "photo_reference": "AWn5SU4NFXsixiVnaAEXMcW55vqdrfG1CQtT0koeV1xKR9FTt4RwZYJmpSYQ4T-vLhA9jhzmil3dIfpvC_LEATMGI6RpUaXpsN_kMofm1Eh4AGxQ8UDyppHRaCuW04ld4qXkR2goE7wtZOX8JetgNl5Szxf-sfD1DXSlqcF9gI63rJUo-1CfS87bUz0HoC1Vp-onKi52GLZSJ_6TWI8SySPVyTFohfxadcfT_bRX-WQhSQof3NHKm0D7mqRmTM3F3dF83XLdvkhy-xsyr2aUAt-R9X0Tl_y2eJCScH10QrcrQyDe50oSTUGveVTiygl3QX5ZfMk8HA3zNGs", "width": 1920}], "place_id": "ChIJq6qqahvzQQ0RUBrob9vvjYc", "plus_code": {"compound_code": "643R+J9 Griñón, Spain", "global_code": "8CGR643R+J9"}, "rating": 3.3, "reference": "ChIJq6qqahvzQQ0RUBrob9vvjYc", "scope": "GOOGLE", "types": ["bank", "atm", "accounting", "finance", "point_of_interest", "establishment"], "user_ratings_total": 15, "vicinity": "Calle Francia, s/n, Griñón"}, {"business_status": "OPERATIONAL", "geometry": {"location": {"lat": 40.2116631, "lng": -3.8496609}, "viewport": {"northeast": {"lat": 40.2131073302915, "lng": -3.848248719708498}, "southwest": {"lat": 40.2104093697085, "lng": -3.850946680291502}}}, "icon": "https://maps.gstatic.com/mapfiles/place_api/icons/v1/png_71/bank-71.png", "icon_background_color": "#909CE1", "icon_mask_base_uri": "https://maps.gstatic.com/mapfiles/place_api/icons/v2/bank-intl_pinlet", "international_phone_number": "+34 918 14 00 51", "name": "Banco Santander", "opening_hours": {"open_now": false}, "photos": [{"height": 720, "html_attributions": ["<a href=\"https://maps.google.com/maps/contrib/108002467892535181635\">Banco Santander</a>"], "photo_reference": "AWn5SU7ITOfyuF5sfFl0m3NSHEQL2AhlhZDPLc-jBK3ZksypDzu1kvluTXBjuL_ByC5pV5khQp7ajzL9t9ERGnovetkF3wkFAhXCrJuAOhfqIXoOXlrBIeKK4BOUxrNN-65Vy5CAhrE5qvnxokeo7ze7w9hqfhQTgPEzzeZCH3k6Z9ZaVSAfYXDFU8QQalles6LjJVzyaHMBNx0WD9YlmDdy_jZBAAZbEg4Bk4S0L64_dhu1x6315cpmoO44F57PDOoK7t2Zy52-QVQq0_pp5_Fb9Ic2_dO8-0ie55Ak3rY7JYcVp24ARLpfv1OAaANzJaQsHFu5YHWAYqk", "width": 1280}], "place_id": "ChIJ86-wXruIb0ARTl0avVMPiCo", "plus_code": {"compound_code": "6562+M4 Griñón, Spain", "global_code": "8CGR6562+M4"}, "rating": 2.5, "reference": "ChIJ86-wXruIb0ARTl0avVMPiCo", "scope": "GOOGLE", "types": ["bank", "atm", "finance", "point_of_interest", "establishment"], "user_ratings_total": 22, "vicinity": "Calle de la Grama, 4, Griñón"}, {"business_status": "OPERATIONAL", "geometry": {"location": {"lat": 40.190987, "lng": -3.8395622}, "viewport": {"northeast": {"lat": 40.19232428029151, "lng": -3.838247969708498}, "southwest": {"lat": 40.18962631970851, "lng": -3.840945930291502}}}, "icon": "https://maps.gstatic.com/mapfiles/place_api/icons/v1/png_71/bank-71.png", "icon_background_color": "#909CE1", "icon_mask_base_uri": "https://maps.gstatic.com/mapfiles/place_api/icons/v2/bank-intl_pinlet", "international_phone_number": "+34 600 40 40 90", "name": "CaixaBank", "opening_hours": {"open_now": false}, "photos": [{"height": 1192, "html_attributions": ["<a href=\"https://maps.google.com/maps/contrib/115861787751337677959\">CaixaBank</a>"], "photo_reference": "AWn5SU5wGbUCTmh5UcuhZBGf8mw-q1OR65ojVVFh5O_bmf7zpM_c4K2HxHP5cmxo8yzqkZTksBIg64nWrzqAal7CKSTjwEFd33qQwQEtpcg0aPr6-jGzGmv-80clN-3ZRBd9KqrRQvSPaAq9rhS0yJX5WYVMtKK5kGTi8oTjqtxsWI3xYFuSiwJ5afHr_I_DS2mi6L02dYouBuku91dl9Gt5niQpsW_y5668S7h_5Z_H6uH6fWDpqZ129La5VDzyV3-4gLwhKg-gl3zY7patdNWH8d0Nxpko1gdeaHuf8oIPGTasn1bcdgH2IiCU7vV_uwpCJlha6m0u", "width": 2120}], "place_id": "ChIJHVn-5V_zQQ0R-4NmBTdMv0A", "plus_code": {"compound_code": "55R6+95 Cubas de la Sagra, Spain", "global_code": "8CGR55R6+95"}, "rating": 3.6, "reference": "ChIJHVn-5V_zQQ0R-4NmBTdMv0A", "scope": "GOOGLE", "types": ["bank", "finance", "point_of_interest", "establishment"], "user_ratings_total": 9, "vicinity": "Calle Real, 20, Cubas de la Sagra"}, {"business_status": "OPERATIONAL", "geometry": {"location": {"lat": 40.1705393, "lng": -3.8298786}, "viewport": {"northeast": {"lat": 40.17191293029151, "lng": -3.828479069708497}, "southwest": {"lat": 40.16921496970851, "lng": -3.831177030291502}}}, "icon": "https://maps.gstatic.com/mapfiles/place_api/icons/v1/png_71/bank-71.png", "icon_background_color": "#909CE1", "icon_mask_base_uri": "https://maps.gstatic.com/mapfiles/place_api/icons/v2/bank-intl_pinlet", "international_phone_number": "+34 911 26 01 05", "name": "Eurocaja Rural", "opening_hours": {"open_now": false}, "photos": [{"height": 1848, "html_attributions": ["<a href=\"https://maps.google.com/maps/contrib/101112784618034224830\">Eurocaja Rural</a>"], "photo_reference": "AWn5SU7QfPtCGF6XgAePw6QlPLZSb-67ylziNumb8_2sjx_KNiJM9tjklfT0ayppIT9Tu0KC7Lo86gemKBO5jelQXBka3HdYU9LMUqArNw6VJvngYPiO4lJJF43PenVKi3eCT7_gEWuKTwEGqv0GuWs-k7Q2nBnni576wrN2P4tKXDY2456_r5upx5k4jW-tLx-Rtx4xwLHNmYUjp17trSr6FZhgu2ACaPXeZHf8wmC9iyNQxW4EgBhsQ7TtdTx159l16z2W7xa4Sw8Ol1TOx8lE5TwpI5EYHv3lRh-XWzzLhonnpNm7WzasclbbctD7AkbbWltKslGhUgc", "width": 3104}], "place_id": "ChIJORBjptnzQQ0RXK3yBQRomGQ", "plus_code": {"compound_code": "55CC+62 Casarrubuelos, Spain", "global_code": "8CGR55CC+62"}, "rating": 5, "reference": "ChIJORBjptnzQQ0RXK3yBQRomGQ", "scope": "GOOGLE", "types": ["bank", "finance", "point_of_interest", "establishment"], "user_ratings_total": 11, "vicinity": "Calle Goya, 1, Casarrubuelos"}]