[{"business_status": "OPERATIONAL", "geometry": {"location": {"lat": 40.7410142, "lng": -4.0549947}, "viewport": {"northeast": {"lat": 40.7424046802915, "lng": -4.053677669708497}, "southwest": {"lat": 40.7397067197085, "lng": -4.056375630291502}}}, "icon": "https://maps.gstatic.com/mapfiles/place_api/icons/v1/png_71/bank-71.png", "icon_background_color": "#909CE1", "icon_mask_base_uri": "https://maps.gstatic.com/mapfiles/place_api/icons/v2/bank-intl_pinlet", "international_phone_number": "+34 918 52 34 66", "name": "Banco Santander Agentes", "opening_hours": {"open_now": false}, "photos": [{"height": 720, "html_attributions": ["<a href=\"https://maps.google.com/maps/contrib/113034949605232842105\">Banco Santander Agentes</a>"], "photo_reference": "AWn5SU6DDQKI2tTTUO_PuKBQ6y5nQHox0uxFlwj9YGh4VHi6HLhJ31wSNgsKucKIWulIE0zg_CXDZbWZTyieo0evlyQcXx-ItsvcGYFBGsYw66dg-T4ISZjTkB2RZIOViZ5aUetYzn6-PhI1u7TkT27LXyzSNDJH38H3JvOWNt0aVN-oWPwyz97JrHmDWUX5_xNjOlIRSZbqr1mpOjZ-L1Vah1b_fSu7SWK2RNcWeo8bpqjxqA3ZV5QV800MEDVfufpkqXbBx4tchExVANMlx_Uasp578Ci8DvxmPuk-abI05S5oiXmFiYh26-sT7QLZKeXTzJF1AtWnKx8", "width": 1280}], "place_id": "ChIJje8tGkRtQQ0RApVrkwLd7EY", "plus_code": {"compound_code": "PWRW+C2 Cercedilla, Spain", "global_code": "8CGQPWRW+C2"}, "rating": 2.1, "reference": "ChIJje8tGkRtQQ0RApVrkwLd7EY", "scope": "GOOGLE", "types": ["bank", "atm", "finance", "point_of_interest", "establishment"], "user_ratings_total": 7, "vicinity": "Pz De, Plaza Maria Minguez, 1, Cercedilla"}, {"business_status": "OPERATIONAL", "geometry": {"location": {"lat": 40.74115, "lng": -4.0558434}, "viewport": {"northeast": {"lat": 40.74256068029149, "lng": -4.054421869708498}, "southwest": {"lat": 40.7398627197085, "lng": -4.057119830291502}}}, "icon": "https://maps.gstatic.com/mapfiles/place_api/icons/v1/png_71/bank-71.png", "icon_background_color": "#909CE1", "icon_mask_base_uri": "https://maps.gstatic.com/mapfiles/place_api/icons/v2/bank-intl_pinlet", "international_phone_number": "+34 600 40 40 90", "name": "CaixaBank", "opening_hours": {"open_now": false}, "photos": [{"height": 1192, "html_attributions": ["<a href=\"https://maps.google.com/maps/contrib/112310329504958286585\">CaixaBank</a>"], "photo_reference": "AWn5SU7o-m0QDjPweuGFynbNUkRkz1ZcSf2J-ca2T7jaPYFHc6BWGz8oKa1aZnTAIINP98rNXUMORIeqK9L9Yx_ckYUXXj5EPkhm9B33HHllZvPc8ujnJhxY4N6ZCzZ4L7jECL_qyAVznp643PxlJ6oPEw4Q0dggir_UhtWvOYLb9X1xILGjJlLfYJoTW9BAyHPE9nkPglqPP8uvONbb3Q2UkMYgEA9EECSud_cs-VMuebBEWEBZV5imfBGLr-xT0hzxXCDlPz2xE6dUwVFUrxbkM66JYKHCmjToCUdixR9FjDx8AwwuWT-jg37ef4A9nxh2ok8LlkszTBo", "width": 2120}], "place_id": "ChIJL0VnOwltQQ0RUBM6yyuqnQ8", "plus_code": {"compound_code": "PWRV+FM Cercedilla, Spain", "global_code": "8CGQPWRV+FM"}, "rating": 2.3, "reference": "ChIJL0VnOwltQQ0RUBM6yyuqnQ8", "scope": "GOOGLE", "types": ["bank", "finance", "point_of_interest", "establishment"], "user_ratings_total": 14, "vicinity": "Calle Mayor, 1, Cercedilla"}, {"business_status": "OPERATIONAL", "geometry": {"location": {"lat": 40.741204, "lng": -4.055982299999999}, "viewport": {"northeast": {"lat": 40.7425414302915, "lng": -4.054646569708496}, "southwest": {"lat": 40.7398434697085, "lng": -4.057344530291501}}}, "icon": "https://maps.gstatic.com/mapfiles/place_api/icons/v1/png_71/bank-71.png", "icon_background_color": "#909CE1", "icon_mask_base_uri": "https://maps.gstatic.com/mapfiles/place_api/icons/v2/bank-intl_pinlet", "international_phone_number": "+34 679 71 60 39", "name": "BBVA - Agente Autorizado", "opening_hours": {"open_now": false}, "photos": [{"height": 720, "html_attributions": ["<a href=\"https://maps.google.com/maps/contrib/104157690668789749947\">BBVA - Agente Autorizado</a>"], "photo_reference": "AWn5SU5wbhINshhzzuZRKm7XXfbIpdc-ZeBDaTMXr8PVVizU6Ph16LEm_mGYgs3eCKPLW7C01GQGIdEoReEMKMNzLxijOG4YRaKSPDiMHKAKKYf3yEJ_HUVc8DTzKkGrdJCBnvmNx-kyOYkamQHW8hBk7GKlutqyAqMLN6ovJNvlYQr3b9OspNIQxmK2Bm6enRwY_qB0kjNTn1InqETCMLwkNorw6BNqz7H9WIpAPUBv53p56ikyi2T4KToKNkhP29Y_LBxiz3q4MuR4C3vQM7ZVY2eDIRkpJ8OcKXG6nx1zBgQZFtR3ZF0QwcNRiQHBWRAuOHUYVsvz_3U", "width": 1280}], "place_id": "ChIJs1LadidtQQ0RRgCI-2J23vI", "plus_code": {"compound_code": "PWRV+FJ Cercedilla, Spain", "global_code": "8CGQPWRV+FJ"}, "rating": 4.6, "reference": "ChIJs1LadidtQQ0RRgCI-2J23vI", "scope": "GOOGLE", "types": ["bank", "atm", "finance", "point_of_interest", "establishment"], "user_ratings_total": 29, "vicinity": "Calle Mayor, 6, Cercedilla"}]