[{"geometry": {"location": {"lat": 40.1681485, "lng": -3.275967}, "viewport": {"northeast": {"lat": 40.17932172279545, "lng": -3.265848645362}, "southwest": {"lat": 40.16273292693714, "lng": -3.28781923166513}}}, "icon": "https://maps.gstatic.com/mapfiles/place_api/icons/v1/png_71/geocode-71.png", "icon_background_color": "#7B9EB0", "icon_mask_base_uri": "https://maps.gstatic.com/mapfiles/place_api/icons/v2/generic_pinlet", "name": "Villarejo de Salvanés", "photos": [{"height": 3000, "html_attributions": ["<a href=\"https://maps.google.com/maps/contrib/111613752290851797779\">Julia</a>"], "photo_reference": "AWn5SU53g1Mn1EE2V1U-Mi-e_CpkTpANGhnfO4sP4Z32sYQs6eRXfXp2aaFQ27jnCp2k5xvGjFiGnq2vs5whj-vo0MV6D3qHEu4WvQuiIpmHMnjSEhC_FqBHAbmEPNpeWqsySc0d1SnK9HeKtmc2Qvsfwv5wYeq73Tg2_LYofMuL3GQOznNWQo6uJV-DzGJF2tCD-LO_LvNSLGu4AcTVV8ElHOWZT5vhH1RdRfsh85xgDUGJN-144K_N6_p1pS9-c10V9PnANAMAm0eWPrmJDo8CbPR2BArAyCq4CZ52xXXWFBB-yzMLFuY4o7QAWEGRZutcjLexFRvSV3i8Jg5ZjCDNb6BHmvYtsIfsEnej4TBSfMvTO8trHuUqoI5cs9V2Fxl4T2BJxbmX_YiH19pl4mxSm8oOl7JN8DE5AID_Ut9dmiGdM8QabtGaxmOWk_54oBSYltY4RFCia7kiMMZi5kRNgh1z7mZIv7cs-NXbTjTwKf4vT-CS7_KhP7f-2i0kJu92OZMkVBi0AV70JlDyOIWUCMAInzUV6C-O-g9K_UybocVkcAViZJ9RkWCFtwKBE6xfNQwxoEYGzl7_WbJSGX9PBmyAI1QXwTxO16yktu3uml26N4nk4u9i9lLysmL3Z-lfjC1e3A", "width": 4000}], "place_id": "ChIJOYMVxEdvQg0RJ5D2ihuC3KI", "reference": "ChIJOYMVxEdvQg0RJ5D2ihuC3KI", "scope": "GOOGLE", "types": ["locality", "political"], "vicinity": "Villarejo de Salvanés"}, {"business_status": "OPERATIONAL", "geometry": {"location": {"lat": 40.1690254, "lng": -3.2753186}, "viewport": {"northeast": {"lat": 40.17033208029149, "lng": -3.273954469708498}, "southwest": {"lat": 40.1676341197085, "lng": -3.276652430291502}}}, "icon": "https://maps.gstatic.com/mapfiles/place_api/icons/v1/png_71/bank-71.png", "icon_background_color": "#909CE1", "icon_mask_base_uri": "https://maps.gstatic.com/mapfiles/place_api/icons/v2/bank-intl_pinlet", "international_phone_number": "+34 918 74 59 28", "name": "BBVA", "opening_hours": {"open_now": false}, "photos": [{"height": 720, "html_attributions": ["<a href=\"https://maps.google.com/maps/contrib/117188502476084618189\">BBVA</a>"], "photo_reference": "AWn5SU5AHXYvpM3rRfYAUe3m37Mn97wQqUQuLpIrbIEwVaHr1T5ssr7nZBU2nVbqBVf1m12NTbhxCNJFZcL8JCyRcfw__aMMigJ220YuDAUyCn6yt-1y2Z-ZNW2Ss7JLsoSs9HBBvBbEThYN9Bi4p1xDHJM5xwnHe2_clUDVzhpVwVYb5APoSPAaqBDyc5xbx18VazpfY-qTU1n7q5DF9qMIYLAdwIMyDqeTN0uuSd6QDPHLJIwZZA9uw2TzBc_XtkcTk7WTnxVoVMRuFQh5MOj0jglEn9wITphkM6LmltfWaUSinF2PQ1vkJrKb7i0u41nJQbP7QdABfDk", "width": 1280}], "place_id": "ChIJY1l5RUZvQg0RsdptgFoHvoY", "plus_code": {"compound_code": "5P9F+JV Villarejo de Salvanés, Spain", "global_code": "8CGR5P9F+JV"}, "rating": 2, "reference": "ChIJY1l5RUZvQg0RsdptgFoHvoY", "scope": "GOOGLE", "types": ["bank", "atm", "accounting", "finance", "point_of_interest", "establishment"], "user_ratings_total": 21, "vicinity": "Calle Mayor, 5, Villarejo de Salvanés"}, {"business_status": "OPERATIONAL", "geometry": {"location": {"lat": 40.1678299, "lng": -3.2765666}, "viewport": {"northeast": {"lat": 40.1691739302915, "lng": -3.275161819708498}, "southwest": {"lat": 40.1664759697085, "lng": -3.277859780291501}}}, "icon": "https://maps.gstatic.com/mapfiles/place_api/icons/v1/png_71/civic_building-71.png", "icon_background_color": "#7B9EB0", "icon_mask_base_uri": "https://maps.gstatic.com/mapfiles/place_api/icons/v2/civic-bldg_pinlet", "international_phone_number": "+34 918 74 21 82", "name": "Oficina de Correos", "opening_hours": {"open_now": false}, "photos": [{"height": 900, "html_attributions": ["<a href=\"https://maps.google.com/maps/contrib/108841183950781141152\">Oficina de Correos</a>"], "photo_reference": "AWn5SU6O5TImSCPPVyran-FSj6C7v_a1F8R3-mY0rm3DIZmlEFA-YBNr9t23uUne9eYJiskLmqx9sBzhdg4I9acFMMv5daod4KFLHcOLI0KbzeNHbHYqOMnfR1U_55_Ndi67YNlbO-7NbXFNjHsqn1_6vYLG7fYkxp4Mzxg6LVKZ3mb9aPzK_W4gT-_zBnwyxhM_CD8cMRen38mfnwKV1jga-NahdOuJUyvCWtRW3W_BdSmDsnOj0bKerzuZtwd09Ej40XVAum5by_0L5eq2tr_cXDhWv9IfrvoxMmx3G2ZoBS4KZzgAI-YpdlVOmaFUiH1FTaUrJwBMxjo", "width": 1600}], "place_id": "ChIJESBVBkdvQg0RIvNYWV-HCOU", "plus_code": {"compound_code": "5P9F+49 Villarejo de Salvanés, Spain", "global_code": "8CGR5P9F+49"}, "rating": 3.8, "reference": "ChIJESBVBkdvQg0RIvNYWV-HCOU", "scope": "GOOGLE", "types": ["post_office", "finance", "point_of_interest", "establishment"], "user_ratings_total": 28, "vicinity": "Calle de Luis de Requesens, 4, Villarejo de Salvanés"}, {"business_status": "OPERATIONAL", "geometry": {"location": {"lat": 40.1678741, "lng": -3.2765033}, "viewport": {"northeast": {"lat": 40.1692028302915, "lng": -3.275124619708498}, "southwest": {"lat": 40.1665048697085, "lng": -3.277822580291502}}}, "icon": "https://maps.gstatic.com/mapfiles/place_api/icons/v1/png_71/civic_building-71.png", "icon_background_color": "#7B9EB0", "icon_mask_base_uri": "https://maps.gstatic.com/mapfiles/place_api/icons/v2/civic-bldg_pinlet", "international_phone_number": "+34 918 74 40 36", "name": "Guardia Civil de Villarejo de Salvanés", "opening_hours": {"open_now": false}, "place_id": "ChIJz2ZpSENvQg0R0KCxC509anM", "plus_code": {"compound_code": "5P9F+49 Villarejo de Salvanés, Spain", "global_code": "8CGR5P9F+49"}, "rating": 3.6, "reference": "ChIJz2ZpSENvQg0R0KCxC509anM", "scope": "GOOGLE", "types": ["police", "point_of_interest", "establishment"], "user_ratings_total": 5, "vicinity": "Calle de Luis de Requesens, 2, Villarejo de Salvanés"}, {"business_status": "OPERATIONAL", "geometry": {"location": {"lat": 40.1702631, "lng": -3.2753117}, "viewport": {"northeast": {"lat": 40.17161798029149, "lng": -3.273975319708498}, "southwest": {"lat": 40.16892001970849, "lng": -3.276673280291502}}}, "icon": "https://maps.gstatic.com/mapfiles/place_api/icons/v1/png_71/civic_building-71.png", "icon_background_color": "#7B9EB0", "icon_mask_base_uri": "https://maps.gstatic.com/mapfiles/place_api/icons/v2/civic-bldg_pinlet", "international_phone_number": "+34 918 74 41 80", "name": "Centro de Salud Villarejo de Salvanés", "place_id": "ChIJzYeDJUZvQg0RVQu0AoxqR30", "plus_code": {"compound_code": "5PCF+4V Villarejo de Salvanés, Spain", "global_code": "8CGR5PCF+4V"}, "rating": 2.1, "reference": "ChIJzYeDJUZvQg0RVQu0AoxqR30", "scope": "GOOGLE", "types": ["doctor", "health", "point_of_interest", "establishment"], "user_ratings_total": 56, "vicinity": "Calle del Hospital, 7, Villarejo de Salvanés"}, {"business_status": "OPERATIONAL", "geometry": {"location": {"lat": 40.1705107, "lng": -3.2792882}, "viewport": {"northeast": {"lat": 40.17182458029149, "lng": -3.277908469708498}, "southwest": {"lat": 40.1691266197085, "lng": -3.280606430291502}}}, "icon": "https://maps.gstatic.com/mapfiles/place_api/icons/v1/png_71/generic_business-71.png", "icon_background_color": "#7B9EB0", "icon_mask_base_uri": "https://maps.gstatic.com/mapfiles/place_api/icons/v2/generic_pinlet", "international_phone_number": "+34 620 46 99 81", "name": "Centro Veterinario MasVet", "opening_hours": {"open_now": false}, "photos": [{"height": 3024, "html_attributions": ["<a href=\"https://maps.google.com/maps/contrib/108764170647637130561\">Pedro Particular</a>"], "photo_reference": "AWn5SU4A_ZBYsRLuyFK9tglW-Y7yj-wnhVHEIYDALdzMuDxy6MCArKVfHdSv0NFlnTMN9az_eHkoLPRfpKLEX3xRChra3dBpm0qByd7nTJBHFpTs6Pj_5yeiIApgfTQOFsXrqUqgqJpyDVg6-ON8TCtdp3_7KisXCCTmZZ0CWfNOvCqmsVELRGXnaNy-a4lf9z2f7qjZGY5A0uSw2Ed8rGrzjNeXTNhlYfLsx9EHpWA7I1HkRtq9b-Kn7jA5tFhfmiSvTCsiQizzZloL34LiEhJIPnC66PYWPhlVgxoj3Ya8UcITQVOQcO1bZ9o1bIzuywGtFzHr7Ip2Eos4FWzTvPL_ep-Dj5a8DzZx8zhBVQgqEeezMopwyXyE_2iUe_TgvfK9ud_tpyQUiHcb3wa3BvjnRj4ED7IqEUK3FZV1pK8mgx6TbwXuXjvr4kjYrRRmzxnFitlz4kUvwF5J_M5zwNfIfF4PFV2zhv8DjvboHWronynLpnwPuX86Lyo3fASvjach6oeFnJdl9WHyQOJtoEmo-6tE8UvXrwDsHPErO9VMP_hOMjh-FPp1r7c9WMsbzoTpky46VYIyJrcEH_3SxfQRFmsINmXqSOqTdOpvdVfG8aMvWrCh1g0g7rKOiwWVzu7Q", "width": 4032}], "place_id": "ChIJMbZMHDhvQg0RtUpmsTbQWeQ", "plus_code": {"compound_code": "5PCC+67 Villarejo de Salvanés, Spain", "global_code": "8CGR5PCC+67"}, "rating": 4.6, "reference": "ChIJMbZMHDhvQg0RtUpmsTbQWeQ", "scope": "GOOGLE", "types": ["veterinary_care", "point_of_interest", "establishment"], "user_ratings_total": 287, "vicinity": "Calle Guadalajara, 24, Villarejo de Salvanés"}, {"business_status": "OPERATIONAL", "geometry": {"location": {"lat": 40.16955039999999, "lng": -3.273375399999999}, "viewport": {"northeast": {"lat": 40.17092943029149, "lng": -3.272052219708498}, "southwest": {"lat": 40.1682314697085, "lng": -3.274750180291501}}}, "icon": "https://maps.gstatic.com/mapfiles/place_api/icons/v1/png_71/shopping-71.png", "icon_background_color": "#4B96F3", "icon_mask_base_uri": "https://maps.gstatic.com/mapfiles/place_api/icons/v2/shopping_pinlet", "international_phone_number": "+34 918 74 50 17", "name": "GASTABIEN, tienda Online, disfraces, juguetes, decoración, etc.", "opening_hours": {"open_now": false}, "photos": [{"height": 3000, "html_attributions": ["<a href=\"https://maps.google.com/maps/contrib/111986678333975845318\">Francisco</a>"], "photo_reference": "AWn5SU5thVrC4ru34MDrlMQIrRii0GxURw_CEtKtBayVX1yFKDwQ3vf627To3ZeL11sUrvB3Xg00lVrfQ20Vxmq29lHQ_0tfcT5aFBsA-o6YGyEVR4diMm5NPtS4lLdmLuJUG5DyLzy9B8CuALA4gEAoTsDdDYQ-2mAXIisn778Dbg77fJXDjIFXoFBuQVPVhhIm7IfdS8LOEwV67AGFNgmNmw1xfyraYxp-mEfvbMWKSiohaKFzz_QXxjhvRQV6xuT0NUTnBOfC3sgOWHu_rtLDgEJ3C5cyaxSPi5-3AkwbSMkHU_jG969GD_oHMcWmzx1RGjLZeQaNGFuMr2zu8-HxtSwqBcQL7EWIi76fHrdGN4ro-NDfKApUcteV51TRxFuOZcsbxXZnokUGjYCu-mdEPIbigPO8pPixzb3QkCcKcx6__cA8oGH9byxBAV_AEs6zDtDmpJNg8M5sOls3Q-qIB7UCd42Jn-oyPkUAJmMEd0taxyfRVzqlo9etbCiomcF_Ja0CMeW7AA1Qe7eu1TBICdUH37GTvfr1XtDfzfGeM8CAom0_B5nnoji50aVpMN6RtKMYJDfis3dMsRKyY9GKJkEIOQbJomgdJI0dYYU4HnutVGFkyfwHrDpaeVVJ6ih9_9UZZiSc", "width": 4000}], "place_id": "ChIJ61Qb4EVvQg0RkGbdLWQ1EEU", "plus_code": {"compound_code": "5P9G+RJ Villarejo de Salvanés, Spain", "global_code": "8CGR5P9G+RJ"}, "rating": 4.4, "reference": "ChIJ61Qb4EVvQg0RkGbdLWQ1EEU", "scope": "GOOGLE", "types": ["store", "point_of_interest", "establishment"], "user_ratings_total": 109, "vicinity": "Mayor, 40, Villarejo de Salvanés"}, {"business_status": "OPERATIONAL", "geometry": {"location": {"lat": 40.1688701, "lng": -3.2751613}, "viewport": {"northeast": {"lat": 40.1702631302915, "lng": -3.273825369708498}, "southwest": {"lat": 40.1675651697085, "lng": -3.276523330291501}}}, "icon": "https://maps.gstatic.com/mapfiles/place_api/icons/v1/png_71/shopping-71.png", "icon_background_color": "#4B96F3", "icon_mask_base_uri": "https://maps.gstatic.com/mapfiles/place_api/icons/v2/shopping_pinlet", "international_phone_number": "+34 672 39 44 94", "name": "PCyMAS, servicios informaticos y suministros de material de oficina", "opening_hours": {"open_now": false}, "place_id": "ChIJ3xTlREZvQg0RXFgAJGQw49Y", "plus_code": {"compound_code": "5P9F+GW Villarejo de Salvanés, Spain", "global_code": "8CGR5P9F+GW"}, "reference": "ChIJ3xTlREZvQg0RXFgAJGQw49Y", "scope": "GOOGLE", "types": ["electronics_store", "point_of_interest", "store", "establishment"], "vicinity": "Mayor, 10, Villarejo de Salvanés"}, {"business_status": "OPERATIONAL", "geometry": {"location": {"lat": 40.1688279, "lng": -3.2766548}, "viewport": {"northeast": {"lat": 40.1701310802915, "lng": -3.275325719708498}, "southwest": {"lat": 40.16743311970851, "lng": -3.278023680291501}}}, "icon": "https://maps.gstatic.com/mapfiles/place_api/icons/v1/png_71/shopping-71.png", "icon_background_color": "#4B96F3", "icon_mask_base_uri": "https://maps.gstatic.com/mapfiles/place_api/icons/v2/shopping_pinlet", "international_phone_number": "+34 918 74 54 34", "name": "Floristería La Perla", "opening_hours": {"open_now": false}, "photos": [{"height": 3096, "html_attributions": ["<a href=\"https://maps.google.com/maps/contrib/115259023667620111887\">Sonsoles Campeño</a>"], "photo_reference": "AWn5SU4QHpGAiQLV-llF8ynfoL78SsTyL8Q_uGuz06RJwSFI2VfT-PzFHysuODerOJiyWdU1mIKXHYYotlDg-G4TdBoP5VDhdb0MXnoPT5wAhKGvtZ-xgoVn_vufVFubwuxqa8elk6ZYxylNEm77ouhbAER_EBezGFlF-J5nKxV0dKrPMG4ZgkwAF8p1vaDyKRNFVkiHkgK7iDIsW_w8Cy7BWiIsCLvQSFHI9mx4dB1tkH6rw7Xt2VZ_9yeOYkoLm0RQTAe2srL5CfpoHEORPt4_OhoEh-dk92gKaH3dACxJZCNRinurUFScXhaTeDeNHXAPbVrUguR7z1QMqiVub8KU4NX2Lvg6Q5IT_WG0v0dlb20wbhFI10lN6y94HzyGKWIspjVOt5CIuPt6QAxmfBhBmjvcJRRP-6sO5ssLU9AR1ecn-uf-_UXKXWi9vFAnBB6v4OdU6Aom5Gj8s5J1K_H_VMKeTLcazx4Dngi6HbWyN7GNsZG3ZmOgfDtqnuYnzZ4cbC2YsIH0cWVkdWOa73dmQt2rX3m_Q0o3EKDPx4QgvGdicUqE61syK4C3YzJ3ARxDp8eTY4HJOx8XU_9Fjh5cb7jjrHSVW3N8IzEik8TdRwCjV8lT7Qlf5_dnPZh5q5PO15BN3g", "width": 4128}], "place_id": "ChIJgZ3w0ThvQg0Rb8rbFoYRlkw", "plus_code": {"compound_code": "5P9F+G8 Villarejo de Salvanés, Spain", "global_code": "8CGR5P9F+G8"}, "rating": 3.9, "reference": "ChIJgZ3w0ThvQg0Rb8rbFoYRlkw", "scope": "GOOGLE", "types": ["florist", "point_of_interest", "store", "establishment"], "user_ratings_total": 21, "vicinity": "Calle de Samuel Baltés, 8, Villarejo de Salvanés"}, {"business_status": "OPERATIONAL", "geometry": {"location": {"lat": 40.1682233, "lng": -3.2768514}, "viewport": {"northeast": {"lat": 40.16952303029151, "lng": -3.275511269708498}, "southwest": {"lat": 40.16682506970851, "lng": -3.278209230291502}}}, "icon": "https://maps.gstatic.com/mapfiles/place_api/icons/v1/png_71/shopping-71.png", "icon_background_color": "#4B96F3", "icon_mask_base_uri": "https://maps.gstatic.com/mapfiles/place_api/icons/v2/shopping_pinlet", "international_phone_number": "+34 918 74 48 49", "name": "Pasitos", "opening_hours": {"open_now": false}, "photos": [{"height": 960, "html_attributions": ["<a href=\"https://maps.google.com/maps/contrib/102171968495224758445\">Pasitos</a>"], "photo_reference": "AWn5SU5E51w53JYtmis-TlKPPj1UfzkyvKlUUUhUsinXAEWLES3HosHBx8CRiBSvClhoRQPPNcQYw6WVqw81B3EvsViS9EsVVMcXvWKXLD0Ir3lrMV1fQxbHw6pxSkxCsY-di_B5l7I1jkcCp1VfUz23iHoDIHGXGJgLIVt30LVWLWQ6VOhPP2UwkzS8-r9_4_5QTMpp5o5YfzMsO-I2QfelQ7S0HEXlvaaFOXa-xRgG-STJWqP4viM_vuFAAc6qM1bS0Bpj32OJ4JyaGHxM6WfWjM4Xak4y9IfKIyLSPpdHnguPM_MBeYSj-CXkn8epqvqc9y0BbIaWh20", "width": 720}], "place_id": "ChIJ7WdMp0dvQg0RCP8_spZLw-w", "plus_code": {"compound_code": "5P9F+77 Villarejo de Salvanés, Spain", "global_code": "8CGR5P9F+77"}, "rating": 4.8, "reference": "ChIJ7WdMp0dvQg0RCP8_spZLw-w", "scope": "GOOGLE", "types": ["shoe_store", "clothing_store", "point_of_interest", "store", "establishment"], "user_ratings_total": 16, "vicinity": "Calle de la Victoria, 12, Villarejo de Salvanés"}, {"business_status": "OPERATIONAL", "geometry": {"location": {"lat": 40.16849980000001, "lng": -3.2732871}, "viewport": {"northeast": {"lat": 40.16984443029149, "lng": -3.271933619708498}, "southwest": {"lat": 40.1671464697085, "lng": -3.274631580291502}}}, "icon": "https://maps.gstatic.com/mapfiles/place_api/icons/v1/png_71/shopping-71.png", "icon_background_color": "#4B96F3", "icon_mask_base_uri": "https://maps.gstatic.com/mapfiles/place_api/icons/v2/shopping_pinlet", "international_phone_number": "+34 636 63 38 75", "name": "Muebles Paquito", "opening_hours": {"open_now": false}, "photos": [{"height": 4000, "html_attributions": ["<a href=\"https://maps.google.com/maps/contrib/114208246963662777045\">Muebles Paquito</a>"], "photo_reference": "AWn5SU4Sxqd9jp4Jv3phtqtWsuAa7QcUCUmD8UR7_6pnMg17g2IVH0pud6mnJN2d2CX49vk0G548bhogc32WbEL2BqAJ3_FJdjNXoXsRQmlQ-qibAuwSt3woXPlsDfhgU99wL_uHt93v3iFl2E6abCgoDTGh7fa0cjMcejaeGA5JXUmflOLzj-JJ4G0m176jzwNqjNdG8nGhULSh0BYka78oka4LYmSlzWsSSljsVnUKslnDEKlQvdxodgSIMZ8eDoqr28I7R6TYwh2fkXu9PnIULfKcPxeK5VzC-i7j2D6uBqYu_hwLo6kW1Z9hhqUP1ERWQMHDUiQdC7k", "width": 3000}], "place_id": "ChIJp-2yf0ZvQg0Rba2lhPCMhhQ", "plus_code": {"compound_code": "5P9G+9M Villarejo de Salvanés, Spain", "global_code": "8CGR5P9G+9M"}, "rating": 4.4, "reference": "ChIJp-2yf0ZvQg0Rba2lhPCMhhQ", "scope": "GOOGLE", "types": ["furniture_store", "home_goods_store", "point_of_interest", "store", "establishment"], "user_ratings_total": 48, "vicinity": "Calle de las Tres Cruces, 14, Villarejo de Salvanés"}, {"business_status": "OPERATIONAL", "geometry": {"location": {"lat": 40.16882570000001, "lng": -3.2753186}, "viewport": {"northeast": {"lat": 40.17022388029151, "lng": -3.274000469708498}, "southwest": {"lat": 40.16752591970851, "lng": -3.276698430291502}}}, "icon": "https://maps.gstatic.com/mapfiles/place_api/icons/v1/png_71/generic_business-71.png", "icon_background_color": "#7B9EB0", "icon_mask_base_uri": "https://maps.gstatic.com/mapfiles/place_api/icons/v2/generic_pinlet", "international_phone_number": "+34 918 74 45 55", "name": "Mandala Centro de Técnicas Manuales y Naturales", "place_id": "ChIJvVXpT0ZvQg0RFj0Yvcuj5jw", "plus_code": {"compound_code": "5P9F+GV Villarejo de Salvanés, Spain", "global_code": "8CGR5P9F+GV"}, "reference": "ChIJvVXpT0ZvQg0RFj0Yvcuj5jw", "scope": "GOOGLE", "types": ["point_of_interest", "establishment"], "vicinity": "Calle Mayor, 2, Villarejo de Salvanés"}, {"business_status": "OPERATIONAL", "geometry": {"location": {"lat": 40.1766095, "lng": -3.2933284}, "viewport": {"northeast": {"lat": 40.1779869802915, "lng": -3.292048969708498}, "southwest": {"lat": 40.1752890197085, "lng": -3.294746930291502}}}, "icon": "https://maps.gstatic.com/mapfiles/place_api/icons/v1/png_71/generic_business-71.png", "icon_background_color": "#7B9EB0", "icon_mask_base_uri": "https://maps.gstatic.com/mapfiles/place_api/icons/v2/generic_pinlet", "international_phone_number": "+34 645 76 96 45", "name": "PALACIOS Y CALERO, S.L.", "opening_hours": {"open_now": false}, "photos": [{"height": 1836, "html_attributions": ["<a href=\"https://maps.google.com/maps/contrib/116573315324200439755\">Ignacio Calero</a>"], "photo_reference": "AWn5SU5WbhH2vkyFLW3bkCJqsZuKSFPjJKM8r7ZpOGAMEeuPz6EEsJtkUUXJ8W-RBJy_zoHp5ro75fSYiV6c8gKB9bOngkUWCfPbauO5vM_xqA0Ryz0l_b1NxCRlrrcA4NHyQcK_tAqHjPSgyldNs7kddBsiLYzyJwpSRFx3l1sOY4gpJDaRglhEpaFfIo6mVUAQ_AiNTKg0YgXWDaEYkG1reCTExwhDMCXnXLUoIbr_DdTKgTPjXTozcVpp2suoC2EyIyiBFjOQfqE5U7DMUoo6jN7H0yRYV4s74Y3Xh7RIS9te25RlQt40bjwDOWBBz5eKwby5tFeAQcowL8nZelHRHUXuQguYou1MZmuBp7-u1ymarK95G86OqCbridJ1WUTmeM2qxEq4VWflRmAF9h95ROWKaSHb8aFyM4XTfzWOxDgnT63Zt66LIJ-95vcLI7xgy4lmtkfiRY9L4-vi1qNPSv6ys0aDdVDf4_WxfKXlqqibslJohywaMvii0-ttRrxJkvaPERr8ATdFhAGta-a2XX1lmDxAdUIIQFgN2iRLdjR9Lso8oSUJGJHJh6wxb4aIu-PpO35yo9tFJ5AUezYFgUQT-pynYEeLjI_fgjg3MgAqWLzESlOlI0S1Kb4vmteU03gXBACk", "width": 3264}], "place_id": "ChIJFzlQ9StvQg0RAWeGyuKzNkE", "plus_code": {"compound_code": "5PG4+JM Villarejo de Salvanés, Spain", "global_code": "8CGR5PG4+JM"}, "rating": 5, "reference": "ChIJFzlQ9StvQg0RAWeGyuKzNkE", "scope": "GOOGLE", "types": ["point_of_interest", "establishment"], "user_ratings_total": 7, "vicinity": "Calle Principe de Austurias, 1, Villarejo de Salvanés"}, {"business_status": "OPERATIONAL", "geometry": {"location": {"lat": 40.1684, "lng": -3.27484}, "viewport": {"northeast": {"lat": 40.1696999802915, "lng": -3.273456919708498}, "southwest": {"lat": 40.1670020197085, "lng": -3.276154880291501}}}, "icon": "https://maps.gstatic.com/mapfiles/place_api/icons/v1/png_71/restaurant-71.png", "icon_background_color": "#FF9E67", "icon_mask_base_uri": "https://maps.gstatic.com/mapfiles/place_api/icons/v2/restaurant_pinlet", "international_phone_number": "+34 918 74 35 76", "name": "Martilens Contact Lents", "opening_hours": {"open_now": false}, "place_id": "ChIJMVpyX0ZvQg0RzyvX4NWK5E8", "plus_code": {"compound_code": "5P9G+93 Villarejo de Salvanés, Spain", "global_code": "8CGR5P9G+93"}, "reference": "ChIJMVpyX0ZvQg0RzyvX4NWK5E8", "scope": "GOOGLE", "types": ["restaurant", "point_of_interest", "food", "establishment"], "vicinity": "Calle de la Iglesia, 3, Villarejo de Salvanés"}, {"business_status": "OPERATIONAL", "geometry": {"location": {"lat": 40.1842649, "lng": -3.2973337}, "viewport": {"northeast": {"lat": 40.1856138802915, "lng": -3.295985069708498}, "southwest": {"lat": 40.1829159197085, "lng": -3.298683030291502}}}, "icon": "https://maps.gstatic.com/mapfiles/place_api/icons/v1/png_71/generic_business-71.png", "icon_background_color": "#7B9EB0", "icon_mask_base_uri": "https://maps.gstatic.com/mapfiles/place_api/icons/v2/generic_pinlet", "international_phone_number": "+34 918 74 48 39", "name": "Hormigones Villarejo. SA", "opening_hours": {"open_now": false}, "photos": [{"height": 4000, "html_attributions": ["<a href=\"https://maps.google.com/maps/contrib/108510936133150041365\">Elisa Ig</a>"], "photo_reference": "AWn5SU7MPg5lTbqIjIbsHeS7cjSnLgofnxNr8AnLiHuRAvdIN5bThuGV9E5brchhP-kCyrrVE0BtvMSPL-dVVmsG2hAmTz2iK5wz8QIoyuZpi7nxDs2XFQjHjhohAAflaq9CCK2ovmclxMkfi1ZDZEXtUI46d6Lunn1GphRacmaGut_KIrusr6w8IIcSbeuNEzGvOlGWSxyi3NKB-6ErZGbN1zBGZFe0EwK5cpwHJzoYinVHXUpyYrMxUAVSMo7D_2Kz1o2VjY-fjJisquYGQpJp-0x2e4fDKJvKP40wvafnkzAMDw79i8x4d65hUdDVtREUzXw-KMkPmMsfM2IIfYz35O4tmPokajCJh4gEZWLYP6spgSyVCpNPp4WGN2PUOg8ZuMk4FrnT_5S2G-_tDy1F6qZ6uK4cyuaT-Wz_UMQAw41P7_4kMfRLf7Se3IziX0RKW4jHh0F-Q6ZdWTShq7se8BxdAvqLKeR4L7MLaoKH-6y84C8lGjctVhqSpkmt0NBprQxtP37S_N55imPwkw4puTOf21EKa7b9_3sKIh9tchP7hreNV2q6MOE9bsdqVy3dkjPV6J5J9mtalDkpFbwZZTspnPrTZqCo4QvPycJsEgUGAXJn3tIh20DA2N2d1ZoM", "width": 6000}], "place_id": "ChIJs3-3-9PiZw0RXQTheQOEJFY", "plus_code": {"compound_code": "5PM3+P3 Villarejo de Salvanés, Spain", "global_code": "8CGR5PM3+P3"}, "rating": 4.2, "reference": "ChIJs3-3-9PiZw0RXQTheQOEJFY", "scope": "GOOGLE", "types": ["general_contractor", "point_of_interest", "establishment"], "user_ratings_total": 32, "vicinity": "Spain"}, {"business_status": "OPERATIONAL", "geometry": {"location": {"lat": 40.16923379999999, "lng": -3.274126899999999}, "viewport": {"northeast": {"lat": 40.1705979302915, "lng": -3.272787419708498}, "southwest": {"lat": 40.1678999697085, "lng": -3.275485380291502}}}, "icon": "https://maps.gstatic.com/mapfiles/place_api/icons/v1/png_71/shopping-71.png", "icon_background_color": "#4B96F3", "icon_mask_base_uri": "https://maps.gstatic.com/mapfiles/place_api/icons/v2/shopping_pinlet", "international_phone_number": "+34 918 74 52 72", "name": "Gallego Joyeros", "opening_hours": {"open_now": false}, "photos": [{"height": 3024, "html_attributions": ["<a href=\"https://maps.google.com/maps/contrib/102388203061293859550\">matilde alc</a>"], "photo_reference": "AWn5SU6aiE4QtA09qqbP2e1iTqnM5Npm2jINzlPD0hFiat_yfFHaD36vKXoZ-va0RSHGUHqhpzGhAAALkVJgrYXP7UdtHN6k2jcTKMjR6dwqjSvbFoqIsbZtO3nMicG9bJfzlloNYLAj7aXz9DK1FTcjQ3ylq8bFv4k9QXh5T87qoOmkfn1Dn7plnfKOStCvygXB2dRhLOC3skjsIPBY54kg1irDskZuDAkp-DQFq_5GOS-w7vmBc0F7Nn0kgLohSFBF_T2UNnCa0IihCeZlr05PPObUYp9fVygqVclT9ldgutQ85b57N4gZ_CrdiBFlgmcZBmFTzdDutM6AvNw4JK5sw1adozOc2ASU5OrBEFXwxM29ZU4MJzqSgjhVvAZldS48vnRN_SXdF3zw8zNHIGx__7PhDZihb3xqSfSLffxmGhBj6Y3hStl29UwVNTw3H4hmc_MflvB6GS0auXTE6c6-l2i5paX0gKKQZrgxdGr0EMWoT--ZHXlUeiZ50q-IPilsOB7PHZqRLWXgmwYE7dIMj1ZeirRtP9MkCXQ55T9Ajabv3i6KK7x2xT0mq9sVB3DnKuUrGxpGp20AZ8XTf8qYdXeKF3xmqUjbYQo7r6SSffGwqUjp31ztASDhO4zNdJzP0AS4Mdqy", "width": 3024}], "place_id": "ChIJLd8xbEZvQg0RMRHYB6BZzLk", "plus_code": {"compound_code": "5P9G+M8 Villarejo de Salvanés, Spain", "global_code": "8CGR5P9G+M8"}, "rating": 4.3, "reference": "ChIJLd8xbEZvQg0RMRHYB6BZzLk", "scope": "GOOGLE", "types": ["jewelry_store", "point_of_interest", "store", "establishment"], "user_ratings_total": 64, "vicinity": "Calle Mayor, 26, Villarejo de Salvanés"}, {"business_status": "OPERATIONAL", "geometry": {"location": {"lat": 40.169396, "lng": -3.2801434}, "viewport": {"northeast": {"lat": 40.17079983029149, "lng": -3.278777469708498}, "southwest": {"lat": 40.1681018697085, "lng": -3.281475430291502}}}, "icon": "https://maps.gstatic.com/mapfiles/place_api/icons/v1/png_71/generic_business-71.png", "icon_background_color": "#7B9EB0", "icon_mask_base_uri": "https://maps.gstatic.com/mapfiles/place_api/icons/v2/generic_pinlet", "international_phone_number": "+34 918 74 26 44", "name": "Asociación Agraria de Jóvenes Agricultores y Ganaderos de Madrid", "opening_hours": {"open_now": false}, "place_id": "ChIJYTwROThvQg0RLziIN9zGupg", "plus_code": {"compound_code": "5P99+QW Villarejo de Salvanés, Spain", "global_code": "8CGR5P99+QW"}, "rating": 5, "reference": "ChIJYTwROThvQg0RLziIN9zGupg", "scope": "GOOGLE", "types": ["point_of_interest", "establishment"], "user_ratings_total": 3, "vicinity": "Calle de Samuel Baltés, 45, Villarejo de Salvanés"}, {"business_status": "OPERATIONAL", "geometry": {"location": {"lat": 40.1645412, "lng": -3.2685266}, "viewport": {"northeast": {"lat": 40.1658297802915, "lng": -3.267249519708499}, "southwest": {"lat": 40.1631318197085, "lng": -3.269947480291502}}}, "icon": "https://maps.gstatic.com/mapfiles/place_api/icons/v1/png_71/generic_business-71.png", "icon_background_color": "#7B9EB0", "icon_mask_base_uri": "https://maps.gstatic.com/mapfiles/place_api/icons/v2/generic_pinlet", "international_phone_number": "+34 918 74 50 03", "name": "MÉTODOS TOPOGRÁFICOS Y OBRAS SL", "opening_hours": {"open_now": false}, "photos": [{"height": 715, "html_attributions": ["<a href=\"https://maps.google.com/maps/contrib/103409151300508154193\">MÉTODOS TOPOGRÁFICOS Y OBRAS SL</a>"], "photo_reference": "AWn5SU58FbW-a1p7cBd2lnU9j9IS00U728RUnHrYBaUOsx4BBZg81nKXaJ83MARO5SMjcNQdcJ-HoZaIunz7ctLJC3XHVkXfDlGvH89dOet82bmdfxNJz6mEi_bHovT-8qKlSE32uzGCH9TUKb1qxb-xOhkgWa-pmaKVuQFhurn-SQswBRFLtJryi5F_RMveeBVH4zaJMsfIY7M--U3QP9S2fyBeDUOYOBUjuIX6Ki4SB_RUyYXtX1WZoygGmcHRg9yMW4SDTA9oGvwGJ7bDvMrRPELNSnzHp_Z37Ya28yuularFYwCcaHXRvaG3mMcjG1UQRIXUa2JZI40", "width": 1272}], "place_id": "ChIJf6YhNkNvQg0RWelql5OnFMI", "plus_code": {"compound_code": "5P7J+RH Villarejo de Salvanés, Spain", "global_code": "8CGR5P7J+RH"}, "rating": 4.3, "reference": "ChIJf6YhNkNvQg0RWelql5OnFMI", "scope": "GOOGLE", "types": ["point_of_interest", "establishment"], "user_ratings_total": 7, "vicinity": "Calle de la Encomienda, 55, Villarejo de Salvanés"}, {"business_status": "OPERATIONAL", "geometry": {"location": {"lat": 40.16723319999999, "lng": -3.2758491}, "viewport": {"northeast": {"lat": 40.16852943029149, "lng": -3.274463469708498}, "southwest": {"lat": 40.16583146970849, "lng": -3.277161430291502}}}, "icon": "https://maps.gstatic.com/mapfiles/place_api/icons/v1/png_71/civic_building-71.png", "icon_background_color": "#7B9EB0", "icon_mask_base_uri": "https://maps.gstatic.com/mapfiles/place_api/icons/v2/civic-bldg_pinlet", "international_phone_number": "+34 918 74 50 87", "name": "MISECAM (Mancomunidad Intermunicipal del Sudeste de la C. Madrid)", "opening_hours": {"open_now": false}, "photos": [{"height": 645, "html_attributions": ["<a href=\"https://maps.google.com/maps/contrib/103436352484124174503\">MISECAM (Mancomunidad Intermunicipal del Sudeste de la C. Madrid)</a>"], "photo_reference": "AWn5SU6alV-JsJUxT7iRZc4XK2Ykh7t_Gf_iO95n6OW8osWKBfPMaQfEQStZYEGzJa_HxT42NsW7zowrllW7v9Q_bTc4Am9s4UH_mIdJoPGnONCCfyNHxRjZkIc9EG2UPX9S2jefRPFFmSVdeT2TOXeKi6q_wo4UNaTjIR7e-FO-owH99dawzYGf2TMS42BhCS4JSveI_ZAtdY66X5OcgsMHlEIZGlFpykoBzJhfSVNEfTSuozQ4nZ2QULhMJ47Tc_x6e_HK22GgBOiSszA4pXJGEOkv3LOhsDfBRKSBAIwIlA-Yfa9leUocjbnK9TO4mJg0Uj8nECr8BYk", "width": 1052}], "place_id": "ChIJXYprBkdvQg0RspKp8BqzH8w", "plus_code": {"compound_code": "5P8F+VM Villarejo de Salvanés, Spain", "global_code": "8CGR5P8F+VM"}, "rating": 4.8, "reference": "ChIJXYprBkdvQg0RspKp8BqzH8w", "scope": "GOOGLE", "types": ["local_government_office", "point_of_interest", "establishment"], "user_ratings_total": 5, "vicinity": "Calle Constitución, 8, Villarejo de Salvanés"}, {"geometry": {"location": {"lat": 40.1344349, "lng": -3.3376324}, "viewport": {"northeast": {"lat": 40.13734065003932, "lng": -3.330702529839868}, "southwest": {"lat": 40.12682203214028, "lng": -3.344261893192092}}}, "icon": "https://maps.gstatic.com/mapfiles/place_api/icons/v1/png_71/geocode-71.png", "icon_background_color": "#7B9EB0", "icon_mask_base_uri": "https://maps.gstatic.com/mapfiles/place_api/icons/v2/generic_pinlet", "name": "Belmonte de Tajo", "photos": [{"height": 3120, "html_attributions": ["<a href=\"https://maps.google.com/maps/contrib/100251689348312387610\">jose luis Leal Rebollo</a>"], "photo_reference": "AWn5SU7SPaYPbpnUuYpJxHst0rhrv2wQDhG5GrKJ6c3BqbkmqhyqYMiGKIUI2wD2kUDj45l6XpmLKkndn68dtAYmFlVz_W06JL5vbptXV4zUGeIL5RVfD58Ye7A2lh7bcL7rcQQBhneI5C-8DHw5J6jLs7hLB7VgtqCyARipwKu_8lBMkffhyYwHw5jJMe5heNlsHSIaXwSsV3azVw8gENQkKv-JGa3tLtWobDeBIxNjmF9FXNjnhOB-zT4msofOJ0ULZAMfX-qBZ1fYwSYDY3bhGFRNKM3JXD--r648Luq5DXq8wBLgXVqGAZTBYO3QL0_9woKoD-TPWfoG6AXODkqgjhFOmZTE5jUNsd3ZbGImv96BVRErrLarc7tHMrkAXE2yATF8X-YxKkmg1UnB2w4EqmVvqPuOczYhtyeWtxihvbdru_ttpL7oH1AihpE9DR5kOqFzAEpF1CVLmBBE4mCCLcZ_GfG9jvDiaLgEolX6kvqPcpkt1gvwpkw6xws0_bkmzO-pxihuhiL0apIxPJzqjblD6JkBI52wWEkyljhvwdenlnq8FIus48CwXGE3T9YNEtnV2m75CqhGa0X0evoOJyYLuXqojuLEodP04rr-gpl-5Kh1GBiAKOKLTuryP1H6KiGPkQ", "width": 4160}], "place_id": "ChIJ1aDFuXhuQg0RqPLFtD3vf18", "reference": "ChIJ1aDFuXhuQg0RqPLFtD3vf18", "scope": "GOOGLE", "types": ["locality", "political"], "vicinity": "Belmonte de Tajo"}]