[{"geometry": {"location": {"lat": 40.5964617, "lng": -3.5016452}, "viewport": {"northeast": {"lat": 40.60244857187934, "lng": -3.492189160304554}, "southwest": {"lat": 40.58910249695727, "lng": -3.509444479745053}}}, "icon": "https://maps.gstatic.com/mapfiles/place_api/icons/v1/png_71/geocode-71.png", "icon_background_color": "#7B9EB0", "icon_mask_base_uri": "https://maps.gstatic.com/mapfiles/place_api/icons/v2/generic_pinlet", "name": "Algete", "photos": [{"height": 4000, "html_attributions": ["<a href=\"https://maps.google.com/maps/contrib/113497895923388473140\">Antonio Fernandez Hernandez</a>"], "photo_reference": "AWn5SU7WeeUTDjnvmbOUbZo3OhaiAU_Nu_2htmimMxZ6xGOOb4koDQLVPz8i2l8H_4E790g_bPcMtrQO3Mj8hfElYm1q4MR712qzkVKsqGCLKYWtyxuUjER8fA7nZZgBZMY6TY21sP0x8f6NjDfiZZxuQuP6X33yHXHVbYNWqmTrOx_E9BjkPgVj16h2fXXdOtuUGJrMZln48GcN0CC6N5_rSBTHSWCRFdUJ1cxDilmEoA0E3-SLVy1yjmBP5uLaV98pK1UWg3M0Ez0-w51nYeb7yvtOt7ly7i9sXjTa6ynbrXK-iHsxkpUqHsT7irzkAa3DBsmhRyNKfBCgIwyhVByb-7yBqQ9MEfMLwLtGy5Oh10_Ugo6Q2XM10vUbmhuTrDfE4na4yaT7SSklERmlke-WWgQXUjnUiFwoNE6cY2P2ZJmo-pehtKGAaah-oA7wrCQZGrjM1bx1AYCMPek8B-ciwoONAMjirBq5hWQOMbPx2LxYBe2nXQYdPznB9XIYCdCU7GbFp1PS2pvcYz-uyxgD2qUVA36czn7AZQM87CBG26uDCZN6Eg7aHhI-mggYsH-X3TBaENPpA9az3PimbKqfLpkL2Ks61-gUTM5cw3XHRyloX9AlWNii7R8_RHAOSdSlLmMEHr93", "width": 2250}], "place_id": "ChIJ--WBXafMQw0RhyEXOO-RAqw", "reference": "ChIJ--WBXafMQw0RhyEXOO-RAqw", "scope": "GOOGLE", "types": ["locality", "political"], "vicinity": "Algete"}, {"business_status": "OPERATIONAL", "geometry": {"location": {"lat": 40.5967655, "lng": -3.4951376}, "viewport": {"northeast": {"lat": 40.59813293029151, "lng": -3.493643819708498}, "southwest": {"lat": 40.59543496970851, "lng": -3.496341780291502}}}, "icon": "https://maps.gstatic.com/mapfiles/place_api/icons/v1/png_71/lodging-71.png", "icon_background_color": "#909CE1", "icon_mask_base_uri": "https://maps.gstatic.com/mapfiles/place_api/icons/v2/hotel_pinlet", "international_phone_number": "+34 916 28 29 05", "name": "Hotel Algete", "opening_hours": {"open_now": true}, "photos": [{"height": 2000, "html_attributions": ["<a href=\"https://maps.google.com/maps/contrib/114848903527278904213\">Hotel Algete</a>"], "photo_reference": "AWn5SU4ViNiIdiuKc9LNL084QqdmastJJgtEG6a7-RagYXJXQ2PmjS21DdNnN0HBxmcwz_6rAK9H1pXXn7Euz0czRy3MGmM_nMU5ha2Vvb-pjDEHWl-_Var8mMZ2AWjsFRMvvEL9DwMP2BnQTJDDjKR_hNvE5uprgCEuM-M8_HBpL-1zVdfPzwe0c_wVU9owX6pdyDARhELIpSSjrM1nyDWmkhRPUo6md4Uunudv_X680YOFTvWhZyGXRwRs-6yOouytr1TNQcb5wXZg9A2RUjtcIrfKV5dFIyBpLnxiv6jETWf-ekV3W3jIB7Z4q2U7LbQQnycF-4Mm8Qw", "width": 3008}], "place_id": "ChIJj5bA_FvLQw0Rz9O9ijh8zyM", "plus_code": {"compound_code": "HGW3+PW Algete, Spain", "global_code": "8CGRHGW3+PW"}, "price_level": 2, "rating": 4.1, "reference": "ChIJj5bA_FvLQw0Rz9O9ijh8zyM", "scope": "GOOGLE", "types": ["lodging", "point_of_interest", "establishment"], "user_ratings_total": 1266, "vicinity": "Calle San Roque, 25, Algete"}, {"business_status": "OPERATIONAL", "geometry": {"location": {"lat": 40.59630490000001, "lng": -3.4959466}, "viewport": {"northeast": {"lat": 40.59770043029151, "lng": -3.494600269708498}, "southwest": {"lat": 40.59500246970851, "lng": -3.497298230291502}}}, "icon": "https://maps.gstatic.com/mapfiles/place_api/icons/v1/png_71/bank-71.png", "icon_background_color": "#909CE1", "icon_mask_base_uri": "https://maps.gstatic.com/mapfiles/place_api/icons/v2/bank-intl_pinlet", "international_phone_number": "+34 916 28 25 97", "name": "BBVA", "opening_hours": {"open_now": false}, "photos": [{"height": 720, "html_attributions": ["<a href=\"https://maps.google.com/maps/contrib/114738695419741946657\">BBVA</a>"], "photo_reference": "AWn5SU5WF08nL4An6WK3TX_1PVX8QM9TTPOrk_3XLGTne1qpS3_1ZfnLKmD-4A2CPadQEamWDvBE697joRYHMxPWPBIBny7aKO-XnNzGRPaM6cMVAF564JX1VXCY5uU-vvn6WkQtXi-p0OTcx7dXGXfZgV85ZG92LBjMsCoO4L9st6GhS48NCpiIyHSXSeL7ew_6_g3zyYgC3CHGY1lcD_iNPbVLVZhBqq24g-IOhL0U8TR3syAEo4Y8rrlomEsNM3DW5UOQmXvt_8h09siERmO1yWHp7hEfnVtz4GVmCEKaQdNb4t1VdCBF0g6o0gV3AmK3VIeNEyoN", "width": 1280}], "place_id": "ChIJpczDRFnLQw0R6BAL4_awIew", "plus_code": {"compound_code": "HGW3+GJ Algete, Spain", "global_code": "8CGRHGW3+GJ"}, "rating": 2.3, "reference": "ChIJpczDRFnLQw0R6BAL4_awIew", "scope": "GOOGLE", "types": ["bank", "atm", "accounting", "finance", "point_of_interest", "establishment"], "user_ratings_total": 47, "vicinity": "Calle San Roque, 14, Algete"}, {"business_status": "OPERATIONAL", "geometry": {"location": {"lat": 40.56710410000001, "lng": -3.506215399999999}, "viewport": {"northeast": {"lat": 40.56841393029151, "lng": -3.504923919708498}, "southwest": {"lat": 40.56571596970851, "lng": -3.507621880291502}}}, "icon": "https://maps.gstatic.com/mapfiles/place_api/icons/v1/png_71/bank-71.png", "icon_background_color": "#909CE1", "icon_mask_base_uri": "https://maps.gstatic.com/mapfiles/place_api/icons/v2/bank-intl_pinlet", "international_phone_number": "+34 916 20 70 77", "name": "BBVA", "opening_hours": {"open_now": false}, "photos": [{"height": 720, "html_attributions": ["<a href=\"https://maps.google.com/maps/contrib/103234548839776676588\">BBVA</a>"], "photo_reference": "AWn5SU5TAA5c6DupPgSktp2B3udgrZk_KxlSmMN8D85KpH9eKOmlDIBZNgmEtpVaHKpDIGfw7gDYwKmbm9QKkqQecCxi6UkIBLzKEODISSuNRO2vM3Kl17SfNSVEP4AuiiCwlv-yVhPpOjM-icax-x0wj759ZTBAeINuhDEQVpTefZrflfstLsb_pKybZmgBELYcHhB_xXTQq9PxXqWQIETnX-czJPi_lvdf3xb6FcWvdHMgcOXVnHp4B3FG_hPqCvsoM7xrGDlMgHCNfY3fphQKzhMu1n9T6s5IcYLodlwyrWoc4Qe6pPQMHlMd_FaoEomUfGpd0OzuvL8", "width": 1280}], "place_id": "ChIJKUNAW1kzQg0Rq3-HZ2NdVgI", "plus_code": {"compound_code": "HF8V+RG Cobeña, Spain", "global_code": "8CGRHF8V+RG"}, "rating": 2.9, "reference": "ChIJKUNAW1kzQg0Rq3-HZ2NdVgI", "scope": "GOOGLE", "types": ["bank", "atm", "accounting", "finance", "point_of_interest", "establishment"], "user_ratings_total": 27, "vicinity": "Calle Madrid, 10, Cobeña"}, {"business_status": "OPERATIONAL", "geometry": {"location": {"lat": 40.58800919999999, "lng": -3.550925799999999}, "viewport": {"northeast": {"lat": 40.58926973029149, "lng": -3.549678769708498}, "southwest": {"lat": 40.58657176970849, "lng": -3.552376730291501}}}, "icon": "https://maps.gstatic.com/mapfiles/place_api/icons/v1/png_71/generic_business-71.png", "icon_background_color": "#7B9EB0", "icon_mask_base_uri": "https://maps.gstatic.com/mapfiles/place_api/icons/v2/generic_pinlet", "international_phone_number": "+34 916 29 03 16", "name": "El Tesoro materiales de construcción y saneamientos SL", "opening_hours": {"open_now": false}, "photos": [{"height": 587, "html_attributions": ["<a href=\"https://maps.google.com/maps/contrib/106531900320933615732\">El Tesoro materiales de construcción y saneamientos SL</a>"], "photo_reference": "AWn5SU6GksjiRzVQbrBF8zPr4ruTDTd9w5TC7mIGP1DDIaa9dSi7YUVCoxX7AFbC0MIPmMi0IbxQWDvY7OlNxXm4zEOumTYIDWpK-QJ35NC7Wd_IQ_TsJEOCkFV9Stqr-h8j9fUXBnT1UylSGAbDEoDJ5XrotbLI5U4jCDmmLO5DG6q5W-ON81E6QDqTfk5XLY0dM0OzWDzZSmGWEBlWGoMaPqmZdJV18-mZPZz1yCO1EeiQy-z-8VvcYrc9zHeiSSgjg05CJei2CYzFC5XhNHq-eqcv8qXNCyx0JfmKooIbguavW-JYApd5-Kfv_3E34viQzr8jJF3Om1E", "width": 571}], "place_id": "ChIJh3lJu1nLQw0RT5eRta6TQDY", "plus_code": {"compound_code": "HCQX+6J Algete, Spain", "global_code": "8CGRHCQX+6J"}, "rating": 4.8, "reference": "ChIJh3lJu1nLQw0RT5eRta6TQDY", "scope": "GOOGLE", "types": ["hardware_store", "plumber", "general_contractor", "home_goods_store", "store", "point_of_interest", "establishment"], "user_ratings_total": 241, "vicinity": "Avenida Nicasio Martin, 6, Algete"}, {"business_status": "OPERATIONAL", "geometry": {"location": {"lat": 40.6376966, "lng": -3.51763}, "viewport": {"northeast": {"lat": 40.6389842802915, "lng": -3.516318769708499}, "southwest": {"lat": 40.6362863197085, "lng": -3.519016730291502}}}, "icon": "https://maps.gstatic.com/mapfiles/place_api/icons/v1/png_71/generic_business-71.png", "icon_background_color": "#7B9EB0", "icon_mask_base_uri": "https://maps.gstatic.com/mapfiles/place_api/icons/v2/generic_pinlet", "international_phone_number": "+34 918 23 54 00", "name": "Algeco Construcciones Modulares", "opening_hours": {"open_now": false}, "photos": [{"height": 2448, "html_attributions": ["<a href=\"https://maps.google.com/maps/contrib/112418867413302071946\">ramon aragon rodriguez</a>"], "photo_reference": "AWn5SU4x2TXulUzAzmgggLSFvjFgyjrFSA1spUG4rxdZ992FXWqqGxasVCdeHg4Tb_ji0e7-3RTS3qImJGlZRPBL7oGL6a6LWkG61I1AxUb1o3U5NZGUPgqfEiHFWIE-cXETvKvrPHSKeRHPkjb63NUOe8JRVma2WTE3ZFrr0IS5-HkqWfUTBn2a2Kztb3yCYTVKX1nlC_JHWDRYGT7E0H1Wu87yBLAb0JQiBd3WT0CxMi84GwodJyeKy6-L8AKc5MSv3zMAIZfIEWGNSlB0vW8l2ET9A900upi3mn_VM_mX8Zb8adLyo_XtP0aM_4MEUhmT9h23fidj4YFcw9h1uy75Zjq7BMPZ1GBZWPfnau6_dalSq0TkOtwZnnQq9P2wtgg57ZsMVIPrYVQzXZRg3GNSUey6NOsGGfR4PMlIeDQuuU1H3fIlpDVXAAlnqCDpN6qyFa2Pk2qPW01igWizu45ohk-IRcKWNzeKQNTAFSBKLsGjDbnhe6rg_y_kuiS61ugkTB1fhiokSzH1-AdkC4SvUEqYscU5LCzoL8_nAy34i4nXg6VFh4CH_tkERRtTO_XkhMu98fW7gbXf2Cp2av5PKpy0cHsKiwpvodMSS4Ijw3GAzwEr89cGm-lMTTTJXLmF1ibtuw", "width": 3264}], "place_id": "ChIJE5hB0GvMQw0RqF9q_zv0TuU", "plus_code": {"compound_code": "JFQJ+3W Fuente el Saz de Jarama, Spain", "global_code": "8CGRJFQJ+3W"}, "rating": 4.2, "reference": "ChIJE5hB0GvMQw0RqF9q_zv0TuU", "scope": "GOOGLE", "types": ["point_of_interest", "establishment"], "user_ratings_total": 54, "vicinity": "Camino de las Bodegas, 4, Fuente el Saz de Jarama"}, {"business_status": "OPERATIONAL", "geometry": {"location": {"lat": 40.58849339999999, "lng": -3.5454932}, "viewport": {"northeast": {"lat": 40.58969743029149, "lng": -3.544063219708498}, "southwest": {"lat": 40.5869994697085, "lng": -3.546761180291501}}}, "icon": "https://maps.gstatic.com/mapfiles/place_api/icons/v1/png_71/generic_business-71.png", "icon_background_color": "#7B9EB0", "icon_mask_base_uri": "https://maps.gstatic.com/mapfiles/place_api/icons/v2/generic_pinlet", "international_phone_number": "+34 916 28 14 28", "name": "BARIN Aspiración y Filtración Industrial", "opening_hours": {"open_now": false}, "photos": [{"height": 450, "html_attributions": ["<a href=\"https://maps.google.com/maps/contrib/110515226858673468577\">BARIN Aspiración y Filtración Industrial</a>"], "photo_reference": "AWn5SU7qWtS2T5BxrmmyDkgCPkdp1ftd3LEBVajl4G9iLdGzWfqE4hew_UEAj34_iFGp3pp2qTNgX8RsSs-ejmnE2OmMSfdn5SriMqjrI7iyB-UXaMVRiGoV6VJBqt1igVqapp6YGm0pa8uY0QgVK_bNbLOujz8JVhJugQawsBeZ9racoQVemTKaG_yYYZWUYB8yGfbReQVNt7d89-MZrbmvrMyldoPUmSUkYlXXAT17vAGf0eahr8Rn-C9RyJStdzVD4VYOQqf7mx7LJEsirdgtNBJLgSDIcusPgxCE37htXxH_OpuVSU23FWBqMabaZeRXqvlHu3F-hkY", "width": 450}], "place_id": "ChIJK9l3uijNQw0RkvJdC70ag_c", "plus_code": {"compound_code": "HFQ3+9R Algete, Spain", "global_code": "8CGRHFQ3+9R"}, "rating": 5, "reference": "ChIJK9l3uijNQw0RkvJdC70ag_c", "scope": "GOOGLE", "types": ["point_of_interest", "establishment"], "user_ratings_total": 2, "vicinity": "Calle Cañamarejo, 1, Algete"}, {"business_status": "OPERATIONAL", "geometry": {"location": {"lat": 40.5976383, "lng": -3.502911699999999}, "viewport": {"northeast": {"lat": 40.59895933029151, "lng": -3.501414069708498}, "southwest": {"lat": 40.59626136970851, "lng": -3.504112030291502}}}, "icon": "https://maps.gstatic.com/mapfiles/place_api/icons/v1/png_71/civic_building-71.png", "icon_background_color": "#7B9EB0", "icon_mask_base_uri": "https://maps.gstatic.com/mapfiles/place_api/icons/v2/civic-bldg_pinlet", "international_phone_number": "+34 916 28 22 86", "name": "Algete Health Center", "opening_hours": {"open_now": false}, "photos": [{"height": 3036, "html_attributions": ["<a href=\"https://maps.google.com/maps/contrib/112586997308813566937\">Paolo Álvarez</a>"], "photo_reference": "AWn5SU6AC0LLHbK3dDsUTpGzHaLKgQhjIdXCM0RQjWPkPoxmA_zUUW1zKJtnuguggR5rc3HTkU5JuKWMpcfPHf_5Xk-Sh4f7Y4PjK3VxrECu_lEhkb1kPG3CnZRcqBmTFRemPuumAb3kBSQFNAQBIVjF_ROdgQcp8xVh969wVtVJSak0K6WJ99g5TuSHK5zKbinVgTVNAVk0hTVZ_qkRSiG4_LPh74Y2JGnR5_JZNPtRpc1Pm5c_BaflLijU8K8t73q4N6GxoNk4qqRsL1ziheFsi7KkkHcSoXwRgmRrqCa2mrPKq9RV2CE3v7QWcQO_1MCsnsNH0FRc1tob8sfIhsRaZuM11N0Ezz0WMYmJH--KFlLfCekpvcogmObrUlVVidf_4XsD_Ejvf8JEfLG0Y3WbDTa7-dluJUleg871BhJ4IA1HshblCFF2WM7Ub38U0D7p9WJumNHd3bc_P27bTLMoqfXK4iVmbF3P4i-5tSBJwpiGo7F1W7aDfETM2vQ64u4Es8BqL6VizO-yJoqHkxqVbFUxrrt9SV_J13J7DycNR4hBumI9fDw_aSYyskhXxMAOCv_PhjA6fgl8KexKAezlO6cGJCfX1j_jDI2qMC31Z2SrOb01FT8TI2hCw2OiKel-PFUuUg", "width": 4048}], "place_id": "ChIJIR8BPqHMQw0RRjc5cDgrCSw", "plus_code": {"compound_code": "HFXW+3R Algete, Spain", "global_code": "8CGRHFXW+3R"}, "rating": 2.1, "reference": "ChIJIR8BPqHMQw0RRjc5cDgrCSw", "scope": "GOOGLE", "types": ["health", "point_of_interest", "establishment"], "user_ratings_total": 195, "vicinity": "Calle de Valdeamor, 1, Algete"}, {"business_status": "OPERATIONAL", "geometry": {"location": {"lat": 40.6000244, "lng": -3.499456}, "viewport": {"northeast": {"lat": 40.6013894302915, "lng": -3.498072769708498}, "southwest": {"lat": 40.5986914697085, "lng": -3.500770730291502}}}, "icon": "https://maps.gstatic.com/mapfiles/place_api/icons/v1/png_71/generic_business-71.png", "icon_background_color": "#7B9EB0", "icon_mask_base_uri": "https://maps.gstatic.com/mapfiles/place_api/icons/v2/generic_pinlet", "international_phone_number": "+34 916 29 25 11", "name": "GESA Asesoría Fiscal en la Zona Norte de Madrid (Algete)", "opening_hours": {"open_now": false}, "place_id": "ChIJY-qtm1_LQw0R8Mzgk7XF9_A", "plus_code": {"compound_code": "JG22+26 Algete, Spain", "global_code": "8CGRJG22+26"}, "rating": 1, "reference": "ChIJY-qtm1_LQw0R8Mzgk7XF9_A", "scope": "GOOGLE", "types": ["accounting", "finance", "point_of_interest", "establishment"], "user_ratings_total": 1, "vicinity": "Calle Limón Verde, 49, Algete"}, {"business_status": "OPERATIONAL", "geometry": {"location": {"lat": 40.58879509999999, "lng": -3.542122}, "viewport": {"northeast": {"lat": 40.5901230302915, "lng": -3.540754019708498}, "southwest": {"lat": 40.5874250697085, "lng": -3.543451980291502}}}, "icon": "https://maps.gstatic.com/mapfiles/place_api/icons/v1/png_71/shopping-71.png", "icon_background_color": "#4B96F3", "icon_mask_base_uri": "https://maps.gstatic.com/mapfiles/place_api/icons/v2/shopping_pinlet", "international_phone_number": "+34 913 35 19 00", "name": "BMW BYmyCAR Madrid - Algete", "opening_hours": {"open_now": false}, "photos": [{"height": 894, "html_attributions": ["<a href=\"https://maps.google.com/maps/contrib/113397039444032694961\">BMW BYmyCAR Madrid - Algete</a>"], "photo_reference": "AWn5SU6-o0xmJEfrfbcb-2tvEVHO6n_QhVYvfEwDS-t-dmIpLKtwvTuu8aSElEYzTHzmd-59b3j70gL0TgU6gRxdU2Vphlyd3P-2nqONn_T9SjebcJstw2Fe2z1gBmKCkAbKCMBE1Zo4aQTIu1ChXM319KvvbVw6S0iy44QJhv_BrmBl4-Fn6gOZfXqMgU2tkdbVgQt4esMbN1rxVM2oUg8myDLbBJM-iFFTqR58JUJ4J6WlhDkY8ZgEaL71ibREB2ZNrfqXR1HWVyy9r03twV6fSXZFsLwMPYM2OxtBTZb-1JcxzCxRRTnr5UAljlPimN8lckBNeQv6opY", "width": 1589}], "place_id": "ChIJxfRHjYxJQg0ROXg7ksOpM7c", "plus_code": {"compound_code": "HFQ5+G5 Prado Norte, Spain", "global_code": "8CGRHFQ5+G5"}, "rating": 4.1, "reference": "ChIJxfRHjYxJQg0ROXg7ksOpM7c", "scope": "GOOGLE", "types": ["car_repair", "car_dealer", "store", "point_of_interest", "establishment"], "user_ratings_total": 1205, "vicinity": "Pol. Industrial Río de Janeiro, C/ de la Tejera, 2, Algete"}, {"business_status": "OPERATIONAL", "geometry": {"location": {"lat": 40.5434203, "lng": -3.4584458}, "viewport": {"northeast": {"lat": 40.5447694802915, "lng": -3.456998369708498}, "southwest": {"lat": 40.5420715197085, "lng": -3.459696330291502}}}, "icon": "https://maps.gstatic.com/mapfiles/place_api/icons/v1/png_71/bank-71.png", "icon_background_color": "#909CE1", "icon_mask_base_uri": "https://maps.gstatic.com/mapfiles/place_api/icons/v2/bank-intl_pinlet", "international_phone_number": "+34 918 78 23 00", "name": "BBVA", "opening_hours": {"open_now": false}, "photos": [{"height": 720, "html_attributions": ["<a href=\"https://maps.google.com/maps/contrib/112837948615594447003\">BBVA</a>"], "photo_reference": "AWn5SU4wK2TYmolc0ZgSLzkBNTK9iKGaR0loRXqUJEqW2Nc5nxd2SiD7UPiThxDGjpIhZCP2omC7bcQNLY1n1BkJ6Cxy0QHBaMdhyV0aoScDvGeHya91U2P-HpX8V5dIGBN_V6A_-UjDqqIj9KbXyCtqSvVhWlTMMn-U7WFCH_13BomZoHTl60e5P4oqT2yMfzfp16Gu2uuFrpGPEwkYJho1PVqeC_LnQKo8Rcz7Rfz6cNO3lQjAPB5KhuAk-TM6iIKEiLyVezyPrMaTJqZtJpvWWTfwLhULDrGnnTd07gw5XBwYwJUki2mTYJ-P3YB8Z7k60tuwdXRu", "width": 1280}], "place_id": "ChIJBa3ScQA1Qg0RmEjiQiOpbi4", "plus_code": {"compound_code": "GGVR+9J Daganzo de Arriba, Spain", "global_code": "8CGRGGVR+9J"}, "rating": 3.2, "reference": "ChIJBa3ScQA1Qg0RmEjiQiOpbi4", "scope": "GOOGLE", "types": ["bank", "atm", "accounting", "finance", "point_of_interest", "establishment"], "user_ratings_total": 23, "vicinity": "Glorieta de Alcala, 2, Daganzo de Arriba"}, {"business_status": "OPERATIONAL", "geometry": {"location": {"lat": 40.6269195, "lng": -3.4721832}, "viewport": {"northeast": {"lat": 40.6281078302915, "lng": -3.471322969708498}, "southwest": {"lat": 40.6254098697085, "lng": -3.474020930291501}}}, "icon": "https://maps.gstatic.com/mapfiles/place_api/icons/v1/png_71/school-71.png", "icon_background_color": "#7B9EB0", "icon_mask_base_uri": "https://maps.gstatic.com/mapfiles/place_api/icons/v2/school_pinlet", "international_phone_number": "+34 916 20 51 98", "name": "Colegio Árula", "opening_hours": {"open_now": false}, "photos": [{"height": 1058, "html_attributions": ["<a href=\"https://maps.google.com/maps/contrib/112551556988924520792\">Colegio Árula</a>"], "photo_reference": "AWn5SU5eFvv3-zPV5Lw1MmegquR4O1HxMie4v558wSs60tH1a56MgECXk6lm5C0fUUl1uoCNiaZ1et8saAW8cLCjl_l_O4x7c0qerkvnT8Ps6AkBQf7COIHFcyMYzlY5o5OsQfoL-EF17xbUcjLm38MKTl2TReRmKhQKUjLcC8rNcnHctv_VMt-zIRvglBwkOpvih_8bzu71CUTbWFU7nVUvv8E_15nCC1Jh3reVq13NfMI5cW5Cjd8gZZ8sYKaeBbt1Qab5XTREQYq1xgSmjjcFXxo3xyV2bpgr8dHJ7uYoTxVk2fKhbg7e5O46VVlK0vtrqPprpWDv", "width": 2973}], "place_id": "ChIJE9Ilm07KQw0R0GiT3ixoJHw", "plus_code": {"compound_code": "JGGH+Q4 Alalpardo, Spain", "global_code": "8CGRJGGH+Q4"}, "reference": "ChIJE9Ilm07KQw0R0GiT3ixoJHw", "scope": "GOOGLE", "types": ["point_of_interest", "school", "establishment"], "vicinity": "Calle de Alcalá, 23, Alalpardo"}, {"business_status": "OPERATIONAL", "geometry": {"location": {"lat": 40.5841903, "lng": -3.5601663}, "viewport": {"northeast": {"lat": 40.5855032802915, "lng": -3.558704469708498}, "southwest": {"lat": 40.5828053197085, "lng": -3.561402430291502}}}, "icon": "https://maps.gstatic.com/mapfiles/place_api/icons/v1/png_71/shopping-71.png", "icon_background_color": "#4B96F3", "icon_mask_base_uri": "https://maps.gstatic.com/mapfiles/place_api/icons/v2/shopping_pinlet", "international_phone_number": "+34 638 94 31 20", "name": "Vidal Mobile S.L.", "opening_hours": {"open_now": false}, "photos": [{"height": 3456, "html_attributions": ["<a href=\"https://maps.google.com/maps/contrib/101822343582207884234\">Vidal Móvil S.L.</a>"], "photo_reference": "AWn5SU5E51SJi4XNIf_V-G_Tjs0FT7_ebA2msH3E2jSuWY4eP29h_JgX0TnZ1zz4lyZfmh_cbrK5tVhZIc6_Zc_e0Cz-zahFT7MtYl-zv1iwwVBnDf8zDY6J3fEveUMy7k1-kAxs4Ohjo8wWc9z7tntHISvYDkjC4_X2z6OPW8cnILQIu__I6Pzrts7UOIC1ApjB8yTKQIpgzCd9dum0uYbQalR3BKFUMmbGszFYvHPKUdzfxsnP0X-_s-wLff_R72RBxtnywR5jxpNAXTmwUPWYuXmUm0vQ5lflfXY4JO7oWuZ1F7DDzF5iXsGrzB_JWBE5G-p1Y-daZnM", "width": 4608}], "place_id": "ChIJrVVTjLjSQw0RvApu27aJoVw", "plus_code": {"compound_code": "HCMQ+MW Fuente del Fresno, Spain", "global_code": "8CGRHCMQ+MW"}, "rating": 4.4, "reference": "ChIJrVVTjLjSQw0RvApu27aJoVw", "scope": "GOOGLE", "types": ["car_dealer", "store", "point_of_interest", "establishment"], "user_ratings_total": 234, "vicinity": "AUTOVIA A-1 DIRECCION BURGOS SALIDA 23, 3ªGLORIETA DIRECCION ALGETE, San Sebastián de los Reyes"}, {"business_status": "OPERATIONAL", "geometry": {"location": {"lat": 40.56214, "lng": -3.49817}, "viewport": {"northeast": {"lat": 40.56357903029149, "lng": -3.497013669708498}, "southwest": {"lat": 40.56088106970849, "lng": -3.499711630291502}}}, "icon": "https://maps.gstatic.com/mapfiles/place_api/icons/v1/png_71/generic_business-71.png", "icon_background_color": "#7B9EB0", "icon_mask_base_uri": "https://maps.gstatic.com/mapfiles/place_api/icons/v2/generic_pinlet", "international_phone_number": "+34 918 25 90 55", "name": "Vagspeed", "opening_hours": {"open_now": false}, "photos": [{"height": 1080, "html_attributions": ["<a href=\"https://maps.google.com/maps/contrib/109470573917118261973\">Vagspeed</a>"], "photo_reference": "AWn5SU7CLtNbt9roKp4RRddy15SXK-YVfHDMw63E68jDrM8sb7J-2nQydBmdh4O1D7P3bf-5TchpBMsvy5fNnsqJVZqNcQBE_x0hajwj-KcDHoXYXyFtEoOhAPbxwzXa2ZnaZASTtVmgeK0fSYmhg0zYOlbwOe2P2Djb5kes15oVPMsuT-3p1Tb7J5LQIKGtiaq8SvgkS65tHgC4JGEmlnYKs7FWm6SfNjJfDbLJJ6eGrKkGxik8v7k6Dbo3Ph_P3NdTQP36z2k8G6terw1pvFa2F4N6ZoIGaNU4japy0f-xYXlt6b9cEQDvwz5lHQ5MHazMuxTdLZkVCK0", "width": 1920}], "place_id": "ChIJpbTILqA0Qg0RJBU_fTH99dA", "plus_code": {"compound_code": "HG62+VP Cobeña, Spain", "global_code": "8CGRHG62+VP"}, "rating": 4.5, "reference": "ChIJpbTILqA0Qg0RJBU_fTH99dA", "scope": "GOOGLE", "types": ["car_repair", "point_of_interest", "establishment"], "user_ratings_total": 371, "vicinity": "Campo Nuevo, Calle Bronce, 5, Nave - Pol. Ind, Campo Nuevo"}, {"business_status": "OPERATIONAL", "geometry": {"location": {"lat": 40.5678558, "lng": -3.504943399999999}, "viewport": {"northeast": {"lat": 40.5691721802915, "lng": -3.503666969708497}, "southwest": {"lat": 40.5664742197085, "lng": -3.506364930291501}}}, "icon": "https://maps.gstatic.com/mapfiles/place_api/icons/v1/png_71/civic_building-71.png", "icon_background_color": "#7B9EB0", "icon_mask_base_uri": "https://maps.gstatic.com/mapfiles/place_api/icons/v2/civic-bldg_pinlet", "international_phone_number": "+34 916 20 81 32", "name": "Cobeña Town Hall", "opening_hours": {"open_now": false}, "photos": [{"height": 3456, "html_attributions": ["<a href=\"https://maps.google.com/maps/contrib/103122536312653213998\">Yuan Zhehai</a>"], "photo_reference": "AWn5SU5BdGZ39SMHFXoGRBK1djtnN7_m3GuGGFZ92SQhu6nGb0Uqf7sNMTVEYGE__me5ONii2XHofpzux7iuTNKLk_hN9EcA1PpQQK5iRiguTc4-0vZTWmei5F33rBvlL7gnpeuzNDTBVr8CxFT8SefuzQJpQ5JLklyUPWWMjrhnA3HS06Pq3Usvo3EylYdbrlCb0JlORJYVaIYkZJWty_sFqOzCDB9sJ_eDTv8EBDh_aYV1thZBeVvO_Rli-zaQ-yaiVvA0GhIqOByLjjwYm0RdXqWNY78fOWl7z13uZZ8dv7VnAVGkPJPZ3MM32-kjP0xdhPTyM6q78Vt-MfLldzAf55QvBjkhZK3R1eS5UdSrzKJn6Cpa6joWgVToxvDMhNtH3bayHxG39kis_ug8wVcGRL7hIllJ8GXzHerPEj4cgNayjKarYQlFehRjHoLQ2LRrK5vLdnCjQfvPc6tNTYZEqwwAan7vkU9ouyrUSZYFY6GsQ7Il-Wx2RwYaiP4tst4nmypjWj82pxj1eyLn_9UQXlyP2Yvl1q-GFlulmYcClvZ7ydMItkR9RBVjR8syWYXmFMHZ3wgs2ykuIMfxMc_IyDKeCjQVBBYFA7ZhMU98_83B3R7hRNoQp9y3UkycOfl8", "width": 4608}], "place_id": "ChIJHz9wZ1kzQg0R5zMXVfSbr-M", "plus_code": {"compound_code": "HF9W+42 Cobeña, Spain", "global_code": "8CGRHF9W+42"}, "rating": 4.1, "reference": "ChIJHz9wZ1kzQg0R5zMXVfSbr-M", "scope": "GOOGLE", "types": ["city_hall", "local_government_office", "point_of_interest", "establishment"], "user_ratings_total": 236, "vicinity": "Plaza de la Villa, 1, Cobeña"}, {"business_status": "OPERATIONAL", "geometry": {"location": {"lat": 40.6054044, "lng": -3.5342689}, "viewport": {"northeast": {"lat": 40.6067157302915, "lng": -3.532935919708498}, "southwest": {"lat": 40.60401776970851, "lng": -3.535633880291502}}}, "icon": "https://maps.gstatic.com/mapfiles/place_api/icons/v1/png_71/generic_business-71.png", "icon_background_color": "#7B9EB0", "icon_mask_base_uri": "https://maps.gstatic.com/mapfiles/place_api/icons/v2/generic_pinlet", "international_phone_number": "+34 699 81 25 38", "name": "Centro Canino Prado Norte", "opening_hours": {"open_now": false}, "place_id": "ChIJj9D4lubMQw0R_RcCW5AzLQk", "plus_code": {"compound_code": "JF48+57 Algete, Spain", "global_code": "8CGRJF48+57"}, "rating": 4.6, "reference": "ChIJj9D4lubMQw0R_RcCW5AzLQk", "scope": "GOOGLE", "types": ["point_of_interest", "establishment"], "user_ratings_total": 24, "vicinity": "Camino del Espinar, Algete"}, {"business_status": "OPERATIONAL", "geometry": {"location": {"lat": 40.59059299999999, "lng": -3.5436594}, "viewport": {"northeast": {"lat": 40.5918907802915, "lng": -3.542312769708498}, "southwest": {"lat": 40.5891928197085, "lng": -3.545010730291502}}}, "icon": "https://maps.gstatic.com/mapfiles/place_api/icons/v1/png_71/shopping-71.png", "icon_background_color": "#4B96F3", "icon_mask_base_uri": "https://maps.gstatic.com/mapfiles/place_api/icons/v2/shopping_pinlet", "international_phone_number": "+34 916 29 36 70", "name": "RAS Bisutería", "opening_hours": {"open_now": false}, "photos": [{"height": 1080, "html_attributions": ["<a href=\"https://maps.google.com/maps/contrib/107651079754192220547\">RAS Bisutería</a>"], "photo_reference": "AWn5SU7ip8LJFi2egu-xYrrVDrI8G8j6finEaxVjuGhEE0ZHrXkXhSUBzqi0JIGJpJIem6f_YNyBG4mL6Orta2mYWuBXvON4C2I5fiawRtiQP8Img470K-A7CtiptzApU2HIuiwPX89dQYAcX87fn_eEnfWSGW2uwrWpNXGVC4qGZVqAe2-2A0oe5NdRLgIydKBj2fS2OY_oJ7BfbO3eippFVdCb9QmimssXmGl2EUdEzmeWZq0ivptINYbqTITX5Q-R0F8ITUCwzDh25MPLqMX-4WSeD5HOBELJe9M77CENrKiGRQQXLDpAsfhOHufU0oBP6tTFc3S2PLU", "width": 1080}], "place_id": "ChIJjYnRgijNQw0RVZ802dcYbp4", "plus_code": {"compound_code": "HFR4+6G Algete, Spain", "global_code": "8CGRHFR4+6G"}, "rating": 4.3, "reference": "ChIJjYnRgijNQw0RVZ802dcYbp4", "scope": "GOOGLE", "types": ["jewelry_store", "store", "point_of_interest", "establishment"], "user_ratings_total": 18, "vicinity": "Calle de La Torrecilla, 8, Algete"}, {"business_status": "OPERATIONAL", "geometry": {"location": {"lat": 40.5887718, "lng": -3.543141599999999}, "viewport": {"northeast": {"lat": 40.5901878302915, "lng": -3.541566619708498}, "southwest": {"lat": 40.5874898697085, "lng": -3.544264580291501}}}, "icon": "https://maps.gstatic.com/mapfiles/place_api/icons/v1/png_71/shopping-71.png", "icon_background_color": "#4B96F3", "icon_mask_base_uri": "https://maps.gstatic.com/mapfiles/place_api/icons/v2/shopping_pinlet", "international_phone_number": "+34 916 29 08 10", "name": "Parque Mueble | Tienda de muebles Madrid", "opening_hours": {"open_now": false}, "photos": [{"height": 400, "html_attributions": ["<a href=\"https://maps.google.com/maps/contrib/101856617882782913012\">Parque Mueble | Tienda de muebles Madrid</a>"], "photo_reference": "AWn5SU5jECyjhUtmAyANfXvmLdYZIPTb9TZAA04fKE2nnkJpqSosd0MNWeBeWg3RTgnxAuwTCADZQNgnQu4MHKpRcOod2J_C9mozo0zz1XBkmUbWirD_2DTqZipxFey3tBY1VQFHqouPdi06HIljYkmXSlLN9NVJde3da-227-hKhasT9u0x6UIYDzAS0GY6LuRIl3ItO9yMMPJXQ4s2EgaBE3Q5soRV4Wp8wPUkTCsUjeNauyrx2bKvi2EStlDk_AocTnKKyZTV0wdvigYtm2HEfxBaCOErZGvkC4FGOp5_9qOiT8PWXDdpVKLEZb1kdYhaOlGiA8lr67A", "width": 500}], "place_id": "ChIJ5Q8TYyjNQw0R1U89r3C7VjU", "plus_code": {"compound_code": "HFQ4+GP Algete, Spain", "global_code": "8CGRHFQ4+GP"}, "rating": 4.6, "reference": "ChIJ5Q8TYyjNQw0R1U89r3C7VjU", "scope": "GOOGLE", "types": ["furniture_store", "home_goods_store", "store", "point_of_interest", "establishment"], "user_ratings_total": 62, "vicinity": "Calle de la Pelaya, 2, Algete"}, {"business_status": "OPERATIONAL", "geometry": {"location": {"lat": 40.5670656, "lng": -3.502549399999999}, "viewport": {"northeast": {"lat": 40.5684295302915, "lng": -3.501269869708498}, "southwest": {"lat": 40.5657315697085, "lng": -3.503967830291502}}}, "icon": "https://maps.gstatic.com/mapfiles/place_api/icons/v1/png_71/civic_building-71.png", "icon_background_color": "#7B9EB0", "icon_mask_base_uri": "https://maps.gstatic.com/mapfiles/place_api/icons/v2/civic-bldg_pinlet", "international_phone_number": "+34 916 20 72 59", "name": "Oficina de Correos", "opening_hours": {"open_now": false}, "photos": [{"height": 900, "html_attributions": ["<a href=\"https://maps.google.com/maps/contrib/103814941439737710677\">Oficina de Correos</a>"], "photo_reference": "AWn5SU7L7ittJrHniftSG1F9dXnB7GNBP6gW3ZuPLncAi7bBbWi44FvSzh_BkvrUNINqQzBODYuc5pH9JKarLXvF6lofV1stES2x_-lfze4Ph9T9hCTUZv8dcmPjdowkjnUKGzpvpeUsQHzUmsdCknR9BZRJJINDHncAU7KD2B7mV4BG4gf9TkBmBF5REoGnXtgOfeTOMOfGW7EN96qjAxZ9vSuM1uOxSgnP-NctaWNT_S62uE22pJufO9UFbUY07O6S9TQlFa5iW1nV33aT4RiE3xkjog-iZ0F8vH-6Zf2t5deEGnzxWFOjawWtbDHUs7AH_usyNwjLNeU", "width": 1600}], "place_id": "ChIJqePu2VgzQg0RGno-o-w0cqM", "plus_code": {"compound_code": "HF8W+RX Cobeña, Spain", "global_code": "8CGRHF8W+RX"}, "rating": 3.2, "reference": "ChIJqePu2VgzQg0RGno-o-w0cqM", "scope": "GOOGLE", "types": ["post_office", "finance", "point_of_interest", "establishment"], "user_ratings_total": 58, "vicinity": "Avenida de Guadalajara, 20, Cobeña"}, {"geometry": {"location": {"lat": 40.54502979999999, "lng": -3.4574079}, "viewport": {"northeast": {"lat": 40.55489076152302, "lng": -3.448311239504362}, "southwest": {"lat": 40.54049597820279, "lng": -3.467545043832218}}}, "icon": "https://maps.gstatic.com/mapfiles/place_api/icons/v1/png_71/geocode-71.png", "icon_background_color": "#7B9EB0", "icon_mask_base_uri": "https://maps.gstatic.com/mapfiles/place_api/icons/v2/generic_pinlet", "name": "Daganzo de Arriba", "photos": [{"height": 2448, "html_attributions": ["<a href=\"https://maps.google.com/maps/contrib/114573754530632149142\">Juan Jose Pablos</a>"], "photo_reference": "AWn5SU6s46Ziy2gfd9Qi5DQy09oIJyQ9zW8VwKZypkPiffmFkgVBt23rfWSsbxFIJOhzbiiRRewRdTQRWtw2lkT0WMF5AgSy85-r0E_MLZJaqpi9ZhaAulvvdz2u05wsJ2r4E-NIo9JLkslwuxKUhyOGKCYniA1-tcLplqg4l1VmSXcws-YzpyNTGRw9SJ8k6cwish6eVBfUHkQUSHO_LrPIO7ZExN2SxRU8r1w53DIIFWa0meiNVrmlQCD5_ON06GakwJykngymmq3yF_DuxCEY93JujU2FevgsX1hMigyieFu7uTxI8H-_byCrQ1bIqU9PpGSDE2YNOx4DOpFuwnfiZEX4ZYenxI-NWQzfqnt2I0xPEzCDDMDzQ1pc4UjGiO2aaQP-WZQMJNCrXxpe_DlbtYtX-R5SA7m3gqevjJFjIsRzKtlxgnwTfpkixomI3JyDkghEQeX5XJ98OxUguwD6sA1FoDhGzdfwb2R-29O4IABsy3Z8xdoip_UueiSRXv64Zydm9v7GEowN8pyM2StS8-PKS3YwTnhRl2eH5m_ptbRs2KncmE4F-RvGIyt7zp5RMWnujuOES7jVLPkdTc63Py4eJE5YWw83w4fxcoAJ5LRY_ucefZw4zoypGH0iPakXH44GNuo7", "width": 3264}], "place_id": "ChIJxU4G-f00Qg0RqZUXbdRRBVk", "reference": "ChIJxU4G-f00Qg0RqZUXbdRRBVk", "scope": "GOOGLE", "types": ["locality", "political"], "vicinity": "Daganzo de Arriba"}]