[{"business_status": "OPERATIONAL", "geometry": {"location": {"lat": 40.4484514, "lng": -4.000376699999999}, "viewport": {"northeast": {"lat": 40.4496147802915, "lng": -3.998872969708497}, "southwest": {"lat": 40.44691681970851, "lng": -4.001570930291502}}}, "icon": "https://maps.gstatic.com/mapfiles/place_api/icons/v1/png_71/school-71.png", "icon_background_color": "#7B9EB0", "icon_mask_base_uri": "https://maps.gstatic.com/mapfiles/place_api/icons/v2/school_pinlet", "international_phone_number": "+34 918 15 50 00", "name": "Lycée Français Molière", "opening_hours": {"open_now": false}, "photos": [{"height": 568, "html_attributions": ["<a href=\"https://maps.google.com/maps/contrib/104435587710993144400\">Lycée Français International Molière</a>"], "photo_reference": "AWn5SU5xRp6CPyrDK43uxHMCW2Fn4Cn8u3XGI3fx1a-ZxIl-GqhOATC4EX23-Z1bja0IFF4Cz2S2k75MzGK4xupOMqg7oEXjhpMdjz6GxqaL56tp812omOwpIEibhP9Z7Qb6SspyXaO0LgGf_YasOgbyNtFWJZbbnrRqMo_Hj_HcqanXWxgd9TsPRwQmMz_rQQ2VNwjqQGFjTrJLnuMghStYmuj7_AyPP2o5f3xVUrlNxPahkkyoZcXZTBY4_jG1pOD9zmuvHFJ2TJexDea4eBZl58epib-leifdmnV1PHAChYrqLBhRLbhdkWUGIiTVBnXA0AtRod3sVRU", "width": 1200}], "place_id": "ChIJ8eSQMHeZQQ0RVveHC3jOEDA", "plus_code": {"compound_code": "CXXX+9R Villanueva de la Cañada, Spain", "global_code": "8CGQCXXX+9R"}, "reference": "ChIJ8eSQMHeZQQ0RVveHC3jOEDA", "scope": "GOOGLE", "types": ["secondary_school", "school", "point_of_interest", "establishment"], "vicinity": "Calle Cristo, 27, Villanueva de la Cañada"}, {"business_status": "OPERATIONAL", "geometry": {"location": {"lat": 40.41357059999999, "lng": -4.001425999999999}, "viewport": {"northeast": {"lat": 40.41487878029149, "lng": -4.000039019708496}, "southwest": {"lat": 40.4121808197085, "lng": -4.002736980291501}}}, "icon": "https://maps.gstatic.com/mapfiles/place_api/icons/v1/png_71/school-71.png", "icon_background_color": "#7B9EB0", "icon_mask_base_uri": "https://maps.gstatic.com/mapfiles/place_api/icons/v2/school_pinlet", "international_phone_number": "+34 918 15 83 71", "name": "I.E.S. Alfonso Moreno", "opening_hours": {"open_now": false}, "place_id": "ChIJfdrt-eWZQQ0R5ZVEeoSyjug", "plus_code": {"compound_code": "CX7X+CC Brunete, Spain", "global_code": "8CGQCX7X+CC"}, "reference": "ChIJfdrt-eWZQQ0R5ZVEeoSyjug", "scope": "GOOGLE", "types": ["secondary_school", "school", "point_of_interest", "establishment"], "vicinity": "Calle Estudiantes, 3, Brunete"}, {"business_status": "OPERATIONAL", "geometry": {"location": {"lat": 40.45571169999999, "lng": -3.993208600000001}, "viewport": {"northeast": {"lat": 40.4571344302915, "lng": -3.991860969708498}, "southwest": {"lat": 40.4544364697085, "lng": -3.994558930291503}}}, "icon": "https://maps.gstatic.com/mapfiles/place_api/icons/v1/png_71/school-71.png", "icon_background_color": "#7B9EB0", "icon_mask_base_uri": "https://maps.gstatic.com/mapfiles/place_api/icons/v2/school_pinlet", "international_phone_number": "+34 918 15 74 73", "name": "Secondary School las Encinas", "opening_hours": {"open_now": false}, "photos": [{"height": 3120, "html_attributions": ["<a href=\"https://maps.google.com/maps/contrib/103148476263432993595\">Esther C.</a>"], "photo_reference": "AWn5SU5DNCMet0VQ-SQCvbm2kSKQCDd5JfEDjwwRPYRQ_mqGvW4lLmc82HUBSXgcVBDs8SIGwHlbKVofouJudQOu2Rgsgd604H5J55OX2-LEBhc_BVxidGIOXBUywPJLE_T_XGttU-oUxi1fukP2FZfi-c3xz5DWtvRwy3SwTZMleLy1DT2b7k4BrFfQLigj-lXEeEztHmx6fORECvgSh8Vr9pbGS0IEJD1vUo3GcPtW_C-nNSrX5vX7eT_l3VVObOm-6I5og4Oj-9db0l68sX5O_e59WQIgxeqtC-aHWUK8lU45n145V2uSL0DygsldFRz6TOCjevA0nNWQAvM_RAtr_swl047DfeNXcVDsKDF_-_Aj6BrrqDcln-hjdCWZ5IUZfng9aqPg8SIcFqdnL7g1v8XNOZ1oEvN69Qdt3dBVwDYN0bpfYwKPAv7vlPEnbBJEMBzm30CT-wMte5ZbljQGVZC2hQGt-mB3joy8W_Uq0v69Yp82r_xlYyYsTRb8BX5GFcw3326lpyI41yfCjg5abBIrTaQqm4BiyJdJZw9irK0vPWdXiO4fVzdptpRVDQrYoCCFcpYUo4TMeQfbcLr35n_iTBw23K2Uy_JCimg2wpJAuc5Iu-kW-g30hVzt34uOCmZHkA", "width": 4160}], "place_id": "ChIJ59rsnWSZQQ0Rmm7M9PU44wM", "plus_code": {"compound_code": "F244+7P Villanueva de la Cañada, Spain", "global_code": "8CGRF244+7P"}, "reference": "ChIJ59rsnWSZQQ0Rmm7M9PU44wM", "scope": "GOOGLE", "types": ["secondary_school", "school", "point_of_interest", "establishment"], "vicinity": "Avenida Mirasierra, 8, Villanueva de la Cañada"}]