[{"business_status": "OPERATIONAL", "geometry": {"location": {"lat": 40.3552774, "lng": -3.2652258}, "viewport": {"northeast": {"lat": 40.3566413802915, "lng": -3.263936669708498}, "southwest": {"lat": 40.3539434197085, "lng": -3.266634630291501}}}, "icon": "https://maps.gstatic.com/mapfiles/place_api/icons/v1/png_71/shopping-71.png", "icon_background_color": "#4B96F3", "icon_mask_base_uri": "https://maps.gstatic.com/mapfiles/place_api/icons/v2/shopping_pinlet", "name": "Centro Comercial La Plaza", "opening_hours": {"open_now": false}, "photos": [{"height": 3120, "html_attributions": ["<a href=\"https://maps.google.com/maps/contrib/104439474043777418245\">sorin. s</a>"], "photo_reference": "AWn5SU4Yuq7Aud6XZQKmqDo2DgFkv2Ad3Kt6GjW3GW_CZPMEHZGU_HhKHGC5HD4uAhVe0ocqtfyQy4bmR3X-ElnCNJhGLSnx69jMFj0RvLeGqAjLNgkU6XbwWlMQR7ZwrZdWzaWO-sygbcpSucLKWIrViq3XYPZE0_T_eoutMSmQW2iDJ4hmKgH_kA44rBWLGIH_5LrkAQiQ1aQB90Id70nC7zvGOnvqBQSfc63oPMgDNGTPzqJxFMgF7S_hFvWq1H_X8IOyaAyxUzin_9KFcGhLnnzTwNqQiM3oiHOl8dL8tufoL3hNNElIMz-Rr8PnQ3eRMRBfBJaGnV-utqzxLIGVUrOA1vECQ_yMCV8iYUq5jO5YfLmmC5MpQ9Zs0OtqYQ225T9d1INTe9DSkJobem08BGQmGp-FSSXwlJvOrqQnM-OIGM_y-1DqobXrZE9FhVC08F8dkRrSxt3u7rsWetddN8qCH3Nl-5uKn3kz-RWmQPr_n6roWcsFEINkcBSGuaGLeUxfeBzS2N1sD6C9wIEXoY-EXn-cJytHIh8QMQgBVRjnzU7sa1ZwOfzZknXOmRfsRmeoL3w_mRaNhQuZoy_Dead8S57vt5ztTERLrQ9JP0RB4IPwtk4tS9NV1wTM174aIZhghg", "width": 4160}], "place_id": "ChIJJ6VTHK5EQg0RVVAGkUde9co", "plus_code": {"compound_code": "9P4M+4W Nuevo Baztán, Spain", "global_code": "8CGR9P4M+4W"}, "rating": 3.6, "reference": "ChIJJ6VTHK5EQg0RVVAGkUde9co", "scope": "GOOGLE", "types": ["shopping_mall", "point_of_interest", "establishment"], "user_ratings_total": 667, "vicinity": "Calle 10, 25, Nuevo Baztán"}, {"business_status": "OPERATIONAL", "geometry": {"location": {"lat": 40.3547598, "lng": -3.2639844}, "viewport": {"northeast": {"lat": 40.3561643802915, "lng": -3.262600219708498}, "southwest": {"lat": 40.3534664197085, "lng": -3.265298180291502}}}, "icon": "https://maps.gstatic.com/mapfiles/place_api/icons/v1/png_71/shopping-71.png", "icon_background_color": "#4B96F3", "icon_mask_base_uri": "https://maps.gstatic.com/mapfiles/place_api/icons/v2/shopping_pinlet", "name": "Pruebatelo Moda Calzado y Complementos", "opening_hours": {"open_now": false}, "photos": [{"height": 1600, "html_attributions": ["<a href=\"https://maps.google.com/maps/contrib/111513938734838885859\">Pruebatelo Moda Calzado y Complementos</a>"], "photo_reference": "AWn5SU6WzYW8hNoExv3I1Wk7Fsk94p9PHFWyroAapk3F9JIevcvFtfF3DBYVx5a2rNH2pnElwpyyTT-l_6suKf9XWDk4NvA6nJ2E4-9wGnppibNmRVtaSrDvgO6DPypogefI4Ot6Of1KsHwYZ_FrMYcpcBkDfgPcak-K1C6pK404vd5E0QdPaMFomUrTcnMP7IuDRNKoIjBkzxyVbC1MAmh8Xn7p0xwaeWFav9wxdR8a4aO7TzipwrXEfsQybqz6-owO6LswzNN_LTe6T3I8V5pLmNWN3lDycQmbITYlBOEznRItM4XNleM70GQlyPqvdj84-U-w6XGhIsw", "width": 1200}], "place_id": "ChIJbeaergBFQg0RlWVxVPZgj_w", "plus_code": {"compound_code": "9P3P+WC Nuevo Baztán, Spain", "global_code": "8CGR9P3P+WC"}, "rating": 5, "reference": "ChIJbeaergBFQg0RlWVxVPZgj_w", "scope": "GOOGLE", "types": ["shopping_mall", "point_of_interest", "establishment"], "user_ratings_total": 3, "vicinity": "Avenida Luxemburgo 18, Centro Comercial la Plaza, Local 17, Nuevo Baztán"}, {"business_status": "OPERATIONAL", "geometry": {"location": {"lat": 40.355415, "lng": -3.2658258}, "viewport": {"northeast": {"lat": 40.35672693029151, "lng": -3.264453869708498}, "southwest": {"lat": 40.35402896970851, "lng": -3.267151830291501}}}, "icon": "https://maps.gstatic.com/mapfiles/place_api/icons/v1/png_71/shopping-71.png", "icon_background_color": "#4B96F3", "icon_mask_base_uri": "https://maps.gstatic.com/mapfiles/place_api/icons/v2/shopping_pinlet", "name": "Centro Comercial Market", "place_id": "ChIJlXdGXX9FQg0RV6pv0uZiJ_I", "plus_code": {"compound_code": "9P4M+5M Nuevo Baztán, Spain", "global_code": "8CGR9P4M+5M"}, "rating": 1, "reference": "ChIJlXdGXX9FQg0RV6pv0uZiJ_I", "scope": "GOOGLE", "types": ["shopping_mall", "point_of_interest", "establishment"], "user_ratings_total": 3, "vicinity": "Eurovillas Centro Comercial, Zona 1, Local 1, Nuevo Baztán"}, {"business_status": "OPERATIONAL", "geometry": {"location": {"lat": 40.3555981, "lng": -3.2664085}, "viewport": {"northeast": {"lat": 40.35682233029149, "lng": -3.264814419708498}, "southwest": {"lat": 40.35412436970849, "lng": -3.267512380291501}}}, "icon": "https://maps.gstatic.com/mapfiles/place_api/icons/v1/png_71/shopping-71.png", "icon_background_color": "#4B96F3", "icon_mask_base_uri": "https://maps.gstatic.com/mapfiles/place_api/icons/v2/shopping_pinlet", "name": "Centro Comercial Viejo", "place_id": "ChIJ0-yZO-xFQg0RZRe34iM2spE", "plus_code": {"compound_code": "9P4M+6C Nuevo Baztán, Spain", "global_code": "8CGR9P4M+6C"}, "reference": "ChIJ0-yZO-xFQg0RZRe34iM2spE", "scope": "GOOGLE", "types": ["shopping_mall", "point_of_interest", "establishment"], "vicinity": "Avenida Kiel, 127, Nuevo Baztán"}]