[{"business_status": "OPERATIONAL", "geometry": {"location": {"lat": 40.3980239, "lng": -3.4843467}, "viewport": {"northeast": {"lat": 40.3993761802915, "lng": -3.482977069708498}, "southwest": {"lat": 40.3966782197085, "lng": -3.485675030291501}}}, "icon": "https://maps.gstatic.com/mapfiles/place_api/icons/v1/png_71/bus-71.png", "icon_background_color": "#10BDFF", "icon_mask_base_uri": "https://maps.gstatic.com/mapfiles/place_api/icons/v2/bus_share_taxi_pinlet", "name": "Av.Concordia-Mayor", "place_id": "ChIJKeuPlpQ5Qg0R91J7OJO_IJE", "plus_code": {"compound_code": "9GX8+67 Mejorada del Campo, Spain", "global_code": "8CGR9GX8+67"}, "rating": 5, "reference": "ChIJKeuPlpQ5Qg0R91J7OJO_IJE", "scope": "GOOGLE", "types": ["bus_station", "transit_station", "point_of_interest", "establishment"], "user_ratings_total": 1, "vicinity": "Spain"}, {"business_status": "OPERATIONAL", "geometry": {"location": {"lat": 40.37063919999999, "lng": -3.4858232}, "viewport": {"northeast": {"lat": 40.37200223029149, "lng": -3.484487169708498}, "southwest": {"lat": 40.36930426970849, "lng": -3.487185130291502}}}, "icon": "https://maps.gstatic.com/mapfiles/place_api/icons/v1/png_71/bus-71.png", "icon_background_color": "#10BDFF", "icon_mask_base_uri": "https://maps.gstatic.com/mapfiles/place_api/icons/v2/bus_share_taxi_pinlet", "name": "Olivar-Paz Camacho", "place_id": "ChIJbQdThXE5Qg0R0G4iz3kpNzM", "plus_code": {"compound_code": "9GC7+7M Velilla de San Antonio, Spain", "global_code": "8CGR9GC7+7M"}, "rating": 3, "reference": "ChIJbQdThXE5Qg0R0G4iz3kpNzM", "scope": "GOOGLE", "types": ["bus_station", "transit_station", "point_of_interest", "establishment"], "user_ratings_total": 2, "vicinity": "Spain"}, {"business_status": "OPERATIONAL", "geometry": {"location": {"lat": 40.40702, "lng": -3.56324}, "viewport": {"northeast": {"lat": 40.4083290802915, "lng": -3.561926119708498}, "southwest": {"lat": 40.4056311197085, "lng": -3.564624080291502}}}, "icon": "https://maps.gstatic.com/mapfiles/place_api/icons/v1/png_71/bus-71.png", "icon_background_color": "#10BDFF", "icon_mask_base_uri": "https://maps.gstatic.com/mapfiles/place_api/icons/v2/bus_share_taxi_pinlet", "name": "Miguel Delibes - Alto del Esparragal", "place_id": "ChIJ4V9fK706Qg0ROn2d6NW8zps", "plus_code": {"compound_code": "CC4P+RP Madrid, Spain", "global_code": "8CGRCC4P+RP"}, "rating": 2, "reference": "ChIJ4V9fK706Qg0ROn2d6NW8zps", "scope": "GOOGLE", "types": ["bus_station", "transit_station", "point_of_interest", "establishment"], "user_ratings_total": 1, "vicinity": "Spain"}, {"business_status": "OPERATIONAL", "geometry": {"location": {"lat": 40.40669, "lng": -3.56351}, "viewport": {"northeast": {"lat": 40.40804013029149, "lng": -3.562159969708498}, "southwest": {"lat": 40.40534216970849, "lng": -3.564857930291502}}}, "icon": "https://maps.gstatic.com/mapfiles/place_api/icons/v1/png_71/bus-71.png", "icon_background_color": "#10BDFF", "icon_mask_base_uri": "https://maps.gstatic.com/mapfiles/place_api/icons/v2/bus_share_taxi_pinlet", "name": "Miguel Delibes - Alto del Esparragal", "place_id": "ChIJR_HoKb06Qg0RFmQ7pB-5H_M", "plus_code": {"compound_code": "CC4P+MH Madrid, Spain", "global_code": "8CGRCC4P+MH"}, "reference": "ChIJR_HoKb06Qg0RFmQ7pB-5H_M", "scope": "GOOGLE", "types": ["bus_station", "transit_station", "point_of_interest", "establishment"], "vicinity": "Spain"}, {"business_status": "OPERATIONAL", "geometry": {"location": {"lat": 40.4555896, "lng": -3.4803525}, "viewport": {"northeast": {"lat": 40.4569364302915, "lng": -3.479003219708499}, "southwest": {"lat": 40.4542384697085, "lng": -3.481701180291502}}}, "icon": "https://maps.gstatic.com/mapfiles/place_api/icons/v1/png_71/bus-71.png", "icon_background_color": "#10BDFF", "icon_mask_base_uri": "https://maps.gstatic.com/mapfiles/place_api/icons/v2/bus_share_taxi_pinlet", "name": "Torrejon - Terminal Autobuses", "photos": [{"height": 8384, "html_attributions": ["<a href=\"https://maps.google.com/maps/contrib/101567033133483418790\">Max Romulo Diaz Nu침ez del Arco</a>"], "photo_reference": "AWn5SU7yN10WUu8CGFmAKFxKlp4ZgxNUBvZ99mE4UWEgx7PefFew7JYRLWmIKiSGBpbtu8Q1sJn8XPScyebrBAOg9nbd9S9f62p6or_DpTOmaY2GDTmbP2UBnizENqrWILOeXUoNA7-MoGC9vIS4nBKV8p1brO4UpHaMhEzN4-CxZswu-KyDerMXugCupApKDgo_ypC3HLV6cRwgBINs_mLWqQYqlaYGAh7BK0YZUV_7CepJtFQfwoeCbrxiNFlUerCmiJ05Uycf-znMB2XEhjKq8kQvnhDbzIofNwvdS5aONUHnuyPTJ5WxeDnGTeirV-b0JnOgUGIZIfiqBOJtdbDZ31EEvnQsagAhy0VomueYoxIwpYrxAzWh75dG_DwxVMTe-30bnLusVq7CYiC748Sflz233OGFXyCY2erbQvquRZwFIfKcCY9-lnhnT5J0KWYHi1Iz5sOe5892UK76X7btw2tNB9C7k814M1FQEQYUYWvAZGfmpeJGD6MswJAe4n4EQXBO9AtmSrCEZ3kgBhNTrgOkunOAllxSsEQzLUgke6BTR3i41VQIzKhOh4_Mxc0DBwSvYFe41e0tMTcbCOtOyS-aFGckeum4BZu-wb3NlY5cOpIurEQI8nIEWEC_bGVZ", "width": 6072}], "place_id": "ChIJmXfm_iE3Qg0RKlJUnOZyQl0", "plus_code": {"compound_code": "FG49+6V Torrej칩n de Ardoz, Spain", "global_code": "8CGRFG49+6V"}, "rating": 1, "reference": "ChIJmXfm_iE3Qg0RKlJUnOZyQl0", "scope": "GOOGLE", "types": ["bus_station", "transit_station", "point_of_interest", "establishment"], "user_ratings_total": 2, "vicinity": "Spain"}, {"business_status": "OPERATIONAL", "geometry": {"location": {"lat": 40.4556876, "lng": -3.480636099999999}, "viewport": {"northeast": {"lat": 40.4570597302915, "lng": -3.479291519708497}, "southwest": {"lat": 40.45436176970851, "lng": -3.481989480291501}}}, "icon": "https://maps.gstatic.com/mapfiles/place_api/icons/v1/png_71/bus-71.png", "icon_background_color": "#10BDFF", "icon_mask_base_uri": "https://maps.gstatic.com/mapfiles/place_api/icons/v2/bus_share_taxi_pinlet", "name": "Torrejon - Terminal Autobuses", "photos": [{"height": 4000, "html_attributions": ["<a href=\"https://maps.google.com/maps/contrib/100154445658123820693\">Alberto Miranda</a>"], "photo_reference": "AWn5SU6Ww5mmmQj6uap714sZ7rRiSJ5oAtj1THdk7NRQbXpz-yATDRuOcpDhe0Od4J65rZK1rJdUkMhgM7QP5j7KKBStEQG1q2Ed685l-YzKZs7zRRuhrAwwfbW4CpSaoVOV51KvOrO8elc1sJp4Djp-oTzhwngC0VR_TyPmJ4aX3LtKmBFwiyYaf-jx4ne9OTUWOezznaTKpso9A5onMkkg4kVAZkIqRQlmPkA5DhUYsV-Wc0O6b0jqa0Yc-hvj_NcgsbdU7-AvA1Dm_hv96FQvtLo9V0zk-GFwkScVwq6JkWB-86PQ_L1jPm6htT7EG3--GEI960m3f-tsTgNAm2B8_0s__llkopIugZ0WMoKenKGkwbs6cX4OpCSJ7GFj16bHfS2jORZE2W5Wpi9iwoaqusd01poxpe3_WWmRPRwjnKv5K72T36rWIUdfQU08Xmd-XG5ogMeChlCEUms1K8aw--6dTQnHnq4VttZxp2z_CuJdLrufW8uesBlfU5QPVZEee7z4HvkKfqQnBvJ_8w4O62Zfl2vFMxHRnijB2qd8hE0YHhnXlIQIa7-pl133Ztb3rjHhHc_hhrLb7gU0nyc6jItTQMk8ws5pQhCzXoRqJDXpVOnGaCAHZQCyGyTeAl5D6m9sJA", "width": 3000}], "place_id": "ChIJKSiE-SE3Qg0RiFchTIOtP-w", "plus_code": {"compound_code": "FG49+7P Torrej칩n de Ardoz, Spain", "global_code": "8CGRFG49+7P"}, "rating": 4.2, "reference": "ChIJKSiE-SE3Qg0RiFchTIOtP-w", "scope": "GOOGLE", "types": ["bus_station", "transit_station", "point_of_interest", "establishment"], "user_ratings_total": 5, "vicinity": "Spain"}, {"business_status": "OPERATIONAL", "geometry": {"location": {"lat": 40.4559272, "lng": -3.4798376}, "viewport": {"northeast": {"lat": 40.4572765802915, "lng": -3.478435219708498}, "southwest": {"lat": 40.4545786197085, "lng": -3.481133180291502}}}, "icon": "https://maps.gstatic.com/mapfiles/place_api/icons/v1/png_71/bus-71.png", "icon_background_color": "#10BDFF", "icon_mask_base_uri": "https://maps.gstatic.com/mapfiles/place_api/icons/v2/bus_share_taxi_pinlet", "name": "Torrejon - Terminal Autobuses", "place_id": "ChIJGcpKUB83Qg0RmoLxN9B03ew", "plus_code": {"compound_code": "FG4C+93 Torrej칩n de Ardoz, Spain", "global_code": "8CGRFG4C+93"}, "reference": "ChIJGcpKUB83Qg0RmoLxN9B03ew", "scope": "GOOGLE", "types": ["bus_station", "transit_station", "point_of_interest", "establishment"], "vicinity": "Spain"}, {"business_status": "OPERATIONAL", "geometry": {"location": {"lat": 40.37912, "lng": -3.412409999999999}, "viewport": {"northeast": {"lat": 40.38046833029149, "lng": -3.411053219708498}, "southwest": {"lat": 40.3777703697085, "lng": -3.413751180291502}}}, "icon": "https://maps.gstatic.com/mapfiles/place_api/icons/v1/png_71/bus-71.png", "icon_background_color": "#10BDFF", "icon_mask_base_uri": "https://maps.gstatic.com/mapfiles/place_api/icons/v2/bus_share_taxi_pinlet", "name": "Arganda-Antonio Machado", "place_id": "ChIJq4pt-nhHQg0RB1WBpbY_Xiw", "plus_code": {"compound_code": "9HHQ+J2 Loeches, Spain", "global_code": "8CGR9HHQ+J2"}, "reference": "ChIJq4pt-nhHQg0RB1WBpbY_Xiw", "scope": "GOOGLE", "types": ["bus_station", "transit_station", "point_of_interest", "establishment"], "vicinity": "Spain"}]