[{"business_status": "OPERATIONAL", "geometry": {"location": {"lat": 40.156424, "lng": -3.6187641}, "viewport": {"northeast": {"lat": 40.1573197302915, "lng": -3.617831869708497}, "southwest": {"lat": 40.15462176970851, "lng": -3.620529830291502}}}, "icon": "https://maps.gstatic.com/mapfiles/place_api/icons/v1/png_71/hospital-71.png", "icon_background_color": "#F88181", "icon_mask_base_uri": "https://maps.gstatic.com/mapfiles/place_api/icons/v2/hospital-H_pinlet", "international_phone_number": "+34 918 93 01 50", "name": "Complejo Asistencial Benito Menni", "opening_hours": {"open_now": false}, "photos": [{"height": 1695, "html_attributions": ["<a href=\"https://maps.google.com/maps/contrib/101099853662667138786\">Miguel Lucio-V.M.</a>"], "photo_reference": "AWn5SU51f_txMyFbRji7BDADwr5ZXpGuRfPRqToj_BkXFh9gEzA4Ow_PYNzo0blqZumfwcXIRLYVMLqoIA36urH287gZlo2bhS6jnF9Ipk17kHWOHWOHQ-Z9ixzGqGBpJ7Vh_JfHAQuiYv1yZIb8rRKePaKBNl0YLb6zysovmTBWs2tozcxQu5I4JeNcnRnqgbXgUV58HAk2E87TngeUBzjbH0JfmArM-OBttGCnRYfOrnghVnk_JFtSDx9eDypPiIW0AdUEkW38SW0qclwMV3rnUav5HrGXQ7SeZK6ZUStMGwWL8EG2jEtjEEu6t5rsSGvbDDZDE-7LashGcQi9tC4b6t2mk-6TjKvFWepxhHQaW0jhur3JJ2kulg1ugjGEwgGWEv6IV8AHZbwQxFaG4vzN5tWkKkwbCCjkdZEieP3djOxstBaj5FIZToHDY5qIHIkGYSiZQyVWimTyOtCvljQ2pZS6BE7Eaje1Gqt_zZvKnLttqltFiINjB8pZqJTK1z3FsYeBsLE6R7ugGzHML8TuLYfXR8pfl9A8ySUgz6C9d2NQmSlBeQJQc4l_9fry0XnBNavaJ5wfHQXp7aLwiNs6Wfefp8W_uw4i06aK-hBs29czWu5P26n8FiWlJTpJNy6uf-YwHg", "width": 2473}], "place_id": "ChIJdyRtejMaQg0RjGxz5khHuTQ", "plus_code": {"compound_code": "594J+HF Ciempozuelos, Spain", "global_code": "8CGR594J+HF"}, "rating": 3.7, "reference": "ChIJdyRtejMaQg0RjGxz5khHuTQ", "scope": "GOOGLE", "types": ["hospital", "point_of_interest", "health", "establishment"], "user_ratings_total": 94, "vicinity": "Calle Jardines, 1, Ciempozuelos"}, {"business_status": "OPERATIONAL", "geometry": {"location": {"lat": 40.1604235, "lng": -3.614331}, "viewport": {"northeast": {"lat": 40.16166708029149, "lng": -3.613014669708498}, "southwest": {"lat": 40.1589691197085, "lng": -3.615712630291502}}}, "icon": "https://maps.gstatic.com/mapfiles/place_api/icons/v1/png_71/hospital-71.png", "icon_background_color": "#F88181", "icon_mask_base_uri": "https://maps.gstatic.com/mapfiles/place_api/icons/v2/hospital-H_pinlet", "name": "EDIFICIO GESTOR CSJD", "opening_hours": {"open_now": false}, "place_id": "ChIJN73TFwAbQg0Rceo8xn_0RzM", "plus_code": {"compound_code": "596P+57 Ciempozuelos, Spain", "global_code": "8CGR596P+57"}, "reference": "ChIJN73TFwAbQg0Rceo8xn_0RzM", "scope": "GOOGLE", "types": ["hospital", "point_of_interest", "health", "establishment"], "vicinity": "Avenida San Juan de Dios, 1, Ciempozuelos"}, {"business_status": "OPERATIONAL", "geometry": {"location": {"lat": 40.1617162, "lng": -3.6145538}, "viewport": {"northeast": {"lat": 40.1631195802915, "lng": -3.613211369708498}, "southwest": {"lat": 40.1604216197085, "lng": -3.615909330291503}}}, "icon": "https://maps.gstatic.com/mapfiles/place_api/icons/v1/png_71/hospital-71.png", "icon_background_color": "#F88181", "icon_mask_base_uri": "https://maps.gstatic.com/mapfiles/place_api/icons/v2/hospital-H_pinlet", "international_phone_number": "+34 918 93 00 01", "name": "Centro San Juan de Dios", "opening_hours": {"open_now": true}, "photos": [{"height": 3627, "html_attributions": ["<a href=\"https://maps.google.com/maps/contrib/110481092088146977780\">Centro San Juan de Dios</a>"], "photo_reference": "AWn5SU5lSQu1DSFUzztE06NdULDcWpG0nSE-d3A5g5geVE0Ah9230-JatuUiWQ56SNreFtSapuGuH2qL0wBP4-eu8V76Wa8mW0l3Y9dHRzMWaf0xPCJP8HqQZlFYRmiHn9jEBpDMq4d_O9tkpUImhZuB0oaJx6OYuf0pmy1JxWCDU2Owmnn_B7Iy5C1o1yZ9Oarm1YanQg3UhT1QhkInDHJB1y4b6qRqbcL7jIqPb5Cnlg088MVpNmyzn2PT1fxKkqpJ-5MVGNKcQ7qa_gCc-vHU1h2eua8N4hR-KKKlpoKq97yeeH_Jc3_E3m7WJNtmCCDojwAQQ7Q8JyQ", "width": 5432}], "place_id": "ChIJsaf3xwQbQg0RPK7PaUkUw7w", "plus_code": {"compound_code": "596P+M5 Ciempozuelos, Spain", "global_code": "8CGR596P+M5"}, "rating": 3.7, "reference": "ChIJsaf3xwQbQg0RPK7PaUkUw7w", "scope": "GOOGLE", "types": ["hospital", "point_of_interest", "health", "establishment"], "user_ratings_total": 10, "vicinity": "Avenida San Juan de Dios, 1, Ciempozuelos"}, {"business_status": "OPERATIONAL", "geometry": {"location": {"lat": 40.1617162, "lng": -3.6145538}, "viewport": {"northeast": {"lat": 40.1631195802915, "lng": -3.613211369708498}, "southwest": {"lat": 40.1604216197085, "lng": -3.615909330291503}}}, "icon": "https://maps.gstatic.com/mapfiles/place_api/icons/v1/png_71/hospital-71.png", "icon_background_color": "#F88181", "icon_mask_base_uri": "https://maps.gstatic.com/mapfiles/place_api/icons/v2/hospital-H_pinlet", "name": "UNIDAD 3 CSJD", "opening_hours": {"open_now": true}, "place_id": "ChIJj-jJSgAbQg0RJfk4CfSyanA", "plus_code": {"compound_code": "596P+M5 Ciempozuelos, Spain", "global_code": "8CGR596P+M5"}, "reference": "ChIJj-jJSgAbQg0RJfk4CfSyanA", "scope": "GOOGLE", "types": ["hospital", "point_of_interest", "health", "establishment"], "vicinity": "Avenida San Juan de Dios, 1, Ciempozuelos"}]