[{"business_status": "OPERATIONAL", "geometry": {"location": {"lat": 40.4269127, "lng": -3.2619951}, "viewport": {"northeast": {"lat": 40.4282296302915, "lng": -3.260659869708499}, "southwest": {"lat": 40.4255316697085, "lng": -3.263357830291502}}}, "icon": "https://maps.gstatic.com/mapfiles/place_api/icons/v1/png_71/generic_business-71.png", "icon_background_color": "#7B9EB0", "icon_mask_base_uri": "https://maps.gstatic.com/mapfiles/place_api/icons/v2/generic_pinlet", "name": "Corpa-pza.españa", "place_id": "ChIJX8b-aP9PQg0RD7rIaFFBJ7A", "plus_code": {"compound_code": "CPGQ+Q6 Corpa, Spain", "global_code": "8CGRCPGQ+Q6"}, "rating": 4, "reference": "ChIJX8b-aP9PQg0RD7rIaFFBJ7A", "scope": "GOOGLE", "types": ["transit_station", "point_of_interest", "establishment"], "user_ratings_total": 2, "vicinity": "Calle Moncayo, 83, Torrevieja"}, {"business_status": "OPERATIONAL", "geometry": {"location": {"lat": 40.4336399, "lng": -3.2747543}, "viewport": {"northeast": {"lat": 40.43500813029149, "lng": -3.273423069708498}, "southwest": {"lat": 40.4323101697085, "lng": -3.276121030291502}}}, "icon": "https://maps.gstatic.com/mapfiles/place_api/icons/v1/png_71/generic_business-71.png", "icon_background_color": "#7B9EB0", "icon_mask_base_uri": "https://maps.gstatic.com/mapfiles/place_api/icons/v2/generic_pinlet", "name": "Av.Olimpiada-Club de Golf", "place_id": "ChIJMT5tSvJPQg0RCPVDP_HxEOc", "plus_code": {"compound_code": "CPMG+F3 Corpa, Spain", "global_code": "8CGRCPMG+F3"}, "reference": "ChIJMT5tSvJPQg0RCPVDP_HxEOc", "scope": "GOOGLE", "types": ["transit_station", "point_of_interest", "establishment"], "vicinity": "Spain"}, {"business_status": "OPERATIONAL", "geometry": {"location": {"lat": 40.4333895, "lng": -3.2760485}, "viewport": {"northeast": {"lat": 40.4346993302915, "lng": -3.274692769708499}, "southwest": {"lat": 40.4320013697085, "lng": -3.277390730291502}}}, "icon": "https://maps.gstatic.com/mapfiles/place_api/icons/v1/png_71/generic_business-71.png", "icon_background_color": "#7B9EB0", "icon_mask_base_uri": "https://maps.gstatic.com/mapfiles/place_api/icons/v2/generic_pinlet", "name": "Av.Olimpiada-Club de Golf", "photos": [{"height": 1080, "html_attributions": ["<a href=\"https://maps.google.com/maps/contrib/116374572692678822723\">Antonio López</a>"], "photo_reference": "AWn5SU4sYA83Vn_wJAKh6MTVu1X6pmFuDyxzkPklgO1HwI-IV5CxljjGp32HIaYGcOBwI1p5Z6Sd3bc07VeiH9ae4oiKJFN0aYFbCzwZB_-pgzuKvTppJdD-Umc5eJlE7LgCig8S5PRMN7qhM9WGEFpxfzfVaLbhWj-DHVd9b387Zd3pwQeoQxvzZlvf2d1ZDiUkiBTS6CIlTFtVfy8oNvAGdwC0UcoRGsl9tTcM9xpoEGw5kv0EKJiOXu8pGJfsf5YskmSYxys9rti0zxFPKuNXO7cX6AvncpsSxnLYALC7c3-DF4xQxG6Pp775w3mZ0ON-VU6eNHanYH3djXEaSjMf9KKaDh1REaK7W_kYeuMMRdgfFgYilm3GqSQetnnq09sZJTaIGlsa314fF9v0G24wyagv7MCGOHsHZFJLBevXoHn_Uq3fGQb8XRBdm01AnIy6EfbmmJ2bvNHvreaUUhN-PcKpJSJBxVjuYX_9FWtQMCiNBWv6GKvaXIk1HFAkRgRum-MW2sOCtEYUv_eyh3Ll4vcO5XkfmZNx1fbuyHloZVnV7eS0tGIbgwvjLafi1Zg19AA4HbTie4dUTaxJXqR84IW5u2LRbZEn64M7xxl26UFWmZAFdW1viS80XqJADQOJBIaYOb0J", "width": 1920}], "place_id": "ChIJoXRo7O1PQg0RI_RQsJIdLhc", "plus_code": {"compound_code": "CPMF+9H Corpa, Spain", "global_code": "8CGRCPMF+9H"}, "reference": "ChIJoXRo7O1PQg0RI_RQsJIdLhc", "scope": "GOOGLE", "types": ["transit_station", "point_of_interest", "establishment"], "vicinity": "Spain"}, {"business_status": "OPERATIONAL", "geometry": {"location": {"lat": 40.4345467, "lng": -3.2797923}, "viewport": {"northeast": {"lat": 40.43589743029149, "lng": -3.278440769708499}, "southwest": {"lat": 40.4331994697085, "lng": -3.281138730291502}}}, "icon": "https://maps.gstatic.com/mapfiles/place_api/icons/v1/png_71/generic_business-71.png", "icon_background_color": "#7B9EB0", "icon_mask_base_uri": "https://maps.gstatic.com/mapfiles/place_api/icons/v2/generic_pinlet", "name": "Av.Urba-Av.Robledal", "photos": [{"height": 1080, "html_attributions": ["<a href=\"https://maps.google.com/maps/contrib/116374572692678822723\">Antonio López</a>"], "photo_reference": "AWn5SU4vAa7Z0O0JruR1OhcJIFV1d2CgXzPAfSdRDK9LD9znd6aQdd2MY3MA31m9_qAco9gBuA9E7Lm0QlfHNVsXHdNGMI3CPKpbe82Zxs3nhftUQS3070QY27xeOkNOp5k1cv4hoW5JV6cNO971E2AIpo52ARAdb9y9x6b5bxCZAH0BLkdZUH56wAOXlk0jiM21a-zoSYQ7UItd_knyfoxljELmbQrvcdc79VAKgckSACUFLkhfID_OzhHCvXOieHwb3GbNayGPYzSC1Ek8KssGEtMBmkcOxi58wdg6hQz96BrjlHVXc-dH4uV5f1QyfTBLE-HaHJNk3f_FYD-Cw6pM-4hujdrR6jPmphbyRofmuv8YjtJ3hy-KEtoTa7I7rL_S3CLc14lMiNThbGQIen4-DRhOJxhStVihW5Hhr1EQgGFaUGO7Geb4MMzsZMK41r5xrtoii7K0tzNu-BcGB62u-VFtZD2cxjXZL_TNnD2a29DHg9mHs7QjVHutPOLbdJPzVFKTek03RYD1zVaX64hwzws5JHA4iGNOGUzf21eBlbR9uAT2JfkJjd_B4wHuTazn6RXsuhVjjieatKte-twT4E0oT3m9PCpqEWmyBLy-AdsdFxmmeUQpU4-Fs_hUKqAXwVHDTQ", "width": 1920}], "place_id": "ChIJKbDDFI1PQg0RtDb0XGzZghg", "plus_code": {"compound_code": "CPMC+R3 Villalbilla, Spain", "global_code": "8CGRCPMC+R3"}, "reference": "ChIJKbDDFI1PQg0RtDb0XGzZghg", "scope": "GOOGLE", "types": ["transit_station", "point_of_interest", "establishment"], "vicinity": "Spain"}, {"business_status": "OPERATIONAL", "geometry": {"location": {"lat": 40.434474, "lng": -3.2800632}, "viewport": {"northeast": {"lat": 40.43581053029149, "lng": -3.278700169708498}, "southwest": {"lat": 40.43311256970849, "lng": -3.281398130291501}}}, "icon": "https://maps.gstatic.com/mapfiles/place_api/icons/v1/png_71/generic_business-71.png", "icon_background_color": "#7B9EB0", "icon_mask_base_uri": "https://maps.gstatic.com/mapfiles/place_api/icons/v2/generic_pinlet", "name": "Av.Urba-Urb.El Robledal", "place_id": "ChIJZwi3BY1PQg0RpFlVlRC5fBI", "plus_code": {"compound_code": "CPM9+QX Villalbilla, Spain", "global_code": "8CGRCPM9+QX"}, "rating": 5, "reference": "ChIJZwi3BY1PQg0RpFlVlRC5fBI", "scope": "GOOGLE", "types": ["transit_station", "point_of_interest", "establishment"], "user_ratings_total": 1, "vicinity": "Spain"}, {"business_status": "OPERATIONAL", "geometry": {"location": {"lat": 40.43374, "lng": -3.28132}, "viewport": {"northeast": {"lat": 40.4350767302915, "lng": -3.279950769708498}, "southwest": {"lat": 40.4323787697085, "lng": -3.282648730291502}}}, "icon": "https://maps.gstatic.com/mapfiles/place_api/icons/v1/png_71/generic_business-71.png", "icon_background_color": "#7B9EB0", "icon_mask_base_uri": "https://maps.gstatic.com/mapfiles/place_api/icons/v2/generic_pinlet", "name": "Av.Urba-Pza.Urba", "place_id": "ChIJZ3ZAr41PQg0R2XrXKzVoB-o", "plus_code": {"compound_code": "CPM9+FF Villalbilla, Spain", "global_code": "8CGRCPM9+FF"}, "reference": "ChIJZ3ZAr41PQg0R2XrXKzVoB-o", "scope": "GOOGLE", "types": ["transit_station", "point_of_interest", "establishment"], "vicinity": "Spain"}, {"business_status": "OPERATIONAL", "geometry": {"location": {"lat": 40.4326638, "lng": -3.283498299999999}, "viewport": {"northeast": {"lat": 40.43398413029151, "lng": -3.282130569708498}, "southwest": {"lat": 40.43128616970851, "lng": -3.284828530291502}}}, "icon": "https://maps.gstatic.com/mapfiles/place_api/icons/v1/png_71/generic_business-71.png", "icon_background_color": "#7B9EB0", "icon_mask_base_uri": "https://maps.gstatic.com/mapfiles/place_api/icons/v2/generic_pinlet", "name": "Hayedo de Montejo-Peña de Francia", "photos": [{"height": 483, "html_attributions": ["<a href=\"https://maps.google.com/maps/contrib/117982906086550341027\">Pili Garcia</a>"], "photo_reference": "AWn5SU6pjG0o6cfMYCrSsxksNZOVnhN82Su-yZbD2bN6MlMtMocgrmLtKTP4m3vFiTuNnHg3_caP8FeZSFR2PFLWpBjQGnLVy4Q8P8ewaWVmjAbcgm0F-l-EP9Y0ztSU45DU7GKA0rqIkMRgDavW4uQORfNhAsbMphCSdNN0HqmiK1qrAbZptN41R7pb_k-fgTwaXxlsYq8XxFYomMffOOGIjRdIfAz-UGml_VQAIfpS_GlHvgWs29CYkAybs2InLQWGLJFgdpAGx-7br6afNp9txUbi_zmzIGQaJMTAiFS6uxYuM-Uyl5QUSJ8UHPhF5ZVEHq8pzZuQSEVwfq7Ym80g2fZGINDJtIXGfFljbpbyJ4IejnCriohX2Xmf-z6lemOshYlz4acjSibVY6j2Oip5XGEbpK3TfWvNKT_8Omxad8YWo1DozyoF4F_8duJXAwfjF6JuR066cMJQc0LTgGMHeUvJ1os5W_LBC-6RABnunZPS-EC_6qXnoCaoGfaL7WcBefaiSKcuROvVn-8WY2XtGlfkQTHzLTrUXzwXwJPoOb8drF5wo2NY41m01Gi34jGi9SXL2kkzPkXlud_m6kDprNXAluyhhR1q4Y6-u3z-DCOhMHtca01okJmKLL5GSFPKV1JNEw", "width": 600}], "place_id": "ChIJz-EtKIxPQg0Rj7CiLCDJoGo", "plus_code": {"compound_code": "CPM8+3J Villalbilla, Spain", "global_code": "8CGRCPM8+3J"}, "rating": 5, "reference": "ChIJz-EtKIxPQg0Rj7CiLCDJoGo", "scope": "GOOGLE", "types": ["transit_station", "point_of_interest", "establishment"], "user_ratings_total": 2, "vicinity": "Spain"}, {"business_status": "OPERATIONAL", "geometry": {"location": {"lat": 40.43066049999999, "lng": -3.2884532}, "viewport": {"northeast": {"lat": 40.4320300802915, "lng": -3.287095519708498}, "southwest": {"lat": 40.4293321197085, "lng": -3.289793480291502}}}, "icon": "https://maps.gstatic.com/mapfiles/place_api/icons/v1/png_71/generic_business-71.png", "icon_background_color": "#7B9EB0", "icon_mask_base_uri": "https://maps.gstatic.com/mapfiles/place_api/icons/v2/generic_pinlet", "name": "CºCorpa-Sierra La Demanda", "photos": [{"height": 1080, "html_attributions": ["<a href=\"https://maps.google.com/maps/contrib/116374572692678822723\">Antonio López</a>"], "photo_reference": "AWn5SU7MbRAl7TkXKqkKkQDYcyrPZkwuv9Ieyr-Yq1BTLC0lnq89GoTIDtiUHJflNhtWAVX8mfSpDp4wg-KTLdZ0LPqR_zFW-m5XftK7i4T4_vCyaJkTm25MVkDv-3BjC7g_wBzoZ3ylt1mpaCZbsV-gNKJLw46AxSNrrQWYVJMhM2t3PcqtnBL13lu9IrzSeLSRS5jeHn85BSRhWKpOEoolo4hlz6UtfUDCjzM1znf-3EeTjPUtv78s-H5p-rM_I78L2VBwtj19ai_WI7YHCoMK6e-fpgRX4TAK7jTa0jjLoJHpa7_SsVclDBq-hlj53VXf_XykBnBtPjipaglPSpyXHYRgY7l-szsKEOJ3aCGpPpt7k_1NQsD2ze5ZZCgwgU7SULrEn5Wi6mLTnFmt_b49GsRW9GRlA-kjj749puEVjkkr3GSWlEx8tygNA7ykuWJ76OJRm-CPN8STi_QgqIotClrT3Im41_ryrdLySG-qGtcLVikt1zJkugykIGjJ2y9HvLi5V1DhHEhRFtul9vkHYOSEmMmFNHj2hr3HXVIpMGOJK6Ny7hzyN0FnWeUH8c_ayRmc2tb4jGeEPrhte54CLrL-iUFI1tQx9Enj-_dbkt85gUbfEi0ddopeZvy4GS-jY61_JQ", "width": 1920}], "place_id": "ChIJrb6lVY9PQg0RTK9-HFDIDZ0", "plus_code": {"compound_code": "CPJ6+7J Villalbilla, Spain", "global_code": "8CGRCPJ6+7J"}, "reference": "ChIJrb6lVY9PQg0RTK9-HFDIDZ0", "scope": "GOOGLE", "types": ["transit_station", "point_of_interest", "establishment"], "vicinity": "Spain"}, {"business_status": "OPERATIONAL", "geometry": {"location": {"lat": 40.43342800000001, "lng": -3.2877576}, "viewport": {"northeast": {"lat": 40.4347759802915, "lng": -3.286407619708498}, "southwest": {"lat": 40.4320780197085, "lng": -3.289105580291502}}}, "icon": "https://maps.gstatic.com/mapfiles/place_api/icons/v1/png_71/generic_business-71.png", "icon_background_color": "#7B9EB0", "icon_mask_base_uri": "https://maps.gstatic.com/mapfiles/place_api/icons/v2/generic_pinlet", "name": "Av.Parques Naturales-Arribes del Duero", "photos": [{"height": 1920, "html_attributions": ["<a href=\"https://maps.google.com/maps/contrib/116374572692678822723\">Antonio López</a>"], "photo_reference": "AWn5SU6alxVBPIA9RJ-lY1rldUy2iF5WU17Cb6FyGpQmjMWBQtRCQmhqLMfb3m-2krcYERyIYoj-ovTgwcks_LWFUhYdYZyeQEmLUU5KYwAD3O392E0W6UzQhV6C28y8WBJPromrvPgwXsibQ6JSdfiuwCZJ_Gwv9fLD16kANxDBPdH3CZDC_4vAgtnIQOtyaShlUGbvi-U283lA7xFmZxkpPkoBZRfcXD0mK0KPKUCb_xlJfwyEJY_OwPSvNJg64xmNIVV9Nsxc-FWs-Ct8HBW9AS4kIJi40XPexsNQaKaluKHGxc1YShHcZ09QRFkDZ7kyFF602eGcDBfMIfDc_g5AacCOPNpor24rQBxF_yaHPK5bz9tmtv0ztWEAR_ME_Q2Z_duTTEDUhXJmz5hlppP5JtQGsRrf9NeebmJNOfwNGQjBrwM8DCmx6Ft_P1xztQK3Fd24RQ1Fs0_Z9UxN4OCyz2ljVpTKXJI6TpeRMD4ZLAhT7lIvoW5DU8zM7KdN7qmHKn8YXz4EJm7k1YaLGHJKFna-4DnJUowFE8TNUXDOqjPjozKA2peA6wi75M4Val-FtmNn4V3VVk9PgtApCKmCBKqIZQRCBPfjGCpgb418wHCidXQsb1xxG1BknuMMHHV44VJACw", "width": 1080}], "place_id": "ChIJ9daYm49PQg0RpMgepSWGmXA", "plus_code": {"compound_code": "CPM6+9V Villalbilla, Spain", "global_code": "8CGRCPM6+9V"}, "rating": 5, "reference": "ChIJ9daYm49PQg0RpMgepSWGmXA", "scope": "GOOGLE", "types": ["transit_station", "point_of_interest", "establishment"], "user_ratings_total": 1, "vicinity": "Spain"}, {"business_status": "OPERATIONAL", "geometry": {"location": {"lat": 40.43362, "lng": -3.287799999999999}, "viewport": {"northeast": {"lat": 40.43497928029151, "lng": -3.286461319708498}, "southwest": {"lat": 40.43228131970851, "lng": -3.289159280291502}}}, "icon": "https://maps.gstatic.com/mapfiles/place_api/icons/v1/png_71/generic_business-71.png", "icon_background_color": "#7B9EB0", "icon_mask_base_uri": "https://maps.gstatic.com/mapfiles/place_api/icons/v2/generic_pinlet", "name": "Av.Parques Naturales-Monfragüe", "photos": [{"height": 1080, "html_attributions": ["<a href=\"https://maps.google.com/maps/contrib/116374572692678822723\">Antonio López</a>"], "photo_reference": "AWn5SU7AgVutZKsgvQ1DtGzBhd4hQ8rPEVLmjxybCm_gVIt8_6WhfAfWLK-4wZVTjZDeNwS-v23lKmuoqBS3mSDTU9_dEIC05ps6TTnNrYah3bDc0eLE5TjxpACjDCTn_auBH3ncIq0NTyrsw_uZAUazq4zdNdxwjVbMv7UO8-ne6eMXxCacWcSQpZLQmkq52xL6deimbYRTlfLgA0txuVPQwoUt6OlHkUhEONmkH_stsba9KEZ5qK3v8hQzuHOBS0Pja0X4aRTvlM0Ty5fEalEfZ8NfyZ49i5yRzFFCyKJ3H85pG9z7NBH5Tk_xO_SFN7oA4u92hBeKeq3XEEvdEVxy8tYmInzxgG5UqHdiH-fJGgCSu278eeiXs-mHEk4MI5-JI8xegtUjAhFmYYm3y-BmTkGI9SUQWkZej2y1qG9m9Ufz0-1SKtPRD6kEs1FgYukZAiEk4XL2NWTVVAxSN8lF0-qvliVfb3X8qJ8Wu4qWgI65eZJ_Lq4Bi08jvRgE6HdpQc0K7GYwsXvBxrNs1QSA3axRDxTzkqpXn7f66GJbYKNAC7W4Ru6AkniPi5gMs0CSKpWYab-15d9M5rgbyuWywBySdvhsaj8O9ie0qTGXKxXPuyov7AfTuAhiPl_Jx0IG_zpKYTnz", "width": 1920}], "place_id": "ChIJnRCfkI9PQg0RDjQY9101gGQ", "plus_code": {"compound_code": "CPM6+CV Villalbilla, Spain", "global_code": "8CGRCPM6+CV"}, "reference": "ChIJnRCfkI9PQg0RDjQY9101gGQ", "scope": "GOOGLE", "types": ["transit_station", "point_of_interest", "establishment"], "vicinity": "Spain"}, {"business_status": "OPERATIONAL", "geometry": {"location": {"lat": 40.4433374, "lng": -3.2769281}, "viewport": {"northeast": {"lat": 40.4447039802915, "lng": -3.275584369708498}, "southwest": {"lat": 40.4420060197085, "lng": -3.278282330291502}}}, "icon": "https://maps.gstatic.com/mapfiles/place_api/icons/v1/png_71/generic_business-71.png", "icon_background_color": "#7B9EB0", "icon_mask_base_uri": "https://maps.gstatic.com/mapfiles/place_api/icons/v2/generic_pinlet", "name": "Av.Romero-Mirto", "place_id": "ChIJAY2DHutPQg0RLBSpuBrOSro", "plus_code": {"compound_code": "CPVF+86 Villalbilla, Spain", "global_code": "8CGRCPVF+86"}, "reference": "ChIJAY2DHutPQg0RLBSpuBrOSro", "scope": "GOOGLE", "types": ["transit_station", "point_of_interest", "establishment"], "vicinity": "Spain"}, {"business_status": "OPERATIONAL", "geometry": {"location": {"lat": 40.44329969999999, "lng": -3.277611799999999}, "viewport": {"northeast": {"lat": 40.4446400302915, "lng": -3.276259919708498}, "southwest": {"lat": 40.44194206970851, "lng": -3.278957880291502}}}, "icon": "https://maps.gstatic.com/mapfiles/place_api/icons/v1/png_71/generic_business-71.png", "icon_background_color": "#7B9EB0", "icon_mask_base_uri": "https://maps.gstatic.com/mapfiles/place_api/icons/v2/generic_pinlet", "name": "Av.Romero-Mirto", "place_id": "ChIJacHCJutPQg0RIQGLcFe_og0", "plus_code": {"compound_code": "CPVC+8X Villalbilla, Spain", "global_code": "8CGRCPVC+8X"}, "reference": "ChIJacHCJutPQg0RIQGLcFe_og0", "scope": "GOOGLE", "types": ["transit_station", "point_of_interest", "establishment"], "vicinity": "Spain"}, {"business_status": "OPERATIONAL", "geometry": {"location": {"lat": 40.442708, "lng": -3.2801446}, "viewport": {"northeast": {"lat": 40.4440773802915, "lng": -3.278802519708498}, "southwest": {"lat": 40.4413794197085, "lng": -3.281500480291502}}}, "icon": "https://maps.gstatic.com/mapfiles/place_api/icons/v1/png_71/generic_business-71.png", "icon_background_color": "#7B9EB0", "icon_mask_base_uri": "https://maps.gstatic.com/mapfiles/place_api/icons/v2/generic_pinlet", "name": "Av.Romero-Espliego", "place_id": "ChIJi6s_75RPQg0Rcpx5FwDMiOk", "plus_code": {"compound_code": "CPV9+3W Villalbilla, Spain", "global_code": "8CGRCPV9+3W"}, "reference": "ChIJi6s_75RPQg0Rcpx5FwDMiOk", "scope": "GOOGLE", "types": ["transit_station", "point_of_interest", "establishment"], "vicinity": "Spain"}, {"business_status": "OPERATIONAL", "geometry": {"location": {"lat": 40.4428798, "lng": -3.2798976}, "viewport": {"northeast": {"lat": 40.4441960802915, "lng": -3.278537669708498}, "southwest": {"lat": 40.4414981197085, "lng": -3.281235630291502}}}, "icon": "https://maps.gstatic.com/mapfiles/place_api/icons/v1/png_71/generic_business-71.png", "icon_background_color": "#7B9EB0", "icon_mask_base_uri": "https://maps.gstatic.com/mapfiles/place_api/icons/v2/generic_pinlet", "name": "Av.Romero-Espliego", "place_id": "ChIJtyaL5ZRPQg0Ruk1G-nJJM2s", "plus_code": {"compound_code": "CPVC+52 Villalbilla, Spain", "global_code": "8CGRCPVC+52"}, "reference": "ChIJtyaL5ZRPQg0Ruk1G-nJJM2s", "scope": "GOOGLE", "types": ["transit_station", "point_of_interest", "establishment"], "vicinity": "Spain"}, {"business_status": "OPERATIONAL", "geometry": {"location": {"lat": 40.43186269999999, "lng": -3.290462599999999}, "viewport": {"northeast": {"lat": 40.43321358029149, "lng": -3.289115769708499}, "southwest": {"lat": 40.43051561970849, "lng": -3.291813730291502}}}, "icon": "https://maps.gstatic.com/mapfiles/place_api/icons/v1/png_71/generic_business-71.png", "icon_background_color": "#7B9EB0", "icon_mask_base_uri": "https://maps.gstatic.com/mapfiles/place_api/icons/v2/generic_pinlet", "name": "Av.Parques Naturales-Lago Sanabria", "place_id": "ChIJ-402vIVPQg0Rkl0ZPCSaJAQ", "plus_code": {"compound_code": "CPJ5+PR Villalbilla, Spain", "global_code": "8CGRCPJ5+PR"}, "reference": "ChIJ-402vIVPQg0Rkl0ZPCSaJAQ", "scope": "GOOGLE", "types": ["transit_station", "point_of_interest", "establishment"], "vicinity": "Spain"}, {"business_status": "OPERATIONAL", "geometry": {"location": {"lat": 40.43214999999999, "lng": -3.29037}, "viewport": {"northeast": {"lat": 40.4334914802915, "lng": -3.289013619708498}, "southwest": {"lat": 40.4307935197085, "lng": -3.291711580291502}}}, "icon": "https://maps.gstatic.com/mapfiles/place_api/icons/v1/png_71/generic_business-71.png", "icon_background_color": "#7B9EB0", "icon_mask_base_uri": "https://maps.gstatic.com/mapfiles/place_api/icons/v2/generic_pinlet", "name": "Av.Parques Naturales-Colegio", "place_id": "ChIJsef8uoVPQg0RD75tHz5iOb0", "plus_code": {"compound_code": "CPJ5+VV Villalbilla, Spain", "global_code": "8CGRCPJ5+VV"}, "reference": "ChIJsef8uoVPQg0RD75tHz5iOb0", "scope": "GOOGLE", "types": ["transit_station", "point_of_interest", "establishment"], "vicinity": "Spain"}, {"business_status": "OPERATIONAL", "geometry": {"location": {"lat": 40.44204, "lng": -3.28447}, "viewport": {"northeast": {"lat": 40.4433847302915, "lng": -3.283120269708498}, "southwest": {"lat": 40.4406867697085, "lng": -3.285818230291502}}}, "icon": "https://maps.gstatic.com/mapfiles/place_api/icons/v1/png_71/generic_business-71.png", "icon_background_color": "#7B9EB0", "icon_mask_base_uri": "https://maps.gstatic.com/mapfiles/place_api/icons/v2/generic_pinlet", "name": "Av.Romero-Tomillo", "place_id": "ChIJQRiiwZZPQg0RKeTyWm6ImrI", "plus_code": {"compound_code": "CPR8+R6 Villalbilla, Spain", "global_code": "8CGRCPR8+R6"}, "reference": "ChIJQRiiwZZPQg0RKeTyWm6ImrI", "scope": "GOOGLE", "types": ["transit_station", "point_of_interest", "establishment"], "vicinity": "Spain"}, {"business_status": "OPERATIONAL", "geometry": {"location": {"lat": 40.44180439999999, "lng": -3.284916299999999}, "viewport": {"northeast": {"lat": 40.4431775802915, "lng": -3.283592469708498}, "southwest": {"lat": 40.4404796197085, "lng": -3.286290430291502}}}, "icon": "https://maps.gstatic.com/mapfiles/place_api/icons/v1/png_71/generic_business-71.png", "icon_background_color": "#7B9EB0", "icon_mask_base_uri": "https://maps.gstatic.com/mapfiles/place_api/icons/v2/generic_pinlet", "name": "Av.Romero-Tomillo", "photos": [{"height": 5712, "html_attributions": ["<a href=\"https://maps.google.com/maps/contrib/108185132017153095043\">Antonio Nieto</a>"], "photo_reference": "AWn5SU6SCBJE-6Ay93X4C-mk6Svds8hIKBRy3ij5llIrmo-RCsfkKrJDKWG6uSXBL3LoyhWAmSgXZBc1nx7Q1pmxe0pE90XdOaTSLQFnPs-44f28zZHNnlRqCxvqhaQ7MIQoPlndyuZJRs64xhm4oEFwpOd_qtck0_IsO5AzcrvEpbK0FboHBK-dI4rs8v5wclM7ArajZRgAible1Q4t2he66OYlmWGJbbuFio3F3D9xj_UvJTI2jmNRf5cQeT62DGxejaeVzwwwQZbWZU9S5OCmcs1Nh8wDE_6HTj6qDV_mXeGOvSvk4E4ovta-lrH6KvgVHeAOqttHSi2UIyD0yR8Umaffm7EpPrzVqGb42ZyOtfEx_RKCiOG8y9hko85J7EzGRCeSD597YZwwXouqZt6hPfTnb-jHEIxQoecMPJx7khl-0Q4NPcr3ufCiAii11va2rY9SFBgregYioj_KarLFxSpw9f8C4o8M_ErFMMNxYbKVqOU218oi8goMx4k5F03bT7AlAphfCDqkDeNme7fEGDt7Res7C14StDVet9iMEdQw0xPLLl6b4exLlTxysiIT9JkDMv_8KcDkO5u0NpjUd7Ao4LZGKfnYwYlWuGFXgOfnqR5rDYI", "width": 4284}], "place_id": "ChIJOXDmwJZPQg0RW-rBTFS62iU", "plus_code": {"compound_code": "CPR8+P2 Villalbilla, Spain", "global_code": "8CGRCPR8+P2"}, "reference": "ChIJOXDmwJZPQg0RW-rBTFS62iU", "scope": "GOOGLE", "types": ["transit_station", "point_of_interest", "establishment"], "vicinity": "Spain"}, {"business_status": "OPERATIONAL", "geometry": {"location": {"lat": 40.44414999999999, "lng": -3.28502}, "viewport": {"northeast": {"lat": 40.44550238029149, "lng": -3.283639969708498}, "southwest": {"lat": 40.4428044197085, "lng": -3.286337930291502}}}, "icon": "https://maps.gstatic.com/mapfiles/place_api/icons/v1/png_71/generic_business-71.png", "icon_background_color": "#7B9EB0", "icon_mask_base_uri": "https://maps.gstatic.com/mapfiles/place_api/icons/v2/generic_pinlet", "name": "Espliego-Tomillo", "photos": [{"height": 2250, "html_attributions": ["<a href=\"https://maps.google.com/maps/contrib/102345373619209857369\">Inversiones Mafers</a>"], "photo_reference": "AWn5SU6Scgb0BNTM-eajkkq4nM5cupn0VEgzBzWL7nTw2lyDcjMi5hcAg_qxUqtJTx6DaTRpevwnJVPGmq1-g3tYQpN_TeemnqnoDoEZyDgOniSzRAN0RhC4fb5n_WvBVydvefZE9ukZeaZiOxLWc4zqb3GQozniBE7gTRJdzN4X29EaBq77JOOhc4zkES0Kj083Hp3lKYG6qlnBCjbY8tgUQkcOjFed8WIhvgHedzUKTAVwmjM3yMvIEIsYstU8VDsMYs8_-zXR27i73LpDWp3ETEqOJ3jypzQWUQsSLZ90QqRcfulavZbT8wvft71mp_WvhiktYUS9iN9YPlUsBMm1zoioHJmoxlV8dImAKeDpzwwJcbo9gKy_x5rX--l1BYzWd0aJlv_h8bqn_hQ4er1YkqpZZBwGEE8mFcIy4B3mc-8wRaisxTQ_OL7FTuuFIIJfeX7u8Ti4ZXa-TioLnCEGikb0eCK-WQZcGTASLKgO2pFMkDFeDrEPQW4y-IdgAF7W0P_2vM7f0R50FIyW5VqS4U2W6CYVrxjqT1IulHC5FMipKnbFVcaJpS5Is_61a9u9DoKcMWce5zxmKr55NDfhxlDa8wH3jdeQ5iYqXY7b6DtqzjzZOdsUTDxufuP3yRMFb6pb1w", "width": 4000}], "place_id": "ChIJz_rHbZZPQg0REIYpuzGr2Pg", "plus_code": {"compound_code": "CPV7+MX Villalbilla, Spain", "global_code": "8CGRCPV7+MX"}, "rating": 5, "reference": "ChIJz_rHbZZPQg0REIYpuzGr2Pg", "scope": "GOOGLE", "types": ["transit_station", "point_of_interest", "establishment"], "user_ratings_total": 2, "vicinity": "Spain"}, {"business_status": "OPERATIONAL", "geometry": {"location": {"lat": 40.44427, "lng": -3.28491}, "viewport": {"northeast": {"lat": 40.4456080302915, "lng": -3.283593569708498}, "southwest": {"lat": 40.4429100697085, "lng": -3.286291530291502}}}, "icon": "https://maps.gstatic.com/mapfiles/place_api/icons/v1/png_71/generic_business-71.png", "icon_background_color": "#7B9EB0", "icon_mask_base_uri": "https://maps.gstatic.com/mapfiles/place_api/icons/v2/generic_pinlet", "name": "Espliego-Tomillo", "place_id": "ChIJQSmbbpZPQg0RuSIYMo2W4uA", "plus_code": {"compound_code": "CPV8+P2 Villalbilla, Spain", "global_code": "8CGRCPV8+P2"}, "reference": "ChIJQSmbbpZPQg0RuSIYMo2W4uA", "scope": "GOOGLE", "types": ["transit_station", "point_of_interest", "establishment"], "vicinity": "Spain"}]