[{"business_status": "OPERATIONAL", "geometry": {"location": {"lat": 40.73494579999999, "lng": -3.582970199999999}, "viewport": {"northeast": {"lat": 40.73629203029149, "lng": -3.581607519708498}, "southwest": {"lat": 40.7335940697085, "lng": -3.584305480291502}}}, "icon": "https://maps.gstatic.com/mapfiles/place_api/icons/v1/png_71/pharmacy-71.png", "icon_background_color": "#F88181", "icon_mask_base_uri": "https://maps.gstatic.com/mapfiles/place_api/icons/v2/pharmacy_pinlet", "international_phone_number": "+34 918 41 03 22", "name": "Farmacia El Molar", "opening_hours": {"open_now": false}, "photos": [{"height": 540, "html_attributions": ["<a href=\"https://maps.google.com/maps/contrib/112452564829470932981\">Farmacia El Molar</a>"], "photo_reference": "AWn5SU4Nf05yfSN4SclF-KKfdDYD_M3crQc7Kiw8kj0S-KhmDI_LIBOBxTuNJWXo1-j8kjstHKlkTdUATDYJvVLgIBxE1TSVCZL9RKWRVlP-76Irro7IG3bbCWWs_xnSStu2Kverc3vydq9ZFavnzpg17L6yKa7eyN8ydzFO1TyCagkCToOyir3pvUKbEdjZ6wQ9DT6Ae6TA4ZV4UYZsazR1BGgDrOzE6EClVgFVgs9FxTF2zMdy1r2YmfpDu0wrZ3yhioQM6_9xZU19yy0RHRoSEujVnP3kKbzplImYHe2Mfci9XSahRq0xtcnjWROFhSi7lQO18rszlSU", "width": 960}], "place_id": "ChIJ6y4xKAfQQw0Rzq01FiHBjH0", "plus_code": {"compound_code": "PCM8+XR El Molar, Spain", "global_code": "8CGRPCM8+XR"}, "rating": 4.4, "reference": "ChIJ6y4xKAfQQw0Rzq01FiHBjH0", "scope": "GOOGLE", "types": ["pharmacy", "health", "point_of_interest", "store", "establishment"], "user_ratings_total": 87, "vicinity": "Avenida de España, 54, El Molar"}, {"business_status": "OPERATIONAL", "geometry": {"location": {"lat": 40.7683717, "lng": -3.5827599}, "viewport": {"northeast": {"lat": 40.76958763029149, "lng": -3.581339119708498}, "southwest": {"lat": 40.76688966970849, "lng": -3.584037080291503}}}, "icon": "https://maps.gstatic.com/mapfiles/place_api/icons/v1/png_71/pharmacy-71.png", "icon_background_color": "#F88181", "icon_mask_base_uri": "https://maps.gstatic.com/mapfiles/place_api/icons/v2/pharmacy_pinlet", "international_phone_number": "+34 918 41 31 23", "name": "Farmacia El Vellón", "opening_hours": {"open_now": false}, "photos": [{"height": 1836, "html_attributions": ["<a href=\"https://maps.google.com/maps/contrib/116378914768779619638\">Juan Manuel González Rodríguez</a>"], "photo_reference": "AWn5SU65IUJe0L-QFSij6ctlKCInML5x7d-ORIYU0cNmdDG5FPFmC62CtCsx3JOHkP0jP6Ibmp7gyH2BTmQosHjwOef7DV55adP49fMEN_ldx35RhmNMTpJZ9bIwFbCRkYX5JOoIWO7FK94IeGEbohgf79014Vo3bQeC-yXEmI9R8wF70cl_6_ZHr7Q8sLyuCZC8jcFf0md_CY5E2PIVcqHqka9-Np-vyFwW3AobqFtlWW-pCVrRo0B4MLIokvSgedwhKx6v1iGIGwIoB_y8-rJwuJVvEGGorZ2OCSaniGKlOTJnk3vmwgyBDgdiNZQMP82c6Mkay5X_80bObxw_fja1unf5net8-XYg0Ibv2IKT3svqf_Hd0RaQnqp1dU5sDWvp9Sb7atz41gdcPuqSm3STWYXlQDuD-HZq-duh0PLpamikTO2K4hl9vPBdyGcg-SrFPiX92DI3TF6DXHKf1kWr56gWyLuY8h9Hco5i9JbZnye32nS0VPsC6g7Wv1pOdtBytfNPIczegvLw89gOvQzOmqH0RgaWxBoVTOVx4q_jiqWmNQj4Ykg52KW8Lucr6pJ-_TmG0DFTMEKCkXNuNOX4oZV7CnUvHrtyRGumL_1bLuEv_1hfze0X0uOJP-wGLp0HBJNdtRzg", "width": 3264}], "place_id": "ChIJtRLH68zaQw0Rtv1yco4Nxkw", "plus_code": {"compound_code": "QC98+8V El Vellón, Spain", "global_code": "8CGRQC98+8V"}, "rating": 4.4, "reference": "ChIJtRLH68zaQw0Rtv1yco4Nxkw", "scope": "GOOGLE", "types": ["pharmacy", "health", "point_of_interest", "store", "establishment"], "user_ratings_total": 18, "vicinity": "Calle la Picota, 54, El Vellón"}, {"business_status": "OPERATIONAL", "geometry": {"location": {"lat": 40.7437506, "lng": -3.6042231}, "viewport": {"northeast": {"lat": 40.7450466802915, "lng": -3.602869569708498}, "southwest": {"lat": 40.7423487197085, "lng": -3.605567530291502}}}, "icon": "https://maps.gstatic.com/mapfiles/place_api/icons/v1/png_71/pharmacy-71.png", "icon_background_color": "#F88181", "icon_mask_base_uri": "https://maps.gstatic.com/mapfiles/place_api/icons/v2/pharmacy_pinlet", "international_phone_number": "+34 918 43 34 37", "name": "Farmacia Pedrezuela. Sara Ongay Camacho", "opening_hours": {"open_now": false}, "photos": [{"height": 3472, "html_attributions": ["<a href=\"https://maps.google.com/maps/contrib/108450872156171893008\">Farmacia Pedrezuela. Sara Ongay Camacho</a>"], "photo_reference": "AWn5SU6Ta6ulmGz9w-OLjmvKHps8mmggKsNPZ0mrLIKhLr3R31KqNODK92LYH33Rui1sp5n-PxLHeq24ALc12mfl0XGF22UAvKymBId6ugEibUNO8eFhXJLA2rD2NqmJY_SbOpoMluuRwrdRw_q9kf66MF1y8oMpjGFtMvHidN0ZivjIXPwAHngiMBUmKayWYh0wc0ZSchQbSDObyjRpk98sXY-ZnKfYNXb6ajgecwdKY2BYP5V-h33UgDebifmvo5x8PqFf-1e94Rl3BRg-SaU_X1obm5yX7Jot-lNFpAANWGRUhp7cwgQEq5jPBU3vhO-qVbaGc-V7WV8", "width": 4624}], "place_id": "ChIJ4Vc9_J7aQw0RS1xPmZp9yvk", "plus_code": {"compound_code": "P9VW+G8 Pedrezuela, Spain", "global_code": "8CGRP9VW+G8"}, "rating": 4.1, "reference": "ChIJ4Vc9_J7aQw0RS1xPmZp9yvk", "scope": "GOOGLE", "types": ["pharmacy", "health", "point_of_interest", "store", "establishment"], "user_ratings_total": 38, "vicinity": "Calle de las Eras, 64, Pedrezuela"}, {"business_status": "OPERATIONAL", "geometry": {"location": {"lat": 40.7932417, "lng": -3.599812099999999}, "viewport": {"northeast": {"lat": 40.7944945302915, "lng": -3.598563819708498}, "southwest": {"lat": 40.7917965697085, "lng": -3.601261780291503}}}, "icon": "https://maps.gstatic.com/mapfiles/place_api/icons/v1/png_71/pharmacy-71.png", "icon_background_color": "#F88181", "icon_mask_base_uri": "https://maps.gstatic.com/mapfiles/place_api/icons/v2/pharmacy_pinlet", "international_phone_number": "+34 918 43 81 29", "name": "Farmacia Gloria María Iglesias Serrano", "opening_hours": {"open_now": false}, "place_id": "ChIJT3rwEz7bQw0RDsbxR2JQMq4", "plus_code": {"compound_code": "QCV2+73 Cotos de Monterrey, Spain", "global_code": "8CGRQCV2+73"}, "rating": 3.6, "reference": "ChIJT3rwEz7bQw0RDsbxR2JQMq4", "scope": "GOOGLE", "types": ["pharmacy", "health", "point_of_interest", "store", "establishment"], "user_ratings_total": 21, "vicinity": "Calle 0, Centro Comercial, Cotos de Monterrey"}, {"business_status": "OPERATIONAL", "geometry": {"location": {"lat": 40.7317207, "lng": -3.5828594}, "viewport": {"northeast": {"lat": 40.73303413029149, "lng": -3.581498319708498}, "southwest": {"lat": 40.7303361697085, "lng": -3.584196280291502}}}, "icon": "https://maps.gstatic.com/mapfiles/place_api/icons/v1/png_71/pharmacy-71.png", "icon_background_color": "#F88181", "icon_mask_base_uri": "https://maps.gstatic.com/mapfiles/place_api/icons/v2/pharmacy_pinlet", "international_phone_number": "+34 918 41 22 26", "name": "Farmacia Real", "opening_hours": {"open_now": false}, "photos": [{"height": 2016, "html_attributions": ["<a href=\"https://maps.google.com/maps/contrib/111545432011077289270\">Farmacia Real</a>"], "photo_reference": "AWn5SU7yO5oAaDOrCClH3EsiUigsC3G2lRib_fDKXyXTczBqc3bYhRXTb8ZUYBtc5cLN2OwbCRg_Iwxc0JKoTaSbfVSpnvSjfP4i3xG9KwQZ0uZHUs_ziDDNR5AdQpr6oMUSAsM9oMIarzZiQNO3xZebyzaaJ-qe29rFMXUzbR5B1Q-KHXctDrdvVZKlosw3EF5-hyt4lH5gN1jfajVClzscJyeabMgcHTCHRGVdrfFCUG1YP9hshrIsCqkqUnTUciTuXkh30rnqGQxlFpe3dlT_CQ8LGUpRlSOZoBtncYNVasZs7SHnIMAhTvi0VATEgLD4DA1aeKmeUWQ", "width": 1512}], "place_id": "ChIJlQOzzgLQQw0RbIq-jXdyTsc", "plus_code": {"compound_code": "PCJ8+MV El Molar, Spain", "global_code": "8CGRPCJ8+MV"}, "rating": 4.2, "reference": "ChIJlQOzzgLQQw0RbIq-jXdyTsc", "scope": "GOOGLE", "types": ["pharmacy", "health", "point_of_interest", "store", "establishment"], "user_ratings_total": 33, "vicinity": "Calle Real, 20, El Molar"}, {"business_status": "OPERATIONAL", "geometry": {"location": {"lat": 40.8161548, "lng": -3.6034443}, "viewport": {"northeast": {"lat": 40.8175426802915, "lng": -3.602088569708497}, "southwest": {"lat": 40.8148447197085, "lng": -3.604786530291502}}}, "icon": "https://maps.gstatic.com/mapfiles/place_api/icons/v1/png_71/pharmacy-71.png", "icon_background_color": "#F88181", "icon_mask_base_uri": "https://maps.gstatic.com/mapfiles/place_api/icons/v2/pharmacy_pinlet", "international_phone_number": "+34 918 43 88 31", "name": "Reche Sáinz Alvaro Patricio", "place_id": "ChIJrezdL2fbQw0RGhk-rpM8Y2g", "plus_code": {"compound_code": "R98W+FJ Redueña, Spain", "global_code": "8CGRR98W+FJ"}, "reference": "ChIJrezdL2fbQw0RGhk-rpM8Y2g", "scope": "GOOGLE", "types": ["pharmacy", "health", "point_of_interest", "store", "establishment"], "vicinity": "Plaza de la Villa, 3, Redueña"}, {"business_status": "OPERATIONAL", "geometry": {"location": {"lat": 40.7448538, "lng": -3.5131181}, "viewport": {"northeast": {"lat": 40.7462233802915, "lng": -3.511773869708498}, "southwest": {"lat": 40.7435254197085, "lng": -3.514471830291502}}}, "icon": "https://maps.gstatic.com/mapfiles/place_api/icons/v1/png_71/pharmacy-71.png", "icon_background_color": "#F88181", "icon_mask_base_uri": "https://maps.gstatic.com/mapfiles/place_api/icons/v2/pharmacy_pinlet", "international_phone_number": "+34 918 41 71 06", "name": "Farmacia Manjón Pulido", "opening_hours": {"open_now": false}, "photos": [{"height": 2250, "html_attributions": ["<a href=\"https://maps.google.com/maps/contrib/116962280958346227452\">Fran Ramos Martos</a>"], "photo_reference": "AWn5SU6doAay4_zxm3fQ1G4ixwPwow2X8jKrJebVlMBl8g5arA_F759sK5gLYOnw6aXn33ChnDJxizKNxmBh3q6tckYyZXtdVhibCuKpkZ3P8B6ujElVJxqzEwvwZFi_e5iiQGhypF_Reilu8GnQgqFW5X1bkDDcr6saswCsLWN_VTrznEJmXtaFcQX6SJeuMFQ-7chzuMgxQpExTENypqlG3UUFFWQzS5joeoSXqyXUC5soXeO8C9j2BSGBHZ9adBJMDciWDo0L1qf0V5ipyPC8rs0rXDOC1EXOlleme0qP4_duQiFvh9gIUYfWw31ToNIXjfWeTWFqBMkQqo9fS2TGdE3XaAZkHeV2cQtG0GKexqU5hOm76chtjKN7yX-LNbzxPEMQXyTmTxh3hnXLupSgRz0OcRQABfv6VXdoYNnxC3-kYWMqeRpjHtV_h-TxfFyLH7-46uDLZRz55MWOQ9X-KFobCvupiQBKui2t60uU5PoC56Xp1skEAI3l5bqSbHwbOnPYR7iBMj33g2jP8N821_NdqO5BO64UZ2GxluyiPHNNGp_YljuwwWRMZxO70Fu7yKgzht_MMBKzYxliaS_HqdsKos_pM5mMHsaa7JfG82rJTYvqfmZP183y6X2Qh1am3GPC1A", "width": 4000}], "place_id": "ChIJKc9etffFQw0RJOhtjCFtMTw", "plus_code": {"compound_code": "PFVP+WQ Talamanca de Jarama, Spain", "global_code": "8CGRPFVP+WQ"}, "rating": 4.8, "reference": "ChIJKc9etffFQw0RJOhtjCFtMTw", "scope": "GOOGLE", "types": ["pharmacy", "health", "point_of_interest", "store", "establishment"], "user_ratings_total": 40, "vicinity": "Calle de San Isidro, 1, Talamanca de Jarama"}, {"business_status": "OPERATIONAL", "geometry": {"location": {"lat": 40.7447595, "lng": -3.5107139}, "viewport": {"northeast": {"lat": 40.7461174802915, "lng": -3.509404769708498}, "southwest": {"lat": 40.7434195197085, "lng": -3.512102730291502}}}, "icon": "https://maps.gstatic.com/mapfiles/place_api/icons/v1/png_71/pharmacy-71.png", "icon_background_color": "#F88181", "icon_mask_base_uri": "https://maps.gstatic.com/mapfiles/place_api/icons/v2/pharmacy_pinlet", "international_phone_number": "+34 910 93 31 64", "name": "FARMACIA LA CARTUJA TALAMANCA", "opening_hours": {"open_now": false}, "photos": [{"height": 960, "html_attributions": ["<a href=\"https://maps.google.com/maps/contrib/105386450732795651494\">FARMACIA LA CARTUJA TALAMANCA</a>"], "photo_reference": "AWn5SU4s-L9U75h3x7LiNmjlrkvxI7exZ5avsXkWx33NiL_qXu8UwhcsOqPkwt6Xzs7QZccoLAiwzPSFNa1nZd11HSJ1kKg3HbyvYKTYfdmzcHgSaQw4Vwc40-5P-Uow0m0mbNaciiacXgPZbem5NqABzXMSk-Ay61Q8re4AmXqq912Er8PV7PLFFFvCZTi5a44HFhYcsE50r9j0pnC_-Wsj5uJWkHUfCtbd_NIDiqUKimFyvbAAR1Lmpu3xvh2R-Lge-KccSDpeMZUmp609JYkuw3VCJiyTa1Q44amd6F7mZNgO4gQuzWPRnJ9JLO05oXTN9SgI5S9I-XM", "width": 1280}], "place_id": "ChIJn1JVR57FQw0R8eQVoYSc_Xo", "plus_code": {"compound_code": "PFVQ+WP Talamanca de Jarama, Spain", "global_code": "8CGRPFVQ+WP"}, "rating": 4.7, "reference": "ChIJn1JVR57FQw0R8eQVoYSc_Xo", "scope": "GOOGLE", "types": ["pharmacy", "health", "point_of_interest", "store", "establishment"], "user_ratings_total": 24, "vicinity": "Calle de la Fuente del Arca, 20, Talamanca de Jarama"}]