[{"business_status": "OPERATIONAL", "geometry": {"location": {"lat": 40.72125, "lng": -4.019528}, "viewport": {"northeast": {"lat": 40.7226872802915, "lng": -4.018133369708497}, "southwest": {"lat": 40.7199893197085, "lng": -4.020831330291502}}}, "icon": "https://maps.gstatic.com/mapfiles/place_api/icons/v1/png_71/gas_station-71.png", "icon_background_color": "#909CE1", "icon_mask_base_uri": "https://maps.gstatic.com/mapfiles/place_api/icons/v2/gas_pinlet", "international_phone_number": "+34 918 53 51 25", "name": "CEPSA", "opening_hours": {"open_now": false}, "photos": [{"height": 1192, "html_attributions": ["<a href=\"https://maps.google.com/maps/contrib/112430092569310541244\">Estación de servicio Cepsa</a>"], "photo_reference": "AWn5SU556b7EEMXPbqzTcrbCMhzyWxzFlQAyCymKWC9QfSZ3G9te_Gs4E5mIjYjRs0SjRpbawJ9Vi1upS1XsR0peLQ9c5lGMcVOhTUgFQQBP7KWR0rCNXwV4fjf9Ye2K3deqXkiOA02DD4OG1ipdxtLSv8sJ49lkJEYbYRkNEgDRKiz5hAj-CEsq3m7Xx8TYa5ymtP1qF6R_HuNaojFQERXknvbIH4EuP5xgDcjQSiJ6VVNAuRTnq3_76fje9jsY-JTGORdXziUYr_fx4Qe94IrzZJISI0WazqAA-KLppYFwBqa9GNhRlAz4IPNkBaFV5GqvE_3wEBODaz4", "width": 2118}], "place_id": "ChIJ8TvCFnpyQQ0Ro2rtfgcJb7k", "plus_code": {"compound_code": "PXCJ+F5 Navacerrada, Spain", "global_code": "8CGQPXCJ+F5"}, "rating": 4.1, "reference": "ChIJ8TvCFnpyQQ0Ro2rtfgcJb7k", "scope": "GOOGLE", "types": ["gas_station", "point_of_interest", "establishment"], "user_ratings_total": 238, "vicinity": "M-601, PK: 10, 3, Navacerrada"}, {"business_status": "OPERATIONAL", "geometry": {"location": {"lat": 40.68587799999999, "lng": -4.015461}, "viewport": {"northeast": {"lat": 40.68736783029149, "lng": -4.014167719708499}, "southwest": {"lat": 40.68466986970849, "lng": -4.016865680291503}}}, "icon": "https://maps.gstatic.com/mapfiles/place_api/icons/v1/png_71/gas_station-71.png", "icon_background_color": "#909CE1", "icon_mask_base_uri": "https://maps.gstatic.com/mapfiles/place_api/icons/v2/gas_pinlet", "international_phone_number": "+34 619 77 35 69", "name": "Shell", "opening_hours": {"open_now": false}, "photos": [{"height": 1920, "html_attributions": ["<a href=\"https://maps.google.com/maps/contrib/112066236758101135855\">JoseDa</a>"], "photo_reference": "AWn5SU5slgMshyg1oBtk47DLcCI7iLstRWvYxtpYCEZKk0r7whLlWpOsX99yl980fsYMDzHHiKAcUx4_1bZX8jW1lvZYHzbRq_sTciEaA0wGdTxz7WtRO-HwTRwgP6S4gyo6SGCX0HKEEO2uXJniw3p0Un-3b8pXxnMn6d3L_AIc1NUgK4_20sxRMiGy5jikMZdue0hlBuKtOxLUGjyfukLEqqoHRnZTTUCktIrk9-4zTUDdVKXixVRKbzR0dHgXlD18AyY-GSP-qUG0F_OJbcokmgRbflCeVd0VQz3HwK4H9SIOZgqN4IwGeZ952e1hcM1gjNSkmiecxW7-le21SmZP0DQuAI7vLaON7pO6Go1Hz24T8H0Xp5YT7ya_UN45V-Prjry9GhotBAbA12PuivUYo9__I_IRIX7gjNXq_ghsAnvGo6Tbp3VE6N8OVicKoVkdX8lGhZ6szWstb4fdlkzFDonY2Aw6h5v9RuEPMTrl_vtN5s2hx_xumB4va1YctMyH5HFyIHZVSbPhxonqzrKCiuFsXRux0Oqf7Q5oHba-U29J-WE68ZiV9bOAe1qDM150bhFUALCzBoHWSoUmUGGACiOYywO6MtC8bjiahj2rM019Cj8ZW5uILvPhd8AAEWTt", "width": 2560}], "place_id": "ChIJY-AdMLNzQQ0Rx1xBEjvP0hs", "plus_code": {"compound_code": "MXPM+9R Collado Mediano, Spain", "global_code": "8CGQMXPM+9R"}, "rating": 3.9, "reference": "ChIJY-AdMLNzQQ0Rx1xBEjvP0hs", "scope": "GOOGLE", "types": ["gas_station", "point_of_interest", "establishment"], "user_ratings_total": 246, "vicinity": "Avenida de Buenos Aires, S/N, Collado Mediano"}, {"business_status": "OPERATIONAL", "geometry": {"location": {"lat": 40.68825759999999, "lng": -4.018689699999999}, "viewport": {"northeast": {"lat": 40.68958388029149, "lng": -4.017218369708497}, "southwest": {"lat": 40.68688591970849, "lng": -4.019916330291502}}}, "icon": "https://maps.gstatic.com/mapfiles/place_api/icons/v1/png_71/generic_business-71.png", "icon_background_color": "#7B9EB0", "icon_mask_base_uri": "https://maps.gstatic.com/mapfiles/place_api/icons/v2/generic_pinlet", "international_phone_number": "+34 918 55 70 75", "name": "Gasóleos Galapagar", "opening_hours": {"open_now": true}, "photos": [{"height": 250, "html_attributions": ["<a href=\"https://maps.google.com/maps/contrib/100058960464702722383\">Gasóleos Galapagar</a>"], "photo_reference": "AWn5SU5WNTsRDMMueYX7sBDzv2RduZsOna5J7Rcqy1Kiun7MmEh74vZbwFozY8itOztGRTwq8spdMVhy0gBZ32BPVsXQ2W31pJt4mm-uyJViFqeN7mHl_Yjz3uQuh4UpfV9v-h8g1I9H2gjUMaCFhKweUijW7Xco9axQ9ZMIMV0yYcFYnXvnDNLQ_DzoONrREktuAPA7uQiqn3rU-kzLMGxDR56GZmxS1LYsZyd_ei9tvt6u3ttxR5viOxUhAgSzydALQjJ6jx_rEMLbwc8BsAzCkUGoin0VRA6ENYO2KMApCGTe1qqH6I776kisI40PCNS4drrmurPN", "width": 600}], "place_id": "ChIJSVyg8C9zQQ0Rq2JTnoo-GQo", "plus_code": {"compound_code": "MXQJ+8G Collado Mediano, Spain", "global_code": "8CGQMXQJ+8G"}, "rating": 4, "reference": "ChIJSVyg8C9zQQ0Rq2JTnoo-GQo", "scope": "GOOGLE", "types": ["gas_station", "point_of_interest", "establishment"], "user_ratings_total": 44, "vicinity": "Calle del Bronce, 4, Collado Mediano"}, {"business_status": "OPERATIONAL", "geometry": {"location": {"lat": 40.72183, "lng": -4.02041}, "viewport": {"northeast": {"lat": 40.7232158302915, "lng": -4.019042069708497}, "southwest": {"lat": 40.7205178697085, "lng": -4.021740030291502}}}, "icon": "https://maps.gstatic.com/mapfiles/place_api/icons/v1/png_71/gas_station-71.png", "icon_background_color": "#909CE1", "icon_mask_base_uri": "https://maps.gstatic.com/mapfiles/place_api/icons/v2/gas_pinlet", "name": "Cepsa", "place_id": "ChIJrYaXDABzQQ0RdhBySIKDUrY", "plus_code": {"compound_code": "PXCH+PR Navacerrada, Spain", "global_code": "8CGQPXCH+PR"}, "rating": 5, "reference": "ChIJrYaXDABzQQ0RdhBySIKDUrY", "scope": "GOOGLE", "types": ["gas_station", "point_of_interest", "establishment"], "user_ratings_total": 1, "vicinity": "Carretera Nacional 601, 4, Navacerrada"}, {"business_status": "OPERATIONAL", "geometry": {"location": {"lat": 40.7075301, "lng": -3.974886200000001}, "viewport": {"northeast": {"lat": 40.7088320302915, "lng": -3.973546919708498}, "southwest": {"lat": 40.7061340697085, "lng": -3.976244880291503}}}, "icon": "https://maps.gstatic.com/mapfiles/place_api/icons/v1/png_71/gas_station-71.png", "icon_background_color": "#909CE1", "icon_mask_base_uri": "https://maps.gstatic.com/mapfiles/place_api/icons/v2/gas_pinlet", "international_phone_number": "+34 918 53 88 99", "name": "MEROIL Becerril de la Sierra", "opening_hours": {"open_now": false}, "photos": [{"height": 3120, "html_attributions": ["<a href=\"https://maps.google.com/maps/contrib/114067607773375436360\">Laura Garcia alberola</a>"], "photo_reference": "AWn5SU4hzwM3bvcpJGT_gXaXWMJPU8l22Xavd1F0uxBvyjqSaB47bnwxshnbvOvcS4YARCqk9FCQvWTx6UOoLhd5h6n3HNNxsjae2yXeMAItzWg5x2x6j9KzayaNtej3zGKNlyzj_94gGN_jJNlgG24oe9gOWUuGDRlkzQxBx0rVZVxSIk21stnjzEl7gbO0cZMv1Neudv9J2U-wX9deudHNgViFA0kPE3cv9VcfgZZrlsBWT5UGs8WwxjaxbQIEoiMGRNtM-R6ZJUeXOdXByEBgwLsxTqObahR8mcJs911F_O326mUp4V1gJzkIvVDycfAMPMXzGRsTqtwMrS9ZPNO4ewC4XpB71gYh9yQcFelH0u3jlCSqwjCo8K-Z7-pPmG2FhI54BNSay_t-rhY54zKtIZ0dx4Sh6iHjEJ9-ipPBaRZFtEDcV7mhKjKAR2bJ50f8yzJW9FEBa5hzYZFBJJEtJL4UlSL2CFOWLDs8KGnWrZotZRS6jITTn4rp0NIeg_Vn8gSZMtQ2lOXxeCtXPzRnSTwlrU2v003KVqQ30xH3udiEjvcUTk4qM4CQomLMGM4Y8yS5M3wCFJtt3xo4Vtj32a9qcRxzaM9Y31D_ah-bpAlKOOZCh7IHUBHxnki9aeRriY-s1lEs", "width": 4160}], "place_id": "ChIJjThdpLp7QQ0R-jZl1R4sTjM", "plus_code": {"compound_code": "P25G+22 Becerril de la Sierra, Spain", "global_code": "8CGRP25G+22"}, "rating": 3.7, "reference": "ChIJjThdpLp7QQ0R-jZl1R4sTjM", "scope": "GOOGLE", "types": ["gas_station", "point_of_interest", "establishment"], "user_ratings_total": 242, "vicinity": "M-623, Becerril de la Sierra"}, {"business_status": "OPERATIONAL", "geometry": {"location": {"lat": 40.7327592, "lng": -4.0674823}, "viewport": {"northeast": {"lat": 40.73411593029149, "lng": -4.066243969708498}, "southwest": {"lat": 40.7314179697085, "lng": -4.068941930291503}}}, "icon": "https://maps.gstatic.com/mapfiles/place_api/icons/v1/png_71/gas_station-71.png", "icon_background_color": "#909CE1", "icon_mask_base_uri": "https://maps.gstatic.com/mapfiles/place_api/icons/v2/gas_pinlet", "international_phone_number": "+34 918 52 21 85", "name": "GASOLINERA CERCEDILLA", "opening_hours": {"open_now": false}, "photos": [{"height": 3648, "html_attributions": ["<a href=\"https://maps.google.com/maps/contrib/106153935513459999971\">GASOLINERA CERCEDILLA</a>"], "photo_reference": "AWn5SU51Et9lznERxbYmMRwoijFfx34rbz8QmwnZX9mRvnB43mpLeK5ncLY4tHOhzRixaaOmF93QGfeioXfcoojhMY0gO09EgSXJr61km80mzQSMDP0VBGJsLdjndK9Hn9dNC-LRvBSi5ssaiA7pphLVOlhD0wEmrq7htGgqFlX9wJlSj49cA1Ej0ym0LQk_cUbJpt7K_pkJRKbiOri5TlEFroMKOPr3oafXr5BRqzQZV6sWyMHfdIxOhfHD0gr7uNoR6GC9ODS1F1kSXdHVJzkctF2UHBc4OIPwHYDd57Tt7f7YLFgDYiqSYfY4M1tP9SHhTqwU1gpedi4", "width": 5472}], "place_id": "ChIJ-_5V41JtQQ0RgvlUrNOTvMw", "plus_code": {"compound_code": "PWMM+42 Cercedilla, Spain", "global_code": "8CGQPWMM+42"}, "rating": 4.2, "reference": "ChIJ-_5V41JtQQ0RgvlUrNOTvMw", "scope": "GOOGLE", "types": ["gas_station", "point_of_interest", "establishment"], "user_ratings_total": 109, "vicinity": "Calle de Hermanos Rovira, 1, Cercedilla"}, {"business_status": "OPERATIONAL", "geometry": {"location": {"lat": 40.7331164, "lng": -4.0675415}, "viewport": {"northeast": {"lat": 40.73446868029149, "lng": -4.066254469708499}, "southwest": {"lat": 40.73177071970849, "lng": -4.068952430291503}}}, "icon": "https://maps.gstatic.com/mapfiles/place_api/icons/v1/png_71/gas_station-71.png", "icon_background_color": "#909CE1", "icon_mask_base_uri": "https://maps.gstatic.com/mapfiles/place_api/icons/v2/gas_pinlet", "international_phone_number": "+34 918 52 21 85", "name": "Estación de Servicio Repsol", "opening_hours": {"open_now": false}, "photos": [{"height": 608, "html_attributions": ["<a href=\"https://maps.google.com/maps/contrib/102727989015796115934\">Estación de Servicio Repsol</a>"], "photo_reference": "AWn5SU6g9v6I4rGTal2zh4ih3H9WxHPbOM-vJYSLQN7Gydn1_GnoulZ2p-trrw1iqmXDB8DsSTim457JLZuVayta7QY7_EluLT7MCfSYLN0gTe-lbfwKG-QlAjKnusgG0nLWna6j0SLAb46qzlY0ApAixrP1XZb1ch5YjPaY9zcVVPn5e7w4sslCNkrpNugHqjcW1dgbmfLkN7FfVnAjaaU1tLdXSoVLvNgI89nQVeZwJdceI2ZDcZ4F2vAirhqfI2ryY4_Z75LiFV7TvQ-GAY_-VtyZISkKGzMxFIoe0wi8J_a3h8zjv_flS9fsKI82lMKnQP-CD45eUfo", "width": 1080}], "place_id": "ChIJ7UJs_VJtQQ0RaN5iCRI09FE", "plus_code": {"compound_code": "PWMJ+6X Cercedilla, Spain", "global_code": "8CGQPWMJ+6X"}, "rating": 4.3, "reference": "ChIJ7UJs_VJtQQ0RaN5iCRI09FE", "scope": "GOOGLE", "types": ["gas_station", "car_wash", "point_of_interest", "establishment"], "user_ratings_total": 94, "vicinity": "Calle de Hermanos Rovira, 1A, Cercedilla"}]