[{"business_status": "OPERATIONAL", "geometry": {"location": {"lat": 40.2834017, "lng": -3.2089875}, "viewport": {"northeast": {"lat": 40.2847995802915, "lng": -3.207420219708498}, "southwest": {"lat": 40.2821016197085, "lng": -3.210118180291501}}}, "icon": "https://maps.gstatic.com/mapfiles/place_api/icons/v1/png_71/school-71.png", "icon_background_color": "#7B9EB0", "icon_mask_base_uri": "https://maps.gstatic.com/mapfiles/place_api/icons/v2/school_pinlet", "international_phone_number": "+34 918 72 46 16", "name": "Colegio Público C.R.A. Vega de Tajuña", "opening_hours": {"open_now": false}, "photos": [{"height": 4000, "html_attributions": ["<a href=\"https://maps.google.com/maps/contrib/103592555541515015284\">Óscar Fernández Bouza</a>"], "photo_reference": "AWn5SU4JZjDIonEEfcKQN3FPK0mNymqxk4FqEXBuyfjtzW0lZlaFKpT7AlrPInQyRTUuwTUjRKQmM8n5lssMRURIWbb78E_qc9rm85_A61PoZeoJd2-T7Nu-NWdiwOdPf9LM2eAC-1fD6c2d-LJ1h-extYvLbwn4l56I3iENSW0WjvyfLAKTv0-REkzmL07iYVypPRbEAeE6HhgamQKKkjfhgsrSEfRyBeeKuMXXPwYD7u6BjPKX9XtaddTdOuy9QfCwThq73xk1Vx0w-yttfw9StpXUoUEDFiZfrNtfYIum_flKYaV44FCPJJAuU_Df_-7uuL-HedWBf8H_aXNS1siF7t9HMCOld8gAdrHf3lZ-SD9BB5fwuUAhMFBJegxsrpZbJZE8nG-yf_eCYS2CWhbuFFfdtLWSGRLgriXPczd5fB-CVb_AXSWuPTfQR7pV8EMHtOcpRucZ4SfUjgpDp1INnLBbues93cwBneNOdnZnX6x0UIe3nptFi0HqbDW7VwE-vBYZBGKhJNlVPFShyxW6jxUDHiXj4ery8hC0BvNKzLyo62VXNM0JhMPfM6lYYrxkO0PbOEYEEFKjb8vqxcMpW_Wt8N_kHCeFJHMkBmAPPYAtp6EeQR51qnQuqdTeckf7uU9i6g", "width": 3000}], "place_id": "ChIJY-_xdphdQg0RPEUkMSNJ_jo", "plus_code": {"compound_code": "7QMR+9C Orusco de Tajuña, Spain", "global_code": "8CGR7QMR+9C"}, "reference": "ChIJY-_xdphdQg0RPEUkMSNJ_jo", "scope": "GOOGLE", "types": ["school", "point_of_interest", "establishment"], "vicinity": "Calle José Cañaveras, s/n, Orusco de Tajuña"}, {"business_status": "OPERATIONAL", "geometry": {"location": {"lat": 40.2573375, "lng": -3.2336974}, "viewport": {"northeast": {"lat": 40.2587406802915, "lng": -3.232421619708497}, "southwest": {"lat": 40.2560427197085, "lng": -3.235119580291501}}}, "icon": "https://maps.gstatic.com/mapfiles/place_api/icons/v1/png_71/school-71.png", "icon_background_color": "#7B9EB0", "icon_mask_base_uri": "https://maps.gstatic.com/mapfiles/place_api/icons/v2/school_pinlet", "international_phone_number": "+34 918 72 30 41", "name": "CEIP Santa Lucía", "opening_hours": {"open_now": false}, "photos": [{"height": 768, "html_attributions": ["<a href=\"https://maps.google.com/maps/contrib/110697026422613781214\">Juan Carlos Martínez Martínez</a>"], "photo_reference": "AWn5SU6TwSDtkYKmFi03hU4KpTMTO0MPtucoh2TFxwfWFKawbUjNhJSBz3HmQ28iAPdOwb-t3l_R69UQOgDSSWUREngCgkb96z-0CNogDbO5_ydFNM6P6H_DUeSl5p6r7KKgPcuC7xmw2T4HC3U_DCpx35sZ7-duV_-WRV0X1ebU0qJ55POylOLHMOQzd0i8eYaxIeKxoD0XOgI2SAw-mRbaUq8aN7UO8eCdbry783xDZ9WaSS6YZqjrGh38pw-xlck-EayCwMpOgGxE1hr5CB857D_rRHgqwS5owYEsrg4PpS4ITaBpVmsdcz8YNf18vCoL33OkwJ7e6nW1e1N7tFnnMnklJ6Cb-M62rCR_DwFvhvPXjxtvZuW8kBagYh7uAZ3Ge6WxVEqZX4Sth1VeQXDp2I-pdJGIVerHQuYZlLjbw3uInIiGdzQWB5JYx9WSioIHvMgkgTDd6ta2J6zTrBTKUp2pfzmSus1i027RgyB801uCL-Uu1uBlGt8F09_0hEx5LB2NlRqJ4Tz3pEVAZcjRLmth_QG4l6jsIHasW3HmlZR8tA8I73BL0vLa_EEFLqpA3l1R34GXTSUwxHzrImEPdo2yDn0mRsyIymVWjyN9hPnuAv6DwFdnSLEIMWbxTAahU8fHcHbd", "width": 1024}], "place_id": "ChIJVxbcHoxnQg0RjJ6jAT8jyUU", "plus_code": {"compound_code": "7Q48+WG Carabaña, Spain", "global_code": "8CGR7Q48+WG"}, "reference": "ChIJVxbcHoxnQg0RjJ6jAT8jyUU", "scope": "GOOGLE", "types": ["school", "point_of_interest", "establishment"], "vicinity": "Avenida de Tielmes, 20, Carabaña"}, {"business_status": "OPERATIONAL", "geometry": {"location": {"lat": 40.25792089999999, "lng": -3.2333801}, "viewport": {"northeast": {"lat": 40.2592549302915, "lng": -3.232009419708498}, "southwest": {"lat": 40.2565569697085, "lng": -3.234707380291502}}}, "icon": "https://maps.gstatic.com/mapfiles/place_api/icons/v1/png_71/school-71.png", "icon_background_color": "#7B9EB0", "icon_mask_base_uri": "https://maps.gstatic.com/mapfiles/place_api/icons/v2/school_pinlet", "international_phone_number": "+34 918 72 33 76", "name": "Escuela de Educación Infantil Casa de Niños Elmer", "place_id": "ChIJAzarHYxnQg0R9OBCF7W47Cs", "plus_code": {"compound_code": "7Q58+5J Carabaña, Spain", "global_code": "8CGR7Q58+5J"}, "reference": "ChIJAzarHYxnQg0R9OBCF7W47Cs", "scope": "GOOGLE", "types": ["school", "point_of_interest", "establishment"], "vicinity": "Avenida de Tielmes, 23, Carabaña"}, {"business_status": "OPERATIONAL", "geometry": {"location": {"lat": 40.20880319999999, "lng": -3.193854199999999}, "viewport": {"northeast": {"lat": 40.2100834802915, "lng": -3.192467419708498}, "southwest": {"lat": 40.2073855197085, "lng": -3.195165380291502}}}, "icon": "https://maps.gstatic.com/mapfiles/place_api/icons/v1/png_71/school-71.png", "icon_background_color": "#7B9EB0", "icon_mask_base_uri": "https://maps.gstatic.com/mapfiles/place_api/icons/v2/school_pinlet", "international_phone_number": "+34 918 73 94 92", "name": "Colegio Rural Agrupado \"Los Olivos\" de Valdaracete", "opening_hours": {"open_now": false}, "photos": [{"height": 480, "html_attributions": ["<a href=\"https://maps.google.com/maps/contrib/103064393077350153117\">Colegio Rural Agrupado &quot;Los Olivos&quot; de Valdaracete</a>"], "photo_reference": "AWn5SU53MYsI2ERr-Mk5Q1516Fn1n7pXCxeS3q_A4zv30FPBKgg3QzZntvHTnk4rd12i2zIXWsc_WOGpXLOsFiLnnn4SDKgcpSxTWlP87lrhceYpvg6OHktcEW3E561dH1GHCMPS5uB_kywtTOY9MPaeE9h6llbLMSa00IJWMV6LJXr_6UrZCvTR5DzW3maBeBtPT6llMdP-pyoXfs1IMyXAWDmMVKzyq0JPbeH1YrHsyj58LdlzilnadoDsNedn4Z2mUGusG5EG3NS9LusGOEo0FJI4Z8zMYdL96VbW_w73d0oricbjm_D4CgbGwGAQ9UWEwkJS0cF8oB4", "width": 640}], "place_id": "ChIJkdGuS2ZsQg0RA1nqI5-5R2g", "plus_code": {"compound_code": "6R54+GF Valdaracete, Spain", "global_code": "8CGR6R54+GF"}, "reference": "ChIJkdGuS2ZsQg0RA1nqI5-5R2g", "scope": "GOOGLE", "types": ["school", "point_of_interest", "establishment"], "vicinity": "Valdaracete"}, {"business_status": "OPERATIONAL", "geometry": {"location": {"lat": 40.2566925, "lng": -3.2377562}, "viewport": {"northeast": {"lat": 40.2580323802915, "lng": -3.236410169708498}, "southwest": {"lat": 40.2553344197085, "lng": -3.239108130291501}}}, "icon": "https://maps.gstatic.com/mapfiles/place_api/icons/v1/png_71/school-71.png", "icon_background_color": "#7B9EB0", "icon_mask_base_uri": "https://maps.gstatic.com/mapfiles/place_api/icons/v2/school_pinlet", "international_phone_number": "+34 911 96 81 59", "name": "UNBLOCK CREATIVITY", "opening_hours": {"open_now": false}, "photos": [{"height": 744, "html_attributions": ["<a href=\"https://maps.google.com/maps/contrib/105788649520822079300\">UNBLOCK CREATIVITY</a>"], "photo_reference": "AWn5SU4k_kh9_L1u0Tzzw1stCQHqleMc0UkuwGJqbSsAfCU-a2jFOA2Z3Ood03J2G5kkDrt9ZlPIsLCYsRN5I2GrK9TNtv5hRgcuvDzmU8O8C6AQr1ltRdmwGRcje-kYl8YriDRSfFbuGlWFl1bpq_QucqsRYvvtJUcNX7b6CRo8qfYw2HUZL2-Ycb8dmr7HFb82P313ji4oHCBgZB85w2cN4kQ584W-t8e5KX0xvuMeRNDff_U1H17rIFhiOAayFmaHE5PgDGD5knOJpauhSAxzP0iIlvlnb9mfrM-pKfeyp-hDW0alrMubg1RCnY9EWATuyGVxX2ptyTc", "width": 1600}], "place_id": "ChIJOdLUckRnQg0RNSn7RIbXV4k", "plus_code": {"compound_code": "7Q46+MV Carabaña, Spain", "global_code": "8CGR7Q46+MV"}, "reference": "ChIJOdLUckRnQg0RNSn7RIbXV4k", "scope": "GOOGLE", "types": ["school", "point_of_interest", "establishment"], "vicinity": "Calle del Real, 9, Carabaña"}, {"business_status": "OPERATIONAL", "geometry": {"location": {"lat": 40.2833636, "lng": -3.209117599999999}, "viewport": {"northeast": {"lat": 40.2847136302915, "lng": -3.207769719708498}, "southwest": {"lat": 40.2820156697085, "lng": -3.210467680291501}}}, "icon": "https://maps.gstatic.com/mapfiles/place_api/icons/v1/png_71/school-71.png", "icon_background_color": "#7B9EB0", "icon_mask_base_uri": "https://maps.gstatic.com/mapfiles/place_api/icons/v2/school_pinlet", "international_phone_number": "+34 918 72 44 80", "name": "Escuela De Educación Infantil Casa De Niños Los Huertos", "photos": [{"height": 747, "html_attributions": ["<a href=\"https://maps.google.com/maps/contrib/104764480635294952366\">Ana Mª Salas</a>"], "photo_reference": "AWn5SU5WxvPAJUKl7yfn0S1Jqggg8aDdMyA2ttrrFTey36Nsz3ghYrF7Fr7iKDmGepK-7-pcoT79Spng-GaXn5FC7LnKqFnwRCfc2x5r4fkgACBME4Vy54tEiVTWMJasINAeztuHkBR1iyhJAgkTSMWuCpUncukRnswXtGDdFZfuGX1qify1h3seUX5BBUJhjn2or1ugQ7CaMvvCSWxNxD772B_68VwQSB4eYZs8pQyeF-GdKvIFuTACtE3m4IqMZ1v6M2wgKwUQHJwRYtMl8R72IBCAeSu_giibH95sO2asQb3rItoTsqca0GWVw7VMzTHP0Y31fPuam24S9-LAUV0lWftVRNghemdzh9wDv56erKQsoi2wTYifOZYOi5wnE_0QkB31q5ssUc3BYaDDaFRe74mO9zFzKrkj94e4TJIsqekYWKJqbz5T_dmxNHqnxbjdebWFX6nXFNAYvOsF9tdIm5Po0IFpKu3AidxOmSmO1XEoWRx1hkC5vdhsVJhjqD0ZmkblCYzUZ973aC0-Hrvcr0PcVQqYJciJyjlaE6CphD1p8-81uWCNtkMbtzIy821o2NFfjcI1hyKVOlfghTY4l1spyhz_hx1Dgi2tLl4RTP4DEW6Ov3SIwk851RhepQQ82UxF2Q", "width": 1328}], "place_id": "ChIJTea3PphdQg0RiBUwuvro3jA", "plus_code": {"compound_code": "7QMR+89 Orusco de Tajuña, Spain", "global_code": "8CGR7QMR+89"}, "reference": "ChIJTea3PphdQg0RiBUwuvro3jA", "scope": "GOOGLE", "types": ["school", "point_of_interest", "establishment"], "vicinity": "Calle José Cañaveras, 26, Orusco de Tajuña"}, {"business_status": "OPERATIONAL", "geometry": {"location": {"lat": 40.2113745, "lng": -3.1930608}, "viewport": {"northeast": {"lat": 40.2127230302915, "lng": -3.191725319708498}, "southwest": {"lat": 40.2100250697085, "lng": -3.194423280291502}}}, "icon": "https://maps.gstatic.com/mapfiles/place_api/icons/v1/png_71/school-71.png", "icon_background_color": "#7B9EB0", "icon_mask_base_uri": "https://maps.gstatic.com/mapfiles/place_api/icons/v2/school_pinlet", "international_phone_number": "+34 918 73 99 67", "name": "Escuela De Educación Infantil Casa De Niños Arco Iris", "place_id": "ChIJ_7GEf8NmQg0RWdet-wQJaMA", "plus_code": {"compound_code": "6R64+GQ Valdaracete, Spain", "global_code": "8CGR6R64+GQ"}, "reference": "ChIJ_7GEf8NmQg0RWdet-wQJaMA", "scope": "GOOGLE", "types": ["school", "point_of_interest", "establishment"], "vicinity": "Calle de La Ermita, 1, Valdaracete"}, {"business_status": "OPERATIONAL", "geometry": {"location": {"lat": 40.247379, "lng": -3.3136647}, "viewport": {"northeast": {"lat": 40.24874638029151, "lng": -3.312344269708498}, "southwest": {"lat": 40.24604841970851, "lng": -3.315042230291502}}}, "icon": "https://maps.gstatic.com/mapfiles/place_api/icons/v1/png_71/school-71.png", "icon_background_color": "#7B9EB0", "icon_mask_base_uri": "https://maps.gstatic.com/mapfiles/place_api/icons/v2/school_pinlet", "international_phone_number": "+34 918 74 61 17", "name": "Escuela De Educación Infantil Casa De Niños Tielmes", "place_id": "ChIJZ0mGCsRpQg0RkWLX4fQfIbo", "plus_code": {"compound_code": "6MWP+XG Tielmes, Spain", "global_code": "8CGR6MWP+XG"}, "reference": "ChIJZ0mGCsRpQg0RkWLX4fQfIbo", "scope": "GOOGLE", "types": ["school", "point_of_interest", "establishment"], "vicinity": "Calle de la Perdiz, 6, Tielmes"}, {"business_status": "OPERATIONAL", "geometry": {"location": {"lat": 40.29378059999999, "lng": -3.300141599999999}, "viewport": {"northeast": {"lat": 40.2951635802915, "lng": -3.298798619708498}, "southwest": {"lat": 40.2924656197085, "lng": -3.301496580291502}}}, "icon": "https://maps.gstatic.com/mapfiles/place_api/icons/v1/png_71/school-71.png", "icon_background_color": "#7B9EB0", "icon_mask_base_uri": "https://maps.gstatic.com/mapfiles/place_api/icons/v2/school_pinlet", "international_phone_number": "+34 918 73 85 51", "name": "Escuela De Educación Infantil Casa De Niños Valdilecha", "place_id": "ChIJBTjblVdCQg0RlXq5Uj0kH-k", "plus_code": {"compound_code": "7MVX+GW Valdilecha, Spain", "global_code": "8CGR7MVX+GW"}, "reference": "ChIJBTjblVdCQg0RlXq5Uj0kH-k", "scope": "GOOGLE", "types": ["school", "point_of_interest", "establishment"], "vicinity": "Calle Miguel de Cervantes, 2, Valdilecha"}]