[{"geometry": {"location": {"lat": 40.3590206, "lng": -4.335809}, "viewport": {"northeast": {"lat": 40.3735118534296, "lng": -4.311382013212982}, "southwest": {"lat": 40.34951326397443, "lng": -4.3510803290974}}}, "icon": "https://maps.gstatic.com/mapfiles/place_api/icons/v1/png_71/geocode-71.png", "icon_background_color": "#7B9EB0", "icon_mask_base_uri": "https://maps.gstatic.com/mapfiles/place_api/icons/v2/generic_pinlet", "name": "Pelayos de la Presa", "photos": [{"height": 1824, "html_attributions": ["<a href=\"https://maps.google.com/maps/contrib/114806859711795418521\">Carlos Carnicer</a>"], "photo_reference": "AWn5SU71XGhe0FflZFSxnKniqBr6e0FpPmwJlA_MCQIvdML4MAUhk308UIn2LPCwB05746WdSfhxh7Tdy_87c6cM1ZysnC-P5tc1dj64xXbwVUbEyGRTdzclMVRqPjFTo7vFpOBMNnXQITd1p4x_MYcs33B0QxipOF4Gc93WyEckwQ28Ut5eqaZguSID-YmN9yB_aXIlZ5AqjEpWoIUBpFYk93gan6nu2qoSO3TMAwKJVDYPHInYGcKd3j-WAI1kVsm3DtvH2hTHW4N3JTFCp4lw9G_7du6-9gouF772FoDDM66BKBkA9F4L6Uowu2YZUhlCajtES4m66SgDrgK5xgex7ESXOMRjLXbSujjb2rtic6dzfeTa_8-zlyIDd05BZcJ6i5wt23_aF-lzjjFh6HLFtsMjjPSnC0D8GwBleyPsBHHFWjeA75Nl99YhWkWXMnReRPOeyL7Mqa0JTxWoTSTpMAk1dVQZva3y0JO3CTXqnsZeTy5-rDTapDXFKQ4NKXDDJRQDhpHPiWzJFWQW0BQE4DzKTiGqDYC7nRrg7g9wZCSpnQLJ1Zw99UXsGTdefxbrQN7uPNNHgN8tPrbReMDP3_3gHq3JbNfdO-KTw7JKYagPP2rG9nttgYoz_gzyQW0hd3iyRPMn", "width": 4000}], "place_id": "ChIJ0xkPmjeyQQ0Rvic5UU_kbU8", "reference": "ChIJ0xkPmjeyQQ0Rvic5UU_kbU8", "scope": "GOOGLE", "types": ["locality", "political"], "vicinity": "Pelayos de la Presa"}, {"business_status": "OPERATIONAL", "geometry": {"location": {"lat": 40.3737015, "lng": -4.3220899}, "viewport": {"northeast": {"lat": 40.3750554302915, "lng": -4.320716819708498}, "southwest": {"lat": 40.3723574697085, "lng": -4.323414780291502}}}, "icon": "https://maps.gstatic.com/mapfiles/place_api/icons/v1/png_71/generic_business-71.png", "icon_background_color": "#7B9EB0", "icon_mask_base_uri": "https://maps.gstatic.com/mapfiles/place_api/icons/v2/generic_pinlet", "international_phone_number": "+34 660 34 55 78", "name": "Real Club Náutico de Madrid | Navegar en Madrid | Escuela de vela", "opening_hours": {"open_now": false}, "photos": [{"height": 619, "html_attributions": ["<a href=\"https://maps.google.com/maps/contrib/117283539104650750505\">Real Club Náutico de Madrid | Navegar en Madrid | Escuela de vela</a>"], "photo_reference": "AWn5SU46UyPukGXVihwEPQX2o8htCygv0VmlI-SZ59E6D0A9V15khkbD7e54U-rD6oook4YC6wY8aPm3sQBLhl-0IoeANPoBdbaIMX7t4-aVhXZxmGP07T5OYoz0h9QEsmaalvYwH3EqSdY3y96xhAa_qGnJuZfZXXgSe9MSXn1hiiu-MCLAtXyoR-RireZ29MeJarkOBpOyrr2AKdDNQ2EUyMV1QqV7XLFtJ4lzelidMClMOV_CgVOPN0wNrqcruHxkO-btnboUC2dEsM9ppMhENh2sf1-0vSuYuzBzKZHQmq7l_vvVRhdkKyO73FLyIbphckVf5_iX", "width": 925}], "place_id": "ChIJUYZzcuwoQg0RIyYfmsfytgU", "plus_code": {"compound_code": "9MFH+F5 Pelayos de la Presa, Spain", "global_code": "8CGQ9MFH+F5"}, "rating": 4.2, "reference": "ChIJUYZzcuwoQg0RIyYfmsfytgU", "scope": "GOOGLE", "types": ["point_of_interest", "establishment"], "user_ratings_total": 153, "vicinity": "Camino del Embalse de San juan 0, s/n, Madrid"}, {"business_status": "CLOSED_TEMPORARILY", "geometry": {"location": {"lat": 40.36263719999999, "lng": -4.347610299999999}, "viewport": {"northeast": {"lat": 40.3639854802915, "lng": -4.346238419708498}, "southwest": {"lat": 40.36128751970851, "lng": -4.348936380291502}}}, "icon": "https://maps.gstatic.com/mapfiles/place_api/icons/v1/png_71/shopping-71.png", "icon_background_color": "#4B96F3", "icon_mask_base_uri": "https://maps.gstatic.com/mapfiles/place_api/icons/v2/shopping_pinlet", "international_phone_number": "+34 912 30 69 93", "name": "Bisutería Elsa", "permanently_closed": true, "place_id": "ChIJhSL0RbgoQg0RMOKMOrIVWTA", "plus_code": {"compound_code": "9M72+3X Pelayos de la Presa, Spain", "global_code": "8CGQ9M72+3X"}, "rating": 4, "reference": "ChIJhSL0RbgoQg0RMOKMOrIVWTA", "scope": "GOOGLE", "types": ["jewelry_store", "store", "point_of_interest", "establishment"], "user_ratings_total": 1, "vicinity": "Paseo de los Apartamentos, 33"}, {"business_status": "OPERATIONAL", "geometry": {"location": {"lat": 40.35744330000001, "lng": -4.3418515}, "viewport": {"northeast": {"lat": 40.3589407302915, "lng": -4.340553419708497}, "southwest": {"lat": 40.3562427697085, "lng": -4.343251380291502}}}, "icon": "https://maps.gstatic.com/mapfiles/place_api/icons/v1/png_71/shopping-71.png", "icon_background_color": "#4B96F3", "icon_mask_base_uri": "https://maps.gstatic.com/mapfiles/place_api/icons/v2/shopping_pinlet", "international_phone_number": "+34 918 64 42 24", "name": "Pool Garden GB (Antes Rico)", "opening_hours": {"open_now": false}, "photos": [{"height": 534, "html_attributions": ["<a href=\"https://maps.google.com/maps/contrib/105423984547181323706\">Jose VXI</a>"], "photo_reference": "AWn5SU4h07NiSZ38PRezuYVka-V0nd5lqIA4hdJyQwuRrYpUZYR5bNbJkPFk9f1VxT66jXAt6Wg3-LmbL1tMgenDwgcsEtv26sUm3KMmBgJnQvNdBtCEazZU-eT2DXxtKLFj10v4-4XJJC9PgBUNdOaolO42qcD4k8IjvWIYxXqA409Id6S9orp4UrSbiT_aVKxm8V4Jw4Gaeszxc6w0m_A0Ddar_ZyrXu_hGJfTUWDYL2q0xc6zDupvMx3VVdHq3crGT-TapRbO4Z5CzAMZinvVmG9n_T8XwzMIH5po_mc9qZet8JjoG6V_-XuDMmCi-VnxUfaGEpC0_NjRPPfbVqmjl_CpI2wsupOlvT4kMKXy4XqMvXsue63UTENCa8hxClIz3yNaObyIve1c_VeEp9LxUuwDr9taGMeYxR79QarHy1Bi6zZwZvYUfyO2P2fTfZxvAF1mH8x972dZEbyVLRG7MoYPuqbyt6FxexOaiWYMkMAa6_5vwAvVUGKkqZiVVnPzFA657nw5LKU0rty2h6udqozH4D0XEtv4jJM3bZFjLTrSfTOcbmznqwSeSpPNQpdjPZJ_GQxzNV5pFLrIJDzzLdRhAJTgzAB8M0eY9_Mb4I4jeqfEJoE7CNrc5nWH5EIHaV04Qg", "width": 1600}], "place_id": "ChIJfya_gSayQQ0Rqhi5vh4CFns", "plus_code": {"compound_code": "9M45+X7 Pelayos de la Presa, Spain", "global_code": "8CGQ9M45+X7"}, "rating": 4.4, "reference": "ChIJfya_gSayQQ0Rqhi5vh4CFns", "scope": "GOOGLE", "types": ["store", "point_of_interest", "establishment"], "user_ratings_total": 90, "vicinity": "Avenida de Marcial Llorente, 67, Pelayos de la Presa"}, {"business_status": "OPERATIONAL", "geometry": {"location": {"lat": 40.3658548, "lng": -4.341942899999999}, "viewport": {"northeast": {"lat": 40.3672341802915, "lng": -4.340701819708497}, "southwest": {"lat": 40.3645362197085, "lng": -4.343399780291501}}}, "icon": "https://maps.gstatic.com/mapfiles/place_api/icons/v1/png_71/shopping-71.png", "icon_background_color": "#4B96F3", "icon_mask_base_uri": "https://maps.gstatic.com/mapfiles/place_api/icons/v2/shopping_pinlet", "international_phone_number": "+34 692 27 94 61", "name": "Herbalife Distribuidor Independiente Yenifer Arana", "opening_hours": {"open_now": false}, "photos": [{"height": 1536, "html_attributions": ["<a href=\"https://maps.google.com/maps/contrib/111145244523852372867\">Herbalife Distribuidor Independiente Yenifer Arana</a>"], "photo_reference": "AWn5SU5cLb-dKb0n_AaowYj8Y9nZ7NdE432yVb_qf9vH90dQQfzmeN8lm-DlzmIkRlusIIbUd2CxUZpH7IAHfQVieTo0xwxts4jVzFyUaLhNtRruoGeAgJGSgEyGRNGhT5Zawdhd-4464QF19nr7eaXA61SrB0TEq1LnSxWFwD86QxrEV7YUZwgFW3rA-RGM-dqD-flCRwRmqnHdP_ch01mmEaRJ0JqOzoDz_PYlZuFR4DWE2DrzufkZ4634RgIThP5TzAxYt5nyPjIWGT0hKoa4O_Elti5i40bT_nZq2kcKzfUPPX8a9jCaFk23nlElpByRLH89lcV0cRU", "width": 2048}], "place_id": "ChIJzzUY7kOyQQ0RhT_OJVj64FA", "plus_code": {"compound_code": "9M85+86 Pelayos de la Presa, Spain", "global_code": "8CGQ9M85+86"}, "reference": "ChIJzzUY7kOyQQ0RhT_OJVj64FA", "scope": "GOOGLE", "types": ["health", "store", "point_of_interest", "establishment"], "vicinity": "Avenida del Mirador, 100, Pelayos de la Presa"}, {"business_status": "OPERATIONAL", "geometry": {"location": {"lat": 40.3590451, "lng": -4.335743700000001}, "viewport": {"northeast": {"lat": 40.3603596802915, "lng": -4.334145069708499}, "southwest": {"lat": 40.3576617197085, "lng": -4.336843030291503}}}, "icon": "https://maps.gstatic.com/mapfiles/place_api/icons/v1/png_71/generic_business-71.png", "icon_background_color": "#7B9EB0", "icon_mask_base_uri": "https://maps.gstatic.com/mapfiles/place_api/icons/v2/generic_pinlet", "international_phone_number": "+34 655 38 83 77", "name": "Tucasavip, S. L.", "opening_hours": {"open_now": false}, "photos": [{"height": 2720, "html_attributions": ["<a href=\"https://maps.google.com/maps/contrib/116392664557311737632\">Tucasavip, S. L.</a>"], "photo_reference": "AWn5SU6u9w-o-bhk0-T8YzElFBgXKsPZDNyCM0XX85nSoO3gUPJWGn2wK8blleu7OdbukvIYLbfMpMmXHDzeiqU8FHZx13CPgvFLqoww7C7nX62HDJ12oZGmD-JtfZqEPCW8n_3C6KsRsINLq6V7TXiiAW8jRxkPm6YcQv2s8IdQ1eLK7Qa79zSVpEYt5oVCO7dUXS8-aiXnSJoXYuZCNI3lUlm4u7Qd13Qk2g8FZmCw_QO3It5Td_5nKi-kODBGm8MU3guIY2mMGWgECHan0H1K2ESh2Rki_dknAIjfhdB538Zi0w-xHJZVLs2IqFRrU_cwBfRo5tKOPdY", "width": 3820}], "place_id": "ChIJZ1eGrSWyQQ0RbMv351JgoCI", "plus_code": {"compound_code": "9M57+JP Pelayos de la Presa, Spain", "global_code": "8CGQ9M57+JP"}, "rating": 4.8, "reference": "ChIJZ1eGrSWyQQ0RbMv351JgoCI", "scope": "GOOGLE", "types": ["real_estate_agency", "point_of_interest", "establishment"], "user_ratings_total": 98, "vicinity": "Avenida de Marcial Llorente, 114, Pelayos de la Presa"}, {"business_status": "OPERATIONAL", "geometry": {"location": {"lat": 40.3598994, "lng": -4.3336839}, "viewport": {"northeast": {"lat": 40.3613518302915, "lng": -4.332654519708497}, "southwest": {"lat": 40.3586538697085, "lng": -4.335352480291502}}}, "icon": "https://maps.gstatic.com/mapfiles/place_api/icons/v1/png_71/generic_business-71.png", "icon_background_color": "#7B9EB0", "icon_mask_base_uri": "https://maps.gstatic.com/mapfiles/place_api/icons/v2/generic_pinlet", "international_phone_number": "+34 918 64 54 72", "name": "Luis, de Pelayos", "photos": [{"height": 608, "html_attributions": ["<a href=\"https://maps.google.com/maps/contrib/117304925904178496690\">Luis, de Pelayos</a>"], "photo_reference": "AWn5SU5vj2Y8ywJxQog_LI_7tGTvs1pFRyEPTzrL6690L8MnWwqkMlf1uLFHMOoPJss64LRj4N3TP2Z0PcWf-vDf9oswLf7181RUuo8im3-nnucgNqRpmqlq9iT0wZPwNfOWQZLIPtrT5_rviev6YTf04ecSURV2ok2gt3BhvT39wKxrI1KgYnjeFy928xawex6-JGq1vrgJ4QqI7id86PCY-W05w2Fsgj01ds7x5BcdVzLFv71gmngmsruKnVkaAvivHo9oUXGc5zrVqdOrIBzsJDM5tv0FZjbmLFMlQMJkuO_TS444FJRzJGjcRSF7gN2wdWEw4rhvEiw", "width": 810}], "place_id": "ChIJaT7ZnDeyQQ0RjszEtUARDaY", "plus_code": {"compound_code": "9M58+XG Pelayos de la Presa, Spain", "global_code": "8CGQ9M58+XG"}, "reference": "ChIJaT7ZnDeyQQ0RjszEtUARDaY", "scope": "GOOGLE", "types": ["point_of_interest", "establishment"], "vicinity": "Calle de los Huertos, 5, Pelayos de la Presa"}, {"business_status": "OPERATIONAL", "geometry": {"location": {"lat": 40.3636406, "lng": -4.3224421}, "viewport": {"northeast": {"lat": 40.3650091302915, "lng": -4.321006469708498}, "southwest": {"lat": 40.3623111697085, "lng": -4.323704430291502}}}, "icon": "https://maps.gstatic.com/mapfiles/place_api/icons/v1/png_71/shopping-71.png", "icon_background_color": "#4B96F3", "icon_mask_base_uri": "https://maps.gstatic.com/mapfiles/place_api/icons/v2/shopping_pinlet", "international_phone_number": "+34 918 64 41 07", "name": "RIOMAR NAUTICA", "opening_hours": {"open_now": false}, "photos": [{"height": 317, "html_attributions": ["<a href=\"https://maps.google.com/maps/contrib/106539250436820935217\">RIOMAR NAUTICA</a>"], "photo_reference": "AWn5SU70R9NlV5PISLFBzLgIoGqaIpWy0WoLm_yOlL6xUi74jc4muuwn_l9v3K1jWia0lJ_-7rr6H6zk7lHp2TC1Ep5gEojVIhYEiim6aTqA_354l3BN38NXG8Bp6a3saGjbe-zcqeRnyQ37quK_paDntdRcf5wtfsh9bHQR8U4AUXyYf401q8xWwHDIrCl4jLZRmK6WepyltOVJqW5NORNK7v5mEeEhcNCaaIWt2MxqIrTLdeafLMECIPp8TpBSlVN5NYDMJdfsptwYYRMZYXXD-UiGDla5_rnpk9_kzficxuEELvLwAAARM3EPwQm0dCPS_dAlkmXzbQI", "width": 500}], "place_id": "ChIJCySBqSWyQQ0Rv1TGT-IXP4g", "plus_code": {"compound_code": "9M7H+F2 Pelayos de la Presa, Spain", "global_code": "8CGQ9M7H+F2"}, "rating": 4.5, "reference": "ChIJCySBqSWyQQ0Rv1TGT-IXP4g", "scope": "GOOGLE", "types": ["store", "point_of_interest", "establishment"], "user_ratings_total": 4, "vicinity": "Avenida de Marcial Llorente, 50, Pelayos de la Presa"}, {"business_status": "OPERATIONAL", "geometry": {"location": {"lat": 40.3571853, "lng": -4.342020900000001}, "viewport": {"northeast": {"lat": 40.35846703029149, "lng": -4.340645169708498}, "southwest": {"lat": 40.35576906970849, "lng": -4.343343130291503}}}, "icon": "https://maps.gstatic.com/mapfiles/place_api/icons/v1/png_71/generic_business-71.png", "icon_background_color": "#7B9EB0", "icon_mask_base_uri": "https://maps.gstatic.com/mapfiles/place_api/icons/v2/generic_pinlet", "international_phone_number": "+34 918 64 53 86", "name": "Motos Vázquez", "opening_hours": {"open_now": false}, "photos": [{"height": 1152, "html_attributions": ["<a href=\"https://maps.google.com/maps/contrib/116325538947982650997\">Motos Vázquez</a>"], "photo_reference": "AWn5SU4P7Qq89t-A6YZjIwZFumIOJ0ElKllBA4HGdWjQeDVet-kgUMFZ-8UI0Kxxw6zEo2KwOhaHnBOXYn5bfyxciE9A9L5KQm_6jH4s9p9jfBXl3omN-QLyzXtyaljZnrrft839_wckbx2HM6LuHwysY0Y_0PYMqbip0FQZlw7N6jsCdm-wwgE8lHikTcJ3x1SAuO0yfiRefjb47vUpKdVxGOpKs-Bwr1bcBSk_hOFy42hCV2sHljqrMzT9MYj5yRzF0dxe23a0rnoGUX17J72A1diiJMSpWaNrHe2pj4-cDGNOPdwVehrmx0XBx3cdW7wVvYaiJeCSMdo", "width": 2048}], "place_id": "ChIJZ1eGrSWyQQ0RqEByjxbr5y0", "plus_code": {"compound_code": "9M45+V5 Pelayos de la Presa, Spain", "global_code": "8CGQ9M45+V5"}, "rating": 4.5, "reference": "ChIJZ1eGrSWyQQ0RqEByjxbr5y0", "scope": "GOOGLE", "types": ["car_repair", "point_of_interest", "establishment"], "user_ratings_total": 61, "vicinity": "Calle del Hilero, 12, Pelayos de la Presa"}, {"business_status": "OPERATIONAL", "geometry": {"location": {"lat": 40.3626967, "lng": -4.3283451}, "viewport": {"northeast": {"lat": 40.3639232302915, "lng": -4.327223519708499}, "southwest": {"lat": 40.3612252697085, "lng": -4.329921480291503}}}, "icon": "https://maps.gstatic.com/mapfiles/place_api/icons/v1/png_71/civic_building-71.png", "icon_background_color": "#7B9EB0", "icon_mask_base_uri": "https://maps.gstatic.com/mapfiles/place_api/icons/v2/civic-bldg_pinlet", "international_phone_number": "+34 918 64 60 94", "name": "Consultorio Pelayos de la Presa", "opening_hours": {"open_now": false}, "photos": [{"height": 4312, "html_attributions": ["<a href=\"https://maps.google.com/maps/contrib/105797583258563976148\">Juan Carlos Romano Bajo</a>"], "photo_reference": "AWn5SU6YArqwctCsRJjM7zPIsMIiRclq7UFVjyGWip7JAp5aa6tB-FofacVsj4qlWj_HRQVxVgm_Sayl2hlZwmx5WfVYXQM_9hF93pOpt56CB4FQHKrlEop-WzxSOMq47KhqkVvCz1lM4qBWFLIJXxMoqPZ-5l4OsUm7OhB3y2xAihZV_EPZObbh-LrxhzhsUPXuC30bSpXf2udyjeDWnZCPW7SWcfA9jCGJQOUfptSkICXynePNiKUSscmHw91n2WBp1sis_H2aqO_cEoxtJiyIp0zlFGrR-mpg_KgOwDoYZy-ZsBNcodzDamrDbJyS4PaDNZk5_aclYR3voOO2GrlpdbWdQWT37RRC9fNQfSaMS1JDiNF7j3895vsRvKYg5gJpNOMwdsYATPyBxiwRwLmBZowyLY466zA01S2CR0UTw4RCx3aPbCCSaco96yt13DHgGZ0RYgtM4LDhrUwWKAlFeE4xto2n7QmgWuqMP5AdyUs45_Yp9KDX0IbL8NB85bpNLeaRtP1cwnXKOTkkPCCg_bDUSvNpjP8hzDOowxERI1Y3XwHvOK_Soi7ZHmJ6JE7nbPE2bnwmlhm1Lq3uVCKaK7LSGZIxlc9cdm_g5343KfqgDppG8X4dw8n-hDsDBNCeKJLn9Q", "width": 5760}], "place_id": "ChIJRe-N4iSyQQ0RjfUg2R63bGo", "plus_code": {"compound_code": "9M7C+3M Pelayos de la Presa, Spain", "global_code": "8CGQ9M7C+3M"}, "rating": 3.5, "reference": "ChIJRe-N4iSyQQ0RjfUg2R63bGo", "scope": "GOOGLE", "types": ["health", "point_of_interest", "establishment"], "user_ratings_total": 12, "vicinity": "Avenida Doctor Arquitecto García Benito, 1, Avenida del Arquitecto García Benito, 1, Pelayos de la Presa"}, {"business_status": "OPERATIONAL", "geometry": {"location": {"lat": 40.356048, "lng": -4.343886900000001}, "viewport": {"northeast": {"lat": 40.35741768029149, "lng": -4.342616519708498}, "southwest": {"lat": 40.35471971970849, "lng": -4.345314480291503}}}, "icon": "https://maps.gstatic.com/mapfiles/place_api/icons/v1/png_71/generic_business-71.png", "icon_background_color": "#7B9EB0", "icon_mask_base_uri": "https://maps.gstatic.com/mapfiles/place_api/icons/v2/generic_pinlet", "international_phone_number": "+34 918 64 42 83", "name": "Telvicant Pelayos S.L.", "opening_hours": {"open_now": false}, "place_id": "ChIJT8SdPTeyQQ0R84up_NmcD8k", "plus_code": {"compound_code": "9M44+CC Pelayos de la Presa, Spain", "global_code": "8CGQ9M44+CC"}, "rating": 3.2, "reference": "ChIJT8SdPTeyQQ0R84up_NmcD8k", "scope": "GOOGLE", "types": ["point_of_interest", "establishment"], "user_ratings_total": 27, "vicinity": "Calle del Hilero, 7, Pelayos de la Presa"}, {"business_status": "OPERATIONAL", "geometry": {"location": {"lat": 40.3630055, "lng": -4.328660199999999}, "viewport": {"northeast": {"lat": 40.36428383029149, "lng": -4.327269769708497}, "southwest": {"lat": 40.3615858697085, "lng": -4.329967730291502}}}, "icon": "https://maps.gstatic.com/mapfiles/place_api/icons/v1/png_71/school-71.png", "icon_background_color": "#7B9EB0", "icon_mask_base_uri": "https://maps.gstatic.com/mapfiles/place_api/icons/v2/school_pinlet", "international_phone_number": "+34 918 64 52 47", "name": "Colegio Público Río Alberche", "opening_hours": {"open_now": false}, "place_id": "ChIJ014bLjqyQQ0RDu9-zERREQo", "plus_code": {"compound_code": "9M7C+6G Pelayos de la Presa, Spain", "global_code": "8CGQ9M7C+6G"}, "reference": "ChIJ014bLjqyQQ0RDu9-zERREQo", "scope": "GOOGLE", "types": ["school", "point_of_interest", "establishment"], "vicinity": "Avenida Arquitecto Mariano García Benito, 1, Pelayos de la Presa"}, {"business_status": "OPERATIONAL", "geometry": {"location": {"lat": 40.3652182, "lng": -4.3417321}, "viewport": {"northeast": {"lat": 40.3665059802915, "lng": -4.340565819708497}, "southwest": {"lat": 40.3638080197085, "lng": -4.343263780291502}}}, "icon": "https://maps.gstatic.com/mapfiles/place_api/icons/v1/png_71/restaurant-71.png", "icon_background_color": "#FF9E67", "icon_mask_base_uri": "https://maps.gstatic.com/mapfiles/place_api/icons/v2/restaurant_pinlet", "international_phone_number": "+34 918 64 55 16", "name": "El Mirador de Pelayos", "opening_hours": {"open_now": false}, "photos": [{"height": 809, "html_attributions": ["<a href=\"https://maps.google.com/maps/contrib/101633668945106068249\">El Mirador de Pelayos</a>"], "photo_reference": "AWn5SU5H86Abbw97X1ty_U7J0UuDhKArq3-wcEE7TSjHDFOko8hqT-R4BEPpVGDgnFr5oFfjXlzzDC2kRxedEUWr1z4h7EVIenXEoBl_k0GkbAPH2fY2jzZkstuWNbPYxIYiEUJPT0PlMQoOHsK-oIrlYyuXt10f6woAWac5aDe_wUpHoqHjlqCLDuZWyPjwDSGXZR-SLHjd2QiRQEc0AjOMFkf3ZG6RRqeB0jQRsEJUtdT0WWCF9iEjemj_xp-Mo19PYEYzHupNMBqJz7I1Kq0ZqRtvmjR96Rw65sHbNIWMxfdei9gPYUJFFQrNF-6ybcJKYR3vZf_PiV4", "width": 1440}], "place_id": "ChIJ3ystK0KyQQ0RQnWziSQrnoE", "plus_code": {"compound_code": "9M85+38 Pelayos de la Presa, Spain", "global_code": "8CGQ9M85+38"}, "price_level": 1, "rating": 4.3, "reference": "ChIJ3ystK0KyQQ0RQnWziSQrnoE", "scope": "GOOGLE", "types": ["restaurant", "point_of_interest", "food", "establishment"], "user_ratings_total": 925, "vicinity": "Avenida del Mirador, 62, Pelayos de la Presa"}, {"business_status": "OPERATIONAL", "geometry": {"location": {"lat": 40.3579538, "lng": -4.3402817}, "viewport": {"northeast": {"lat": 40.35935858029151, "lng": -4.338951819708498}, "southwest": {"lat": 40.35666061970851, "lng": -4.341649780291503}}}, "icon": "https://maps.gstatic.com/mapfiles/place_api/icons/v1/png_71/generic_business-71.png", "icon_background_color": "#7B9EB0", "icon_mask_base_uri": "https://maps.gstatic.com/mapfiles/place_api/icons/v2/generic_pinlet", "international_phone_number": "+34 918 64 40 73", "name": "Talleres Tomás e Hijos", "place_id": "ChIJOQpj2UiyQQ0RJ-7bpDWFFJ0", "plus_code": {"compound_code": "9M55+5V Pelayos de la Presa, Spain", "global_code": "8CGQ9M55+5V"}, "rating": 4.5, "reference": "ChIJOQpj2UiyQQ0RJ-7bpDWFFJ0", "scope": "GOOGLE", "types": ["car_repair", "point_of_interest", "establishment"], "user_ratings_total": 30, "vicinity": "Avenida de Marcial Llorente, 63, Pelayos de la Presa"}, {"business_status": "OPERATIONAL", "geometry": {"location": {"lat": 40.3636406, "lng": -4.3224421}, "viewport": {"northeast": {"lat": 40.3650091302915, "lng": -4.321006469708498}, "southwest": {"lat": 40.3623111697085, "lng": -4.323704430291502}}}, "icon": "https://maps.gstatic.com/mapfiles/place_api/icons/v1/png_71/shopping-71.png", "icon_background_color": "#4B96F3", "icon_mask_base_uri": "https://maps.gstatic.com/mapfiles/place_api/icons/v2/shopping_pinlet", "international_phone_number": "+34 918 64 41 07", "name": "Nautimotor", "opening_hours": {"open_now": false}, "photos": [{"height": 450, "html_attributions": ["<a href=\"https://maps.google.com/maps/contrib/100493128868789114704\">Nautimotor</a>"], "photo_reference": "AWn5SU6_WG0yV9tzueRFpf194iRWg0HEXl8K2ILkDRy08iPfVGyNp0z_U6nSLMdzpSIk_025iNyZLNwgPlv_XeGJzTfuAhdGANmqqum4S1gaBH7Hz5-CWofnDpUXZn5mHkAtrAX-DWOZOjrvDdHJqe9efQHuXMwiLJqSvVG6hEy6UeiX4x4P_CoMjZrh0CEEfwce-zIL_5ul8vEYZ4K6q9uW9F7ryyqifxrNn-Ci7QBMtY4oo4nCQ2aI5F5H68EHPJnDAXuYU0qXN3m6OYf99QwCCdt5_btKua01y3A9kP-96xgCvUHvcz3SLIT86t4e9JLqwPzHVzfbNcs", "width": 900}], "place_id": "ChIJP9Z5qSWyQQ0Ry1IMOwQUASI", "plus_code": {"compound_code": "9M7H+F2 Pelayos de la Presa, Spain", "global_code": "8CGQ9M7H+F2"}, "rating": 4.1, "reference": "ChIJP9Z5qSWyQQ0Ry1IMOwQUASI", "scope": "GOOGLE", "types": ["store", "point_of_interest", "establishment"], "user_ratings_total": 27, "vicinity": "Avenida de Marcial Llorente, 50, Pelayos de la Presa"}, {"business_status": "OPERATIONAL", "geometry": {"location": {"lat": 40.36128009999999, "lng": -4.3281392}, "viewport": {"northeast": {"lat": 40.36256303029149, "lng": -4.326690919708498}, "southwest": {"lat": 40.35986506970849, "lng": -4.329388880291503}}}, "icon": "https://maps.gstatic.com/mapfiles/place_api/icons/v1/png_71/generic_business-71.png", "icon_background_color": "#7B9EB0", "icon_mask_base_uri": "https://maps.gstatic.com/mapfiles/place_api/icons/v2/generic_pinlet", "international_phone_number": "+34 918 64 44 04", "name": "Cerrajería Pelayos Ventanas de aluminio y PVC", "opening_hours": {"open_now": false}, "photos": [{"height": 4032, "html_attributions": ["<a href=\"https://maps.google.com/maps/contrib/109182621275669432968\">Sergio Serrano valle</a>"], "photo_reference": "AWn5SU5ystXLacHZ8QuUKdJXRD32X0VhFKWmu_9uVhA6ICcmdBG_CfpgvzdBxUclZ6jRVZKokcyrJnZ3gHpKYd8DXGFRc5xy8OpgRBH47skEY_fibOHvjbgymw99FOmFTEiTHyzbfd8Zvknkpvz3wIxM_NbPlSm0WPHtRAROy5oaSgq7n7iul9R2Zn8OfpR3lfrSo71qlcZIKC1XEX5SKnC2aYCZvPQf2aqw6IE-xsBcMswfmSb-QwfgKTkmSjSYyR6fyYJxzRqOqBDIZ5_uhoX0DmzbsCUTQ9AoLn78FY3r1lxtF8GJG9ebvRwUl5R6n0yBtosWVgUs2u4gh5IJrcZrgllekGC0YG12YwDYt6rocSPDNsZg-m0aKp0CpWoHA7BrgHGMh8dGEY8dNMcqJk8lkZ-6yfozy5WM-cp1XeNV82w7U3CT4BS0AMIGDaPbvSMr289610llOz28IUQCgvKR0ywECKwMRDxYSfAiD5CHsWfbAlgq5fuvyVfFstKBZADGL9F2k12nVSFziL2KOKQjVNRgcydtLE6NiM1EuJ5809gNaWWb2BmNYEwrITjRx4ebjbq9wttOeHHFAQH6vqVh-Btcuqvui34FCjjbkkmhjw7NYXn1cODVS9ECcqM-yQcczn5iBg", "width": 3024}], "place_id": "ChIJ-z8MnzCyQQ0RrOTgmjo4FSA", "plus_code": {"compound_code": "9M6C+GP Pelayos de la Presa, Spain", "global_code": "8CGQ9M6C+GP"}, "rating": 3.6, "reference": "ChIJ-z8MnzCyQQ0RrOTgmjo4FSA", "scope": "GOOGLE", "types": ["locksmith", "point_of_interest", "establishment"], "user_ratings_total": 16, "vicinity": "Avenida de Marcial Llorente, 78, Pelayos de la Presa"}, {"business_status": "OPERATIONAL", "geometry": {"location": {"lat": 40.35938400000001, "lng": -4.335323}, "viewport": {"northeast": {"lat": 40.36071348029149, "lng": -4.333965769708497}, "southwest": {"lat": 40.35801551970849, "lng": -4.336663730291502}}}, "icon": "https://maps.gstatic.com/mapfiles/place_api/icons/v1/png_71/generic_business-71.png", "icon_background_color": "#7B9EB0", "icon_mask_base_uri": "https://maps.gstatic.com/mapfiles/place_api/icons/v2/generic_pinlet", "name": "Radio 21", "photos": [{"height": 1368, "html_attributions": ["<a href=\"https://maps.google.com/maps/contrib/105204969663475307570\">Gabriel Gil Palicio</a>"], "photo_reference": "AWn5SU7e6ItwMf71ra4zVktz5tWn6mJTNiq1oHgR2xhJl4j5fbWrfyaSEXFjhnu0uc1w7Fr5njcC15td1dUmf93131V0nvmWJHCufysr-ScpcXyxZqt1DekChmr912sLNqZihSc0g2fJOWogtnu5hpMIPWZXdc2N-OFCyZ-1z1_mMcxeSme00KutsDL9hp_9E-33Dic3VKLh0D1eYkiLCSk_osXf_KtQ1wNlo_VdvOTGjkgKUsvrzYv81xEzudUvZzoN3IA7rkwEC-7ThRGno4RDDxh6tlNflzLZ1vCqHiWI6rSb5fJMi6_WZOSYiE5cduYuYSSxhMAzOaguw14oHuuiP9RshjzPpgFzwmzfDJf3vNnGHh1pMjw8fx5Axk-Xz94RMyN5-1TbofBJioBF7QBkjb9GxNFaofEtaBqyLev75n71iv9O88iY-3J9JJkWFKS3cqR9_lzbovRIwyUlQM0IIvNukem_QswY8db3zpLjz0AZ2CYx0yZR402RTT3Ki8126BQb_sWtbzf5uaQDwxAgLWvwhFuRwSxrxCCwLsn0DAk6Pym4b16w_InwCDDSNnH-VG-1Os4gb-i6PGPXavXJKX9kWO6Sb_JYr_zSY7zNXwUi3KSy3493PDm3qnw9BvJW0MzIBA", "width": 1577}], "place_id": "ChIJA1PuD0SyQQ0RcCM-7Gjvr7Y", "plus_code": {"compound_code": "9M57+QV Pelayos de la Presa, Spain", "global_code": "8CGQ9M57+QV"}, "rating": 5, "reference": "ChIJA1PuD0SyQQ0RcCM-7Gjvr7Y", "scope": "GOOGLE", "types": ["point_of_interest", "establishment"], "user_ratings_total": 3, "vicinity": "Avenida del Mirador, 16, Pelayos de la Presa"}, {"business_status": "OPERATIONAL", "geometry": {"location": {"lat": 40.35759479999999, "lng": -4.3213536}, "viewport": {"northeast": {"lat": 40.3589405802915, "lng": -4.320018619708498}, "southwest": {"lat": 40.35624261970851, "lng": -4.322716580291503}}}, "icon": "https://maps.gstatic.com/mapfiles/place_api/icons/v1/png_71/generic_business-71.png", "icon_background_color": "#7B9EB0", "icon_mask_base_uri": "https://maps.gstatic.com/mapfiles/place_api/icons/v2/generic_pinlet", "international_phone_number": "+34 918 64 40 08", "name": "Agua Pura y Sana", "opening_hours": {"open_now": false}, "photos": [{"height": 1536, "html_attributions": ["<a href=\"https://maps.google.com/maps/contrib/113637024481754697002\">Isaac Martinez Gomez</a>"], "photo_reference": "AWn5SU67WRmNqfFwhR1Y90uT9V23QWdUW0dJfAEC33jUqqLUTU6UOnnOhs7i2XiFePxArf2utjtzlbO5ZoHfCVfTQBBxoWgrj7_AuRrhKmjZFdvEIrQZ3Rn7mKa4b0050wQYGMUWzKaNNYLoEwFFiDE-dV-vzRvcQync-dzBor44QXVD-XDZ56Tkkcdse0fahA8iCFVsEZDUfbPaWsWxT0MmMLLxFYFep-9YlMtbcQXVHaFRGb5MvY2PSmg2AstTVsZyuVrm0Y6FFKx-zRVxnHA2Qd3jjSs7MKzNp9qPIf1pcxsD88YlIJcJ9-t-D6F4m6FSJb8jkW0-IXtuBoDhEHFvEa-rm4qX-uCQ3SwLCwtUqLWonETq1SZT3jHtt1O46Gz71tw08loN62eTIUFdXmLDXNl4V1_vdHhLb6B73mrU9x2Uoq4cmU7bvqFHawU3RK1UbZrmBF7xzxXovJ-9-qEAhVR4nXjAmb0ZSuHP9v1DQRaME6VFp1Wxy7YVdZHyQ5XRVTA19xyeH46ZDwqBljTPnOUCWN89fAaD-0GASzqthHN9vvUMdVMh_Wyj2cO94mHHdAnn3MXRt0lqmzDFzAAIm0R-68Kf0MKl5PT9ebp4CVbdAo0as8mdRqC608LqxoSpjLSjdw", "width": 2048}], "place_id": "ChIJkcPRtyCyQQ0R1e9JlsnuJ68", "plus_code": {"compound_code": "9M5H+2F Pelayos de la Presa, Spain", "global_code": "8CGQ9M5H+2F"}, "rating": 2.6, "reference": "ChIJkcPRtyCyQQ0R1e9JlsnuJ68", "scope": "GOOGLE", "types": ["point_of_interest", "establishment"], "user_ratings_total": 11, "vicinity": "Calle del Pino, 13, Pelayos de la Presa"}, {"business_status": "OPERATIONAL", "geometry": {"location": {"lat": 40.3589492, "lng": -4.3345272}, "viewport": {"northeast": {"lat": 40.36028313029149, "lng": -4.333136569708499}, "southwest": {"lat": 40.35758516970849, "lng": -4.335834530291503}}}, "icon": "https://maps.gstatic.com/mapfiles/place_api/icons/v1/png_71/shopping-71.png", "icon_background_color": "#4B96F3", "icon_mask_base_uri": "https://maps.gstatic.com/mapfiles/place_api/icons/v2/shopping_pinlet", "international_phone_number": "+34 918 64 78 56", "name": "MONTERO", "opening_hours": {"open_now": false}, "photos": [{"height": 2160, "html_attributions": ["<a href=\"https://maps.google.com/maps/contrib/100491884548584493551\">Raúl Fernández López</a>"], "photo_reference": "AWn5SU5q81uIvU47CJCm-79GOdtYJ-cW8mBPLIPV7NE5BPKuYh_S3CjwYrNnOSkSEVa5tskHniSp3rjF0Gcg1bWVTwwYR3v9Bv2kBxINLZAeS0S_6a1wUlD46lItO7BtGkSyPLbY_gcCqopZfnC2QMh6oQMTNbyDCsTz2V8Vi_qB7N9fHdHPVDN8BmRPxclGa_L2MtJrro61XN4X9EcrgfdpdRZOl0XrN14VO1Y-qItd4ghvVnl1fe5yhqEL9r017Cn94UHWoUHtLQz1jJb1M1nMGAcJqSUVPhDGndkj_MBt60lp0mDsQ5I8vO_VFUExHlucua45EgD1RqLdExk0DYlLyh2-FzZBDMftYJOCYwW8Wo0HEieEdPyqcKVSC-CD9yXOJaqtbtQzoYLr24OBHKzmtw4vd6T1rDdEhM2TsVF_HtMfMrRgYfrdA2svbfKS5uvmVcP6BxLdnCtqg0tEUKZPjL9_SswuEGNRmipX-_FZ7Oc2pAEtuT_MT5X6VORTBnncBC4XpWRxFAVmTGJ8kcBMCwwjvMsC-e6Zr-xDNZWqdunfmfHCwF4AseY2i_e_06WOQPl-gMNYN8yFENrlI66NcHOikcmjx6T8OlhGlYBly2vJsoHpKYDnxi_iXVjvYxmyC6Zjqg", "width": 3840}], "place_id": "ChIJh2iSvTeyQQ0ReUNHz6aAyAA", "plus_code": {"compound_code": "9M58+H5 Pelayos de la Presa, Spain", "global_code": "8CGQ9M58+H5"}, "rating": 4.9, "reference": "ChIJh2iSvTeyQQ0ReUNHz6aAyAA", "scope": "GOOGLE", "types": ["store", "point_of_interest", "food", "establishment"], "user_ratings_total": 99, "vicinity": "Plaza del Ayuntamiento, 4, Pelayos de la Presa"}, {"geometry": {"location": {"lat": 40.3786431, "lng": -4.344831699999999}, "viewport": {"northeast": {"lat": 40.38742632489051, "lng": -4.339987828821955}, "southwest": {"lat": 40.37479976883903, "lng": -4.35956905669999}}}, "icon": "https://maps.gstatic.com/mapfiles/place_api/icons/v1/png_71/geocode-71.png", "icon_background_color": "#7B9EB0", "icon_mask_base_uri": "https://maps.gstatic.com/mapfiles/place_api/icons/v2/generic_pinlet", "name": "Ciudad San Ramon", "photos": [{"height": 1840, "html_attributions": ["<a href=\"https://maps.google.com/maps/contrib/117825065313973580919\">Diana Arderíus</a>"], "photo_reference": "AWn5SU71kQJ8CuJD2tZvalZLRS_3UbQBC-NK6WU-Vcgzb_fEoC6bN6_kqWVtSgCKbb-xHs_vlGH5Vw1Dyccn5dPGfdMl8apIjwNAX3L2A-Vmxb7I_mm3H2729UbaYXyPs2DOMOWzOQB01JGVEMgMNXZyN7lG3C0LgAnhPmPi95HooVphEryR7NW4bU7M9RADemxJuaqOtEtA09bfvhkm4knMszvzr43K1APSr5zIplTW4olhx1iC6tzHTijOXYG82OWluFX1qLMhIeTBZQ22DoEPHPOUrHH-qQPQC1jDXhH1V97Hd79HBwPiRCcRAk6a0lZV7VcTJz-J4jKeFPcao0_jhlFKdVao04-CivCzFSCwrFCu_Vf4WkTceiEA3mZoMrglzTkwaJmJtpZvNgEyEoI7TxZmqh4waQWilbTHha3aIFmE2KzdDLiqeeNm0QyDKSFBZcIXA76DKk38v7eO_nvlzz3KIDVMK7Ya_INnW8gu3iGT6YnEd400D2I2WziYO_ofQYD0W0AN85SaYH4eB1Qdibp7zGgLFoa7WuebV6Yh0W4xt_Ebv4KjaZJZKh4lq5wOzvBXQPcEChoZxZT3RK8uzbyjRRy4UYHmJM7TthJxP9-gIAV5LsatZPfovMnv2NAZ8muzsxri", "width": 3264}], "place_id": "ChIJicfzYGWyQQ0RNdhHIsq6uxI", "reference": "ChIJicfzYGWyQQ0RNdhHIsq6uxI", "scope": "GOOGLE", "types": ["locality", "political"], "vicinity": "Ciudad San Ramon"}]