[{"business_status": "OPERATIONAL", "geometry": {"location": {"lat": 40.59630490000001, "lng": -3.4959466}, "viewport": {"northeast": {"lat": 40.59770043029151, "lng": -3.494600269708498}, "southwest": {"lat": 40.59500246970851, "lng": -3.497298230291502}}}, "icon": "https://maps.gstatic.com/mapfiles/place_api/icons/v1/png_71/bank-71.png", "icon_background_color": "#909CE1", "icon_mask_base_uri": "https://maps.gstatic.com/mapfiles/place_api/icons/v2/bank-intl_pinlet", "international_phone_number": "+34 916 28 25 97", "name": "BBVA", "opening_hours": {"open_now": false}, "photos": [{"height": 720, "html_attributions": ["<a href=\"https://maps.google.com/maps/contrib/114738695419741946657\">BBVA</a>"], "photo_reference": "AWn5SU4V82pvA_Srb_dOtu0jUHaw8ex12Q5gjwfOtg5xmJvLuaruo_D5CK9-ddY3Ak3lPqbe0XpuJp-Mcmff9NPxZtlsQ0clKIZK9ktwu1IfzzbxHLOcPz37W2899WjQ3L_ER-hSRQUNQDO0A8jP3dBxR5Hz7SKBPd_exJ24B0yeCIkL-f4H5z0GXhTl-CVisqjgG2v0Xk216d2V7G6Hh6HcDjjR0rOTE0djJw9B2a6lEvFvbTK2LxFhK9oDeRjqUC772-Iq2Lm-5OUPsLhiIF3Zq7Mh7FP_Gdy61MXj-P3fZsWf_maius7FV4-ueXUuYfpVRyV2JMsM", "width": 1280}], "place_id": "ChIJpczDRFnLQw0R6BAL4_awIew", "plus_code": {"compound_code": "HGW3+GJ Algete, Spain", "global_code": "8CGRHGW3+GJ"}, "rating": 2.3, "reference": "ChIJpczDRFnLQw0R6BAL4_awIew", "scope": "GOOGLE", "types": ["bank", "atm", "accounting", "finance", "point_of_interest", "establishment"], "user_ratings_total": 47, "vicinity": "Calle San Roque, 14, Algete"}, {"business_status": "OPERATIONAL", "geometry": {"location": {"lat": 40.5967632, "lng": -3.5023226}, "viewport": {"northeast": {"lat": 40.5979802802915, "lng": -3.500895269708498}, "southwest": {"lat": 40.59528231970851, "lng": -3.503593230291502}}}, "icon": "https://maps.gstatic.com/mapfiles/place_api/icons/v1/png_71/bank-71.png", "icon_background_color": "#909CE1", "icon_mask_base_uri": "https://maps.gstatic.com/mapfiles/place_api/icons/v2/bank-intl_pinlet", "international_phone_number": "+34 916 29 08 20", "name": "Banco Santander", "opening_hours": {"open_now": false}, "photos": [{"height": 720, "html_attributions": ["<a href=\"https://maps.google.com/maps/contrib/107474891115777848601\">Banco Santander</a>"], "photo_reference": "AWn5SU5698kN87XHOMytsnswEMco3vMuS-TvFwO_HSIDiwPC0PNg_-9yB1kiqovvVAtEC5duq-8GXDGmq7h_I2bRppqE4KjQb7JRt-HMG17WAW6MX4BjVgAzV5wz4lzdF75GloMjGjRogFXlPbFjteWt0rG3F_whl9aw3JmxiCdMLq0_kfwxhsCnJ6l-oLwjK6lBdyPoa8WTpsotEU5eqtAfOcrT8KvJQrB5Oz10BXDK-xCRq_Tr-DknZEDmWfsh8p8yNJ96nlic9lWerUbjGSQAiyzwTzUAJgOyRvEzirr6aby_vrxg4dWw7b-QYauar9_oaK0OBTdBLyM", "width": 1280}], "place_id": "ChIJNywAMqfMQw0RRoCyPTmBGhw", "plus_code": {"compound_code": "HFWX+P3 Algete, Spain", "global_code": "8CGRHFWX+P3"}, "rating": 2, "reference": "ChIJNywAMqfMQw0RRoCyPTmBGhw", "scope": "GOOGLE", "types": ["bank", "atm", "finance", "point_of_interest", "establishment"], "user_ratings_total": 31, "vicinity": "Calle Mayor, 48, Algete"}, {"business_status": "OPERATIONAL", "geometry": {"location": {"lat": 40.62986799999999, "lng": -3.474114}, "viewport": {"northeast": {"lat": 40.63120713029149, "lng": -3.472698819708498}, "southwest": {"lat": 40.62850916970849, "lng": -3.475396780291502}}}, "icon": "https://maps.gstatic.com/mapfiles/place_api/icons/v1/png_71/bank-71.png", "icon_background_color": "#909CE1", "icon_mask_base_uri": "https://maps.gstatic.com/mapfiles/place_api/icons/v2/bank-intl_pinlet", "international_phone_number": "+34 600 40 40 90", "name": "CaixaBank", "opening_hours": {"open_now": false}, "photos": [{"height": 1192, "html_attributions": ["<a href=\"https://maps.google.com/maps/contrib/100668772780609606703\">CaixaBank</a>"], "photo_reference": "AWn5SU49XztRgc9hV49ETvplM8LRh9WsDR4XVMZeUkQOPgI5Mo4EAAnuANCz_eAeygMHlIc6S6NgEDUyNFzWFya-OfW6ubTmyRiy-ZPDdzmEPy4ZFvlYGpssvWBL5GetT0t2cruO_prdOPRdOIKEyD2DU8IazJpe4DQYOZDWZCrKf_yKJ12g7-tavnyBFDwtKEugIJXeB6_Xn2G9g9inwwm9bqxKCWeNVuLor7usoRkSvic8j8PYhUUGmP3J2-0IKlmWLdNxb-VGmgG0-Z2C8mCO3E5RvQFgtG-1oi0HSO3MCxjANiJvNzoyGhBDJ-CpNm3G0neBKGqLRRY", "width": 2120}], "place_id": "ChIJcclwaaTLQw0RJp2PEB5GeyM", "plus_code": {"compound_code": "JGHG+W9 Alalpardo, Spain", "global_code": "8CGRJGHG+W9"}, "rating": 1.8, "reference": "ChIJcclwaaTLQw0RJp2PEB5GeyM", "scope": "GOOGLE", "types": ["bank", "finance", "point_of_interest", "establishment"], "user_ratings_total": 20, "vicinity": "Calle de Carlos Martín Álvarez, 21, Alalpardo"}, {"business_status": "OPERATIONAL", "geometry": {"location": {"lat": 40.6341109, "lng": -3.5109653}, "viewport": {"northeast": {"lat": 40.6355129802915, "lng": -3.509634369708498}, "southwest": {"lat": 40.6328150197085, "lng": -3.512332330291501}}}, "icon": "https://maps.gstatic.com/mapfiles/place_api/icons/v1/png_71/bank-71.png", "icon_background_color": "#909CE1", "icon_mask_base_uri": "https://maps.gstatic.com/mapfiles/place_api/icons/v2/bank-intl_pinlet", "international_phone_number": "+34 600 40 40 90", "name": "CaixaBank", "opening_hours": {"open_now": false}, "photos": [{"height": 1192, "html_attributions": ["<a href=\"https://maps.google.com/maps/contrib/116848951216996750766\">CaixaBank</a>"], "photo_reference": "AWn5SU5BsrQ9risu3Ye8c5GwHKrg2XK9WYuNb01OKXLtGi2WWW1QvN0XdFiq-944aB6FhlO0isPVUC15mF-hgz7nl-HN_ikyBtuM2SvYW6ZKTk9Wdz2ChU3-8iWJIehLp14zxmArmXdySl0uIjx9ePjT7rTd-YOJjoAWRUHLucc6v2Jh4gOhv61LupqpPecrjYCTl5zKFM2eh7XM8W9T2xr3eb1j3nu-48TMlSGWxDFAS_P0drlhGVqGcmFwtEtzmhG6m03Qft32sEyxDrfr45ejZ2SCZkZNNpFL6jQuQZlbxcGGDiPA3d8ZQl5R2Ep1Wn7sMSMDwsM7iNw", "width": 2120}], "place_id": "ChIJ8VgHp2_MQw0RIxF-2ggirPo", "plus_code": {"compound_code": "JFMQ+JJ Fuente el Saz de Jarama, Spain", "global_code": "8CGRJFMQ+JJ"}, "rating": 3.3, "reference": "ChIJ8VgHp2_MQw0RIxF-2ggirPo", "scope": "GOOGLE", "types": ["bank", "finance", "point_of_interest", "establishment"], "user_ratings_total": 20, "vicinity": "Avenida de la Alameda, 18, Fuente el Saz de Jarama"}, {"business_status": "OPERATIONAL", "geometry": {"location": {"lat": 40.59662, "lng": -3.49778}, "viewport": {"northeast": {"lat": 40.5979498302915, "lng": -3.496403869708498}, "southwest": {"lat": 40.59525186970851, "lng": -3.499101830291502}}}, "icon": "https://maps.gstatic.com/mapfiles/place_api/icons/v1/png_71/bank-71.png", "icon_background_color": "#909CE1", "icon_mask_base_uri": "https://maps.gstatic.com/mapfiles/place_api/icons/v2/bank-intl_pinlet", "international_phone_number": "+34 916 28 22 92", "name": "Ibercaja Banco", "opening_hours": {"open_now": false}, "photos": [{"height": 900, "html_attributions": ["<a href=\"https://maps.google.com/maps/contrib/106308092379915073457\">Ibercaja Banco</a>"], "photo_reference": "AWn5SU7N7jdg6nnNu35rK3gaHcZHq1jOqlEw79qYQBEWyMhDr5Jkqa5nAygI4jZhHkwURXr9eQVoOKu2biKcxXVI4eY837PfIZ4-RGT4k8M3um5ig_4hvzBW7zt0-dwT4Lzw4Sn97Hz00GbjsrOFQXwhw5tKbLCvf5IcW_KcY7TVts7UNSxJaPcXeyPtQ_FfEeZqbinDdW8qahAgan1hWXF1AISNsjgwRgx3oFZa6f51Yn8gM1ie7LODFW9R9F11S6dRmz2o-cYF8maw4JJTA93xuJWP_yCs3uTPLW0rbkp2nkg7wym1-99ztjWYNOtOqa_qCFnoxwVDJgY", "width": 1600}], "place_id": "ChIJlR4uKFnLQw0RhHEKn5k5WCU", "plus_code": {"compound_code": "HGW2+JV Algete, Spain", "global_code": "8CGRHGW2+JV"}, "rating": 1.9, "reference": "ChIJlR4uKFnLQw0RhHEKn5k5WCU", "scope": "GOOGLE", "types": ["bank", "atm", "accounting", "finance", "point_of_interest", "establishment"], "user_ratings_total": 17, "vicinity": "Calle de la Paloma, 4, Algete"}, {"business_status": "OPERATIONAL", "geometry": {"location": {"lat": 40.6337897, "lng": -3.513020599999999}, "viewport": {"northeast": {"lat": 40.6350938302915, "lng": -3.511768069708498}, "southwest": {"lat": 40.6323958697085, "lng": -3.514466030291501}}}, "icon": "https://maps.gstatic.com/mapfiles/place_api/icons/v1/png_71/bank-71.png", "icon_background_color": "#909CE1", "icon_mask_base_uri": "https://maps.gstatic.com/mapfiles/place_api/icons/v2/bank-intl_pinlet", "international_phone_number": "+34 916 20 30 06", "name": "Banco Santander Agentes", "opening_hours": {"open_now": false}, "photos": [{"height": 720, "html_attributions": ["<a href=\"https://maps.google.com/maps/contrib/105916329266408816520\">Banco Santander Agentes</a>"], "photo_reference": "AWn5SU5Cshz9eCf9z5mfyyg1TlQV9sduEe1ZdWu9Oqq2WI2UD9PLtfX6KVLtqw9dsmVGJ7-GWYClYqDsC1jfyTMAEzUD96fUwCNQdGKDuaLlf7cnWDfxbq1FCDyA69PgrYPmCBEEDxVQq5bZSnPcSKwu68nLmDRmU8vkajbRVEOLOrJ0el6SyR8PQQAQpQzrnOpI6C-w2UXVt5kfM06alcB7XScB6dNLVXigjtk8pyYhUzZsEhNCSjd4uMRDSM4_5cavwdGU3GvbgY3AlxT3Ixhm1Dr40IsdZJnct126DZhCZljq60xpHPnrXGzbLux014ChZ5fGh0j8BNI", "width": 1280}], "place_id": "ChIJQcOkDijNQw0RXVen08ajyJs", "plus_code": {"compound_code": "JFMP+GQ Fuente el Saz de Jarama, Spain", "global_code": "8CGRJFMP+GQ"}, "rating": 1.9, "reference": "ChIJQcOkDijNQw0RXVen08ajyJs", "scope": "GOOGLE", "types": ["bank", "atm", "finance", "point_of_interest", "establishment"], "user_ratings_total": 20, "vicinity": "Plaza de la Villa, 4, Fuente el Saz de Jarama"}, {"business_status": "CLOSED_TEMPORARILY", "geometry": {"location": {"lat": 40.5973195, "lng": -3.4980005}, "viewport": {"northeast": {"lat": 40.5987450302915, "lng": -3.496622969708498}, "southwest": {"lat": 40.5960470697085, "lng": -3.499320930291502}}}, "icon": "https://maps.gstatic.com/mapfiles/place_api/icons/v1/png_71/atm-71.png", "icon_background_color": "#909CE1", "icon_mask_base_uri": "https://maps.gstatic.com/mapfiles/place_api/icons/v2/atm_pinlet", "name": "Punto Nickel - ESTANCO ALGETE-001", "permanently_closed": true, "place_id": "ChIJK_2J5jnLQw0RjyigK9nDUZQ", "plus_code": {"compound_code": "HGW2+WQ Algete, Spain", "global_code": "8CGRHGW2+WQ"}, "reference": "ChIJK_2J5jnLQw0RjyigK9nDUZQ", "scope": "GOOGLE", "types": ["atm", "bank", "finance", "point_of_interest", "establishment"], "vicinity": "Calle de la Paloma, 13, Algete"}, {"business_status": "OPERATIONAL", "geometry": {"location": {"lat": 40.59652399999999, "lng": -3.4962016}, "viewport": {"northeast": {"lat": 40.5978041802915, "lng": -3.494849919708499}, "southwest": {"lat": 40.5951062197085, "lng": -3.497547880291503}}}, "icon": "https://maps.gstatic.com/mapfiles/place_api/icons/v1/png_71/bank-71.png", "icon_background_color": "#909CE1", "icon_mask_base_uri": "https://maps.gstatic.com/mapfiles/place_api/icons/v2/bank-intl_pinlet", "international_phone_number": "+34 916 28 91 20", "name": "Sabadell Bank", "opening_hours": {"open_now": false}, "photos": [{"height": 1080, "html_attributions": ["<a href=\"https://maps.google.com/maps/contrib/110225951859476485380\">Banco Sabadell</a>"], "photo_reference": "AWn5SU7RYClMgcRkTZI3FuwkCsmcJWOTekmvM76iqB_6IKsfvC0UTt3DPG3Fm-rhnnNHcaEVS-m0dL_3q2y3NZ__Q5UpiAQGCvAQhL87ko6dMYZHX9J14b2ppLWZmSPU3YyDb0xNO7YAC5qgDuSoaIdvvo7AR21S7MVGklx5tp2sCD8w3ZbXRoEsP2z9G2VUAHGUut_cr1VzofgyJfvshp9hfmnoxCjg0EZBrtKdnaVH4-jQQHL7wA6Fw4x61NRkh5kbxK3S6e1Ta1H2ht0KSRknxn1YbyQw2CPQ5uOoBlxGyDXo2f-ODk2sFkGBqXgj3tjO1fFdz4yGRkI", "width": 1920}], "place_id": "ChIJCR_HRVnLQw0Rmmi4X8g_dlw", "plus_code": {"compound_code": "HGW3+JG Algete, Spain", "global_code": "8CGRHGW3+JG"}, "rating": 3.3, "reference": "ChIJCR_HRVnLQw0Rmmi4X8g_dlw", "scope": "GOOGLE", "types": ["bank", "atm", "accounting", "finance", "point_of_interest", "establishment"], "user_ratings_total": 60, "vicinity": "Calle San Roque, 9, Algete"}, {"business_status": "OPERATIONAL", "geometry": {"location": {"lat": 40.5967632, "lng": -3.5023226}, "viewport": {"northeast": {"lat": 40.59798783029149, "lng": -3.500937669708498}, "southwest": {"lat": 40.59528986970849, "lng": -3.503635630291502}}}, "icon": "https://maps.gstatic.com/mapfiles/place_api/icons/v1/png_71/bank-71.png", "icon_background_color": "#909CE1", "icon_mask_base_uri": "https://maps.gstatic.com/mapfiles/place_api/icons/v2/bank-intl_pinlet", "international_phone_number": "+34 600 40 40 90", "name": "CaixaBank Store", "opening_hours": {"open_now": false}, "photos": [{"height": 1192, "html_attributions": ["<a href=\"https://maps.google.com/maps/contrib/113610543642465857104\">CaixaBank Store</a>"], "photo_reference": "AWn5SU49zpnreC8w5gb-7hLNbJIKkt1gwX7b4__2vQw4BJn5WEh0VYKyqSLyQrEqpNkqbhafp_bFOad8o43z68T7XeA5FhXKqs-aZiWtJl-EmtenvzbySzXwh0c7KsXWY0TXikX_k4j7CTjy7exIhpwCvTfXyPtOIvuA3A9mI6J2KkoEnHn_lcr1DM5v3SREK03UbpASfRFPUm21vL5Wn3tofjHjnMCuLaOF64HJNYAN64X7Z4DtjHUaHBAXleUUygNo088XPtQcI2abDoCIvfnbcJ_CHcuwhp2XTER0xrIbUYJbOOrgaRfK3WCJkFE2q2ET4H6CGB71AYA", "width": 2120}], "place_id": "ChIJSaARH6nNQw0R6awzRV1Jup0", "plus_code": {"compound_code": "HFWX+P3 Algete, Spain", "global_code": "8CGRHFWX+P3"}, "rating": 1.4, "reference": "ChIJSaARH6nNQw0R6awzRV1Jup0", "scope": "GOOGLE", "types": ["bank", "finance", "point_of_interest", "establishment"], "user_ratings_total": 23, "vicinity": "Calle Mayor, 48, Algete"}]