[{"business_status": "OPERATIONAL", "geometry": {"location": {"lat": 40.72954, "lng": -4.014249100000001}, "viewport": {"northeast": {"lat": 40.7308766302915, "lng": -4.012893269708497}, "southwest": {"lat": 40.7281786697085, "lng": -4.015591230291502}}}, "icon": "https://maps.gstatic.com/mapfiles/place_api/icons/v1/png_71/generic_business-71.png", "icon_background_color": "#7B9EB0", "icon_mask_base_uri": "https://maps.gstatic.com/mapfiles/place_api/icons/v2/generic_pinlet", "international_phone_number": "+34 918 56 04 51", "name": "Clinav", "opening_hours": {"open_now": false}, "photos": [{"height": 4032, "html_attributions": ["<a href=\"https://maps.google.com/maps/contrib/111431877235085834950\">Petro Valverde</a>"], "photo_reference": "AWn5SU5JBqohzymY_YyZJXBDBKDkxRx4-wwKzsvK9qZuxpAg-tQSFn_WK046D8ltyn6vlfKnyM-qVqbA-ohPvOdhzTuAyFBY1m3jAR15uW3XStNdU-P2Ul9Oami0FbU6ahDGec4Ox-o32-sGPZ99OYMqynQgtsX4DvgA5fjFoXbQCoUnKO-wZfI-IMev4gkY_lwFG9iwWbEhh1In_q64QXXrPZ2ariYZAR2coQha0zkg0rzD1ML8qHRFyKpQT_9fHU2nSceJA5PlrC4yWDE79SruKF5vTjE5j-_7xWOpt5luGF0AbokM7rrCDvUlXEFA1dzILuh9B65wVxA-KJ55FxyODZykp05HrIvyKEnzanYNjs6sYb4sQj2sIwf4VOIGNSQAD0tZbgXqeVWhanEMXaHPnfbQa1oYgW81hutbdk1GBsHddiSJqJApYlAKETkdaNAQBuN_yHVhiTRxfLOmRgqHWPci3u4S_hL-DCsaoUztfBX3t2Bca6WhuIIMEuwl0s_tmRl3fw0KZx9P8wsxv4sNKV7ifOf-wVBK2tRnf_0LZcSiK_Hh7sqIFaoh0dzLvrAcqDwYaKV_YbhVJgGtHklGd0T6yLpMMfA0BHejMlOTL8Sls7tWh8LAd_qu57pMgZU7uG2NmA", "width": 3024}], "place_id": "ChIJyxKneZr8ZUARD2eSNFZ4dK8", "plus_code": {"compound_code": "PXHP+R8 Navacerrada, Spain", "global_code": "8CGQPXHP+R8"}, "rating": 4.9, "reference": "ChIJyxKneZr8ZUARD2eSNFZ4dK8", "scope": "GOOGLE", "types": ["point_of_interest", "doctor", "health", "establishment"], "user_ratings_total": 37, "vicinity": "Calle del Cuartel, 9, Navacerrada"}, {"business_status": "OPERATIONAL", "geometry": {"location": {"lat": 40.7212483, "lng": -4.0166648}, "viewport": {"northeast": {"lat": 40.72272528029149, "lng": -4.015345369708498}, "southwest": {"lat": 40.72002731970849, "lng": -4.018043330291501}}}, "icon": "https://maps.gstatic.com/mapfiles/place_api/icons/v1/png_71/generic_business-71.png", "icon_background_color": "#7B9EB0", "icon_mask_base_uri": "https://maps.gstatic.com/mapfiles/place_api/icons/v2/generic_pinlet", "international_phone_number": "+34 918 56 04 51", "name": "Clinav", "place_id": "ChIJkcXRnoltQQ0RJYUcAy6OhFU", "plus_code": {"compound_code": "PXCM+F8 Navacerrada, Spain", "global_code": "8CGQPXCM+F8"}, "rating": 5, "reference": "ChIJkcXRnoltQQ0RJYUcAy6OhFU", "scope": "GOOGLE", "types": ["point_of_interest", "doctor", "health", "establishment"], "user_ratings_total": 2, "vicinity": "Calle del Cuartel, 5, Navacerrada"}, {"business_status": "OPERATIONAL", "geometry": {"location": {"lat": 40.7299105, "lng": -4.0147714}, "viewport": {"northeast": {"lat": 40.7312579802915, "lng": -4.013429019708497}, "southwest": {"lat": 40.7285600197085, "lng": -4.016126980291501}}}, "icon": "https://maps.gstatic.com/mapfiles/place_api/icons/v1/png_71/generic_business-71.png", "icon_background_color": "#7B9EB0", "icon_mask_base_uri": "https://maps.gstatic.com/mapfiles/place_api/icons/v2/generic_pinlet", "international_phone_number": "+34 658 48 76 65", "name": "Clínica Dental Suárez & López Navacerrada", "opening_hours": {"open_now": false}, "photos": [{"height": 694, "html_attributions": ["<a href=\"https://maps.google.com/maps/contrib/118389535947249483543\">Clínica Dental Suárez &amp; López Navacerrada</a>"], "photo_reference": "AWn5SU59fDfx9RHGmGXJVaONN_aSMNh5EDR0ENKPK5azleP11BxDV6OfE2NmvFYO9xGopDFOCKpSRgZSrR1dm4oxEK8WJ98sI0Br1IHtCT7il2p55eTwkw_U6Y3UhMNjiA5veJTLtlu4XgQCzwxs55p3AJhltwJH6ibZhnp6GIA6CbVoMuKBUiaAi9k7zJkvGh-o4KPbYJH7_28XyNWlKgz9Lsmm5zolvwxbhvG9kz7ovz-YlLyszICcVArgwz2lM2a0-zjRCily1fA_gsU4zQLTIrTQGzDkh8eLmANBax0lPqvBEwkocLkW_nniiNlFXu6jP5BN4NkNv38", "width": 850}], "place_id": "ChIJxT_zColtQQ0RBPhDTNfg8ik", "plus_code": {"compound_code": "PXHP+X3 Navacerrada, Spain", "global_code": "8CGQPXHP+X3"}, "rating": 5, "reference": "ChIJxT_zColtQQ0RBPhDTNfg8ik", "scope": "GOOGLE", "types": ["dentist", "point_of_interest", "doctor", "health", "establishment"], "user_ratings_total": 129, "vicinity": "Calle de la Iglesia, 8, Navacerrada"}, {"business_status": "OPERATIONAL", "geometry": {"location": {"lat": 40.7308441, "lng": -4.0124416}, "viewport": {"northeast": {"lat": 40.7323178802915, "lng": -4.010971619708497}, "southwest": {"lat": 40.7296199197085, "lng": -4.013669580291502}}}, "icon": "https://maps.gstatic.com/mapfiles/place_api/icons/v1/png_71/generic_business-71.png", "icon_background_color": "#7B9EB0", "icon_mask_base_uri": "https://maps.gstatic.com/mapfiles/place_api/icons/v2/generic_pinlet", "international_phone_number": "+34 918 42 88 94", "name": "Ips Navacerrada Servicios Integrales S L", "place_id": "ChIJy2TNMoptQQ0Re2bac6Sr9h4", "plus_code": {"compound_code": "PXJQ+82 Navacerrada, Spain", "global_code": "8CGQPXJQ+82"}, "reference": "ChIJy2TNMoptQQ0Re2bac6Sr9h4", "scope": "GOOGLE", "types": ["doctor", "point_of_interest", "health", "establishment"], "vicinity": "Calle Presbítero Blanco, 6, Navacerrada"}, {"business_status": "OPERATIONAL", "geometry": {"location": {"lat": 40.7127235, "lng": -3.995327799999999}, "viewport": {"northeast": {"lat": 40.7141032302915, "lng": -3.994025819708497}, "southwest": {"lat": 40.7114052697085, "lng": -3.996723780291501}}}, "icon": "https://maps.gstatic.com/mapfiles/place_api/icons/v1/png_71/generic_business-71.png", "icon_background_color": "#7B9EB0", "icon_mask_base_uri": "https://maps.gstatic.com/mapfiles/place_api/icons/v2/generic_pinlet", "name": "Rafael Urbina Díez", "place_id": "ChIJsViC1RtyQQ0RJkjy6eA7gMQ", "plus_code": {"compound_code": "P273+3V Becerril de la Sierra, Spain", "global_code": "8CGRP273+3V"}, "reference": "ChIJsViC1RtyQQ0RJkjy6eA7gMQ", "scope": "GOOGLE", "types": ["doctor", "point_of_interest", "health", "establishment"], "vicinity": "Calle de la Reina, 7, Becerril de la Sierra"}]