[{"business_status": "OPERATIONAL", "geometry": {"location": {"lat": 40.597068, "lng": -3.5031038}, "viewport": {"northeast": {"lat": 40.5984375802915, "lng": -3.501511119708498}, "southwest": {"lat": 40.5957396197085, "lng": -3.504209080291502}}}, "icon": "https://maps.gstatic.com/mapfiles/place_api/icons/v1/png_71/park-71.png", "icon_background_color": "#4DB546", "icon_mask_base_uri": "https://maps.gstatic.com/mapfiles/place_api/icons/v2/tree_pinlet", "name": "Parque de los Olivos", "opening_hours": {"open_now": true}, "photos": [{"height": 3096, "html_attributions": ["<a href=\"https://maps.google.com/maps/contrib/109134635897269138778\">sara luis gonzalez</a>"], "photo_reference": "AWn5SU4Wam56ZvcW0AHKRbkJUS-VhVhR9z4LENdySSJgj0CFEh_Ovv-x04EKgJYSE-pIgBFlbRvD2DHjTSZHxr7sfo-vqOuf8N57UmyJW7hXLIXxGQ34spCGo_dBjvVuFdUqvvEoGU8R3FhMlA6XSfzO2OrKMHwAzhMHnWasb0vSH9iLIb5qnkG7jcIoZxCwTqnCSm0P_nnd16Jn66a6_IbSpUTpvz1q9qZN261b3OMUwgRpXD9QbMXjXdQnMEQLk2joI8D2CLGphpQWV0dmIrnO9f0r4AgJyhjSvcOZokQdfl4CDbaVxdWTJMOZ0Wisq7CgwyuJqQkLH1MJcQUA6KASMVyhVMoxceU_Z48raDQIFocex2XDMbsagNILJmn1xB_RTOBKeD3IwZkm_eCAXhnZI0b1_l8zAYdC8AaiTzqLeu5useIuL0F8BNFNp5E2g99oRTvPpA6X5EWMOFbMre6Qhog7L-pmCPcEhw5zwiofRCghwecEKMmVD7wks5wfb1fdxaa9KWerVDjD4R9XLIQAwNhph2_7txzX5FwaQhUEDeamc_SHVudEcQwG10nKt9zI7Xps1pz9vikBF2GyTtQrDMUFLTT9AiP1Z8rdhKUokrYnOOG6DmpasyRqGlw2hPpK", "width": 4128}], "place_id": "ChIJR-ASK6HMQw0RivrvXcXHIIM", "plus_code": {"compound_code": "HFWW+RQ Algete, Spain", "global_code": "8CGRHFWW+RQ"}, "rating": 4, "reference": "ChIJR-ASK6HMQw0RivrvXcXHIIM", "scope": "GOOGLE", "types": ["park", "tourist_attraction", "point_of_interest", "establishment"], "user_ratings_total": 361, "vicinity": "Calle de Valdeamor, 1, Algete"}, {"business_status": "OPERATIONAL", "geometry": {"location": {"lat": 40.6284463, "lng": -3.5834056}, "viewport": {"northeast": {"lat": 40.62976573029149, "lng": -3.582136719708498}, "southwest": {"lat": 40.62706776970849, "lng": -3.584834680291502}}}, "icon": "https://maps.gstatic.com/mapfiles/place_api/icons/v1/png_71/shopping-71.png", "icon_background_color": "#4B96F3", "icon_mask_base_uri": "https://maps.gstatic.com/mapfiles/place_api/icons/v2/shopping_pinlet", "international_phone_number": "+34 916 22 20 00", "name": "Garden Pool Santo Domingo SL", "opening_hours": {"open_now": false}, "photos": [{"height": 1440, "html_attributions": ["<a href=\"https://maps.google.com/maps/contrib/114343852509749708245\">Rafael Meana Garcia</a>"], "photo_reference": "AWn5SU4oLEtqoe6en96mRuf4Lmj48gWP6cx8fa30vBLtJueXu40gyTUT3HXgBIJ_ztsOk_Jj3KFgYYFXZMpw4YjdpqzL0HKosompzLPzN7SJu2HaDuiFy3B7vl70aNFUngeIBgelh-T1W7WHtQeXO70veJQ1khXp6uV5vH2pO5XZUITGtImb6UJM9hA32kpw7cye6o_x0tYm1pKD098zUse9LoPrXFOzgq0FAKCtC5b5VIIc-RqjIvVIOVlzvR9xAg__BEHotpC4OW0wpRKZ27iu0-dADrm4vvawhA4Ti7LMzeYzZdIGGWQexos_4-c32OtmEhJ8NljiF_WJ0tY6COWMUqa5m9xrlip18GXPxalpuGhYuwI_07UGWgIHo42DVRXseNC7aKXstEQf4QzKy2cIzrrQGX335P7Ges7BlCfjaU3SB8JGusU7-PZU6PwSx0VXTXYrfjzXwn0x6I981y0ufrp1lkxgaSYzkiX0-yEBaHHf8uI1UGqeSS5jNBaA8Q3TOV3lsSZCW7oeDjsAT7d4kybQRDW9J27cLhLdRlB740Vs135iT4LRXh0OHWkx2BRnlQex_mDac9VBNufzvRHrvrKAfQchDOrqCBoFVlKJ5SJDHpa4ng0e7rE_J4i6UQ", "width": 2560}], "place_id": "ChIJoSTOgnfSQw0RkmkLUHhmaFg", "plus_code": {"compound_code": "JCH8+9J Santo Domingo, Spain", "global_code": "8CGRJCH8+9J"}, "rating": 4.5, "reference": "ChIJoSTOgnfSQw0RkmkLUHhmaFg", "scope": "GOOGLE", "types": ["hardware_store", "home_goods_store", "park", "point_of_interest", "store", "food", "establishment"], "user_ratings_total": 116, "vicinity": "Avenida del Guadalix, Santo Domingo"}, {"business_status": "OPERATIONAL", "geometry": {"location": {"lat": 40.5807021, "lng": -3.5032783}, "viewport": {"northeast": {"lat": 40.58202823029149, "lng": -3.501999669708498}, "southwest": {"lat": 40.5793302697085, "lng": -3.504697630291502}}}, "icon": "https://maps.gstatic.com/mapfiles/place_api/icons/v1/png_71/park-71.png", "icon_background_color": "#4DB546", "icon_mask_base_uri": "https://maps.gstatic.com/mapfiles/place_api/icons/v2/tree_pinlet", "name": "Lagunas de la Dehesa de Cobeña", "opening_hours": {"open_now": true}, "photos": [{"height": 6000, "html_attributions": ["<a href=\"https://maps.google.com/maps/contrib/113609656489564750304\">Raul Lopez Fernandez</a>"], "photo_reference": "AWn5SU6sI0oOMrwm8DXJzwT3s5lmVycluk1zpaXSWUkkcD8fIEav1HncZROabxJ75za1OV3ae0mp3uFRxG1mUkvS2RKBnwpP9wSVCBQBmcek_BwaO-B3jMNPeekhMt3p9GqfO5f117L9zK7MOUgxByMoCQxH7lX1G2UMSookPESylD-cr7b7DdeqTUrawqH6hjUbXzEMmIwSKx-TeZP3rh06oIbwP-K31U5DgfTtvWeEApRWsJ_iTTQAJr33athpbrZjJhbzNUrCPMfKULY1r-kf1W5qgM4jME4iNSfR0t9vi6HwN1kfIXiBeoYkwCy167RzjMlXs_bVt_vPo-MX3l25xuvn3zLsr6wEM5shhYVaqDos89M5bjvz9ByNmmjmqUhaP0AmdVn--6MIPUajfZLTHBwdLlTVm58ReiRkodF0wx1SLMGMcOoEogNNglznom6DpG2V-4OfWHyHkx_1GDEbSLYu3rMVarutJnBdt838r8oSWcGz1zdlXe8R7mTLm3_cMOC-Ed_TM0_V2rTjX6BHZ7U7B-1EMgJr0NTcK_yajNTFj7kXCSj9Pqxzj2VJLcMqQObRoc3Vv14jLG0ZEZ5MqBZs9HUNNf5J_0jNmCXxf3LfMGgwwgqlpbYcS2vE0Fpg1nLaig", "width": 8000}], "place_id": "ChIJqWZq3FQzQg0RsBD9Lc_7iVI", "plus_code": {"compound_code": "HFJW+7M Cobeña, Spain", "global_code": "8CGRHFJW+7M"}, "rating": 4.3, "reference": "ChIJqWZq3FQzQg0RsBD9Lc_7iVI", "scope": "GOOGLE", "types": ["park", "tourist_attraction", "point_of_interest", "establishment"], "user_ratings_total": 328, "vicinity": "Unnamed Rd, Cobeña"}, {"business_status": "OPERATIONAL", "geometry": {"location": {"lat": 40.6348744, "lng": -3.510612}, "viewport": {"northeast": {"lat": 40.63622318029149, "lng": -3.509321869708498}, "southwest": {"lat": 40.6335252197085, "lng": -3.512019830291502}}}, "icon": "https://maps.gstatic.com/mapfiles/place_api/icons/v1/png_71/park-71.png", "icon_background_color": "#4DB546", "icon_mask_base_uri": "https://maps.gstatic.com/mapfiles/place_api/icons/v2/tree_pinlet", "name": "Banquitos", "place_id": "ChIJc_CnjKnNQw0RIT-Zupzz6rk", "plus_code": {"compound_code": "JFMQ+WQ Fuente el Saz de Jarama, Spain", "global_code": "8CGRJFMQ+WQ"}, "reference": "ChIJc_CnjKnNQw0RIT-Zupzz6rk", "scope": "GOOGLE", "types": ["park", "point_of_interest", "establishment"], "vicinity": "Calle Torrelaguna, 4, Fuente el Saz de Jarama"}, {"business_status": "OPERATIONAL", "geometry": {"location": {"lat": 40.6325669, "lng": -3.5127074}, "viewport": {"northeast": {"lat": 40.63380713029149, "lng": -3.511395969708498}, "southwest": {"lat": 40.63110916970849, "lng": -3.514093930291502}}}, "icon": "https://maps.gstatic.com/mapfiles/place_api/icons/v1/png_71/park-71.png", "icon_background_color": "#4DB546", "icon_mask_base_uri": "https://maps.gstatic.com/mapfiles/place_api/icons/v2/tree_pinlet", "name": "TAPAS", "place_id": "ChIJh8gpdeLNQw0RU-Unb7XlFHU", "plus_code": {"compound_code": "JFMP+2W Fuente el Saz de Jarama, Spain", "global_code": "8CGRJFMP+2W"}, "reference": "ChIJh8gpdeLNQw0RU-Unb7XlFHU", "scope": "GOOGLE", "types": ["park", "point_of_interest", "establishment"], "vicinity": "Calle de Don Lisardo, 1, Fuente el Saz de Jarama"}, {"business_status": "OPERATIONAL", "geometry": {"location": {"lat": 40.64699299999999, "lng": -3.5101677}, "viewport": {"northeast": {"lat": 40.6483315802915, "lng": -3.509170169708498}, "southwest": {"lat": 40.64563361970851, "lng": -3.511868130291502}}}, "icon": "https://maps.gstatic.com/mapfiles/place_api/icons/v1/png_71/park-71.png", "icon_background_color": "#4DB546", "icon_mask_base_uri": "https://maps.gstatic.com/mapfiles/place_api/icons/v2/tree_pinlet", "name": "Cerro Redondo", "place_id": "ChIJ89lzVprNQw0R9QkXZerqImc", "plus_code": {"compound_code": "JFWQ+QW Fuente el Saz de Jarama, Spain", "global_code": "8CGRJFWQ+QW"}, "reference": "ChIJ89lzVprNQw0R9QkXZerqImc", "scope": "GOOGLE", "types": ["park", "point_of_interest", "establishment"], "vicinity": "Calle Torrelaguna, 83, Fuente el Saz de Jarama"}, {"business_status": "OPERATIONAL", "geometry": {"location": {"lat": 40.63039899999999, "lng": -3.511894399999999}, "viewport": {"northeast": {"lat": 40.63167178029149, "lng": -3.510687819708498}, "southwest": {"lat": 40.6289738197085, "lng": -3.513385780291502}}}, "icon": "https://maps.gstatic.com/mapfiles/place_api/icons/v1/png_71/park-71.png", "icon_background_color": "#4DB546", "icon_mask_base_uri": "https://maps.gstatic.com/mapfiles/place_api/icons/v2/tree_pinlet", "name": "Público Park", "opening_hours": {"open_now": true}, "photos": [{"height": 2184, "html_attributions": ["<a href=\"https://maps.google.com/maps/contrib/113442560321346712786\">Pablo Romero López-Romero</a>"], "photo_reference": "AWn5SU60mw5eTnnXx5pxTpdzH1LUTEbfurrxR_2IHfctd2Q79WDaMcrH7fJTEFWWqmp41hOxke6IMqtYBXNa2WV754FVrupT6CO6pxdEpRwiePQ2bWk4NrpQpjhOlfPqIb3-VBCSvI8QY7-LmHLU8nwI5_74XV5MesqC3gHEupwhjz8GQ5Ld_dNI88us8b1774RFNSYu69R2nwtql3-lr7expPaVyQ1MESJwqk3SXSwXMzCIqiQca3WTbywuIOwmOxxYC9QHIdi3Pzsyu4wgMxPO7BQthpZDfvKYHEH6YrkANLFGo2-m18Rp4uwYill9Q5knuQzuugNLC-0on24-TpTWC-H4hCHPdXFD3DuxFaxxpxsB-e4Hv6NvExx0zT13WbfyBnhNd2ZvHngos0y3xhCTzF9adPyBydqCc3_624Lqh4jUzj2j8qqtV5decQAQOsEv9d-1h5xXwOtoZezMpkOFXDawfdM3ja2hP7keyKCVXvr1VnWO3NvOnn6cbxtNd-iIQu-quVuE5XC0Il2ypnD6vck-3EM1pgnoZjI26r3NeyzbYmawpXabwEoZPkVBeJCNt_rdsqn1P3wKJiLg9JoSbEJNbN-TBRy4idjyNiQZHSBoV-jl0K6i3T9ZU3d62VDwmncP86bD", "width": 4608}], "place_id": "ChIJf1WkFNrNQw0RbC-5Qzn-R1g", "plus_code": {"compound_code": "JFJQ+56 Fuente el Saz de Jarama, Spain", "global_code": "8CGRJFJQ+56"}, "rating": 3.7, "reference": "ChIJf1WkFNrNQw0RbC-5Qzn-R1g", "scope": "GOOGLE", "types": ["park", "point_of_interest", "establishment"], "user_ratings_total": 18, "vicinity": "Fuente el Saz de Jarama"}, {"business_status": "OPERATIONAL", "geometry": {"location": {"lat": 40.6294907, "lng": -3.5170707}, "viewport": {"northeast": {"lat": 40.6307029302915, "lng": -3.515550819708498}, "southwest": {"lat": 40.62800496970851, "lng": -3.518248780291502}}}, "icon": "https://maps.gstatic.com/mapfiles/place_api/icons/v1/png_71/park-71.png", "icon_background_color": "#4DB546", "icon_mask_base_uri": "https://maps.gstatic.com/mapfiles/place_api/icons/v2/tree_pinlet", "name": "Igualdad Park", "opening_hours": {"open_now": true}, "photos": [{"height": 1920, "html_attributions": ["<a href=\"https://maps.google.com/maps/contrib/117905288709920139430\">Ana Corina Capitanu</a>"], "photo_reference": "AWn5SU4nRz4mCUzU0ZR603AKoilfGiBaGMk728XFET_2glquSzIKhrCjY2c1igVgI0x0zd6JIC_w_h0NdfsoBFXXA_r_epXZ1hKpH04c6Ni25Ip7-_X27-t59nYp-OVAvf0Hk3O9woZLyYca5EDmoIrJe3f43pslKA8XZ3L8lWXTkTHSFMcixZBdQHoJQSJjRyo6Ms9uGOEAX0HlgjzOf7qAQOAbkKyTbqfqBRLAidFBXlBhZbWk6LvybqJQnJiLxi6LbQibw9FIRAKbgEVy6LEUu4ZCq_AixoMYyqIdItvaoEeMFH3_YPcfIYWpocb83aKRYsyqHse440xFKwdOopox-zRRzfG_eN5Wc6vLyRZVQphrfEYK82q8NYp-FdYMAEy_LNTkvUfRBmEsBbj7As-djqC4es4VftAeOpNJBQd3FIjLlpizCstDV0UPXaeQ8iKpyAyrLudLOxxDutUaABHiD21F49avtuNDSJA-PqlVtxzgB_xoyk6huqWSqHzrtI-V4Ga4r9XRbVZXigQ8bgjnWk-_hFROQR36tGLR8YsUHIjBGdYrtzshs_rseWkFkFlcyR7_gzy4o2oogq7d2kp7xXMw_MzTveicfRiaYoys0khdq_vsU0OXZEZ4zI-6TfdC2v3raw", "width": 1080}], "place_id": "ChIJLbj6LWnNQw0RygplM1143fk", "plus_code": {"compound_code": "JFHM+Q5 Fuente el Saz de Jarama, Spain", "global_code": "8CGRJFHM+Q5"}, "rating": 4.3, "reference": "ChIJLbj6LWnNQw0RygplM1143fk", "scope": "GOOGLE", "types": ["park", "point_of_interest", "establishment"], "user_ratings_total": 10, "vicinity": "Avenida Julián Sánchez, 50, Fuente el Saz de Jarama"}, {"business_status": "OPERATIONAL", "geometry": {"location": {"lat": 40.6276862, "lng": -3.5151643}, "viewport": {"northeast": {"lat": 40.62903858029149, "lng": -3.513848369708498}, "southwest": {"lat": 40.62634061970849, "lng": -3.516546330291502}}}, "icon": "https://maps.gstatic.com/mapfiles/place_api/icons/v1/png_71/park-71.png", "icon_background_color": "#4DB546", "icon_mask_base_uri": "https://maps.gstatic.com/mapfiles/place_api/icons/v2/tree_pinlet", "name": "Fútbol Benji", "place_id": "ChIJZ_BnGwDNQw0R7tkrcksQYEI", "plus_code": {"compound_code": "JFHM+3W Fuente el Saz de Jarama, Spain", "global_code": "8CGRJFHM+3W"}, "reference": "ChIJZ_BnGwDNQw0R7tkrcksQYEI", "scope": "GOOGLE", "types": ["park", "point_of_interest", "establishment"], "vicinity": "Camino de Cobeña, 28, Fuente el Saz de Jarama"}, {"business_status": "OPERATIONAL", "geometry": {"location": {"lat": 40.6272802, "lng": -3.519380399999999}, "viewport": {"northeast": {"lat": 40.62864538029149, "lng": -3.518051769708499}, "southwest": {"lat": 40.6259474197085, "lng": -3.520749730291502}}}, "icon": "https://maps.gstatic.com/mapfiles/place_api/icons/v1/png_71/park-71.png", "icon_background_color": "#4DB546", "icon_mask_base_uri": "https://maps.gstatic.com/mapfiles/place_api/icons/v2/tree_pinlet", "name": "Paseo", "opening_hours": {"open_now": true}, "photos": [{"height": 1800, "html_attributions": ["<a href=\"https://maps.google.com/maps/contrib/113256722412110118633\">Angel Todorov</a>"], "photo_reference": "AWn5SU5kyP3ytl_kgghSyTfky4WvyD4r9wPPl5SKuZoufR7VLOwqOdID4zgTLdaNzQZD78dbjrXT0lJK6W8mblAQu_W9IZB5NPyK2pDgy6B0j-Whc6lpMnCOePTeVe12PYKLSbRaaQ8M6NvLoFaZpynUQ49svi7V71yGuNiQy8yAeiTva8oTwQPnEfyvBB27uC8lTXuEhYy_jaJEWZIDe8QrCGGvtbDioLfADLzhkYHC-VigiiGkcnAAO92TfiV8oXJpX662iRdvEpYKXt6FN17GCsZRGhefLCqXAL8npeCoTK58yvixfHTvWuZPqH72GQSQ--jZPknkT8B900KXu0XUN-uLfpsWLs4OZoTpe5B88tNsnkdeNDin1Lx4C_wjMYoEHhYM4cuW71yHuiP4aHwoKNIHgAV_qc5eNTlxagO_rH9fe3iyMtTNMTowzphvLVaVuZs-idTDFra3ky5MybNky4p_LotZlcWHoRmry6yVgbNEKJS7pfCArD1acZcAanhYTPObD5ppHDWK9MQOZld_wOXE8uqP2o5_l06H9f0pdBGuqyAS8yFw-wjhDJSGGaJ_gcggnI8orYyviO0rnrFyvSPxCZBW_7j5hlepOrtkguvM0MWDBnCsHcNGDGDdDWTwUGB3tg", "width": 4000}], "place_id": "ChIJCYxqIQDNQw0RBep_JLK5IUo", "plus_code": {"compound_code": "JFGJ+W6 Fuente el Saz de Jarama, Spain", "global_code": "8CGRJFGJ+W6"}, "rating": 5, "reference": "ChIJCYxqIQDNQw0RBep_JLK5IUo", "scope": "GOOGLE", "types": ["park", "point_of_interest", "establishment"], "user_ratings_total": 1, "vicinity": "Avenida Julián Sánchez, 23, Fuente el Saz de Jarama"}, {"business_status": "OPERATIONAL", "geometry": {"location": {"lat": 40.6242232, "lng": -3.5155452}, "viewport": {"northeast": {"lat": 40.62557298029149, "lng": -3.514237719708498}, "southwest": {"lat": 40.62287501970849, "lng": -3.516935680291501}}}, "icon": "https://maps.gstatic.com/mapfiles/place_api/icons/v1/png_71/park-71.png", "icon_background_color": "#4DB546", "icon_mask_base_uri": "https://maps.gstatic.com/mapfiles/place_api/icons/v2/tree_pinlet", "name": "Paseo 2", "opening_hours": {"open_now": true}, "photos": [{"height": 1800, "html_attributions": ["<a href=\"https://maps.google.com/maps/contrib/113256722412110118633\">Angel Todorov</a>"], "photo_reference": "AWn5SU6HiC7mEIXuKpSFlfeNYiGdNI4uGZOjUl5Kd1OwHD3EGw71PuAezLvLuPJoSdgXRnfdUodQClQjmtypN6-WPtH13uTWmg1ZPyyfmI00QuqYvNQDkyuS9J0ho5_1awoH-Z9mDmyfXGLMrfZxN3rhDbOVUzXEh63tQcni2ZMGJ0OtT2UvatFtzXNBSCthA9OUROwmrUMi04xlQXArP8_hhTjtWRp7lzTBKokg3bH6P0gbClpWkPmntxGH4vOL6uRK8YPSKCvTE26nx8AlnDsyZgOWfOu77CS42tEjp1T5gs1fitds7TYSLUvZam4xpKiUdf2kIEh3TLEvoFeJddlwWtMULhV6djxb2GkiSPOlUY--3H118Ym83yBbCWtW1WghnywHddlCNwON8Sy5Bl7il6ZOv_HKJY9loQgFEQtyW-1gw2T0BrQiJ6RGE-O9INiezUoxvgDcPtzdk1DTwhVslYU11kRE5kxex9muvab791v4wFY2VIAUOHBwDiuNrlmPMyvS1vKtmKfvI3AbHehdjYuJI6pSUT-avKn8aQ-CRxC8GnPgHpp4mTTnMaWY73_PVhPXa_lTCLqiTJmCz-SvtkuOI5XLY8kZnUJTby0S00ILCjReM_yTtuDysbAFkdI59fsxpvSi", "width": 4000}], "place_id": "ChIJo4MfdgDNQw0RqvD0hBFr5ZU", "plus_code": {"compound_code": "JFFM+MQ Fuente el Saz de Jarama, Spain", "global_code": "8CGRJFFM+MQ"}, "rating": 5, "reference": "ChIJo4MfdgDNQw0RqvD0hBFr5ZU", "scope": "GOOGLE", "types": ["park", "point_of_interest", "establishment"], "user_ratings_total": 1, "vicinity": "Fuente el Saz de Jarama"}, {"business_status": "OPERATIONAL", "geometry": {"location": {"lat": 40.65326839999999, "lng": -3.4990411}, "viewport": {"northeast": {"lat": 40.6546085302915, "lng": -3.497624669708498}, "southwest": {"lat": 40.6519105697085, "lng": -3.500322630291502}}}, "icon": "https://maps.gstatic.com/mapfiles/place_api/icons/v1/png_71/park-71.png", "icon_background_color": "#4DB546", "icon_mask_base_uri": "https://maps.gstatic.com/mapfiles/place_api/icons/v2/tree_pinlet", "international_phone_number": "+34 626 11 29 20", "name": "Finca Jardín de la Vereda | Talleres y actividades de huertos", "opening_hours": {"open_now": false}, "photos": [{"height": 1637, "html_attributions": ["<a href=\"https://maps.google.com/maps/contrib/103470474195667075005\">Finca Jardín de la Vereda | Talleres y actividades de huertos</a>"], "photo_reference": "AWn5SU7uCOGEWHbl-3c1XOPfhv42USQ4x_V5d--vuRGCBHkQEQzmwmliW2XLsbny4M7F7SX6dxmNr7EoZyQ4Dd87hqc6q6H2FaPJzxlSPJ7X4jzuB5KZE3FPQ8h8L__K5iX1j0HZul3QIEP8B-ENFzHaybNPnEzyFlAor1UXi64twUopoG3de4X6FpJctQfe51FF8ohF2v-PHoTpbCikj8w4WCjr7IkGr9HH863rj9otqGZE5SXRNiKK_XKhiHiXKupbgsxAIwb9RWQtJgXiQzBxjwxytsWuQp26_19O_rlSrq5sgkKTeFlQ46nDaNSnxn74egRrwyPx", "width": 4032}], "place_id": "ChIJeR7LuCPLQw0RdJ6Toa69KFI", "plus_code": {"compound_code": "MG32+89 Fuente el Saz de Jarama, Spain", "global_code": "8CGRMG32+89"}, "reference": "ChIJeR7LuCPLQw0RdJ6Toa69KFI", "scope": "GOOGLE", "types": ["park", "point_of_interest", "establishment"], "vicinity": "Vereda del Chaparro s/n, Parcelas 149 y 161, Polígono 5, Fuente el Saz de Jarama"}, {"business_status": "OPERATIONAL", "geometry": {"location": {"lat": 40.64165879999999, "lng": -3.5423368}, "viewport": {"northeast": {"lat": 40.64364563029149, "lng": -3.540704569708498}, "southwest": {"lat": 40.6409476697085, "lng": -3.543402530291502}}}, "icon": "https://maps.gstatic.com/mapfiles/place_api/icons/v1/png_71/park-71.png", "icon_background_color": "#4DB546", "icon_mask_base_uri": "https://maps.gstatic.com/mapfiles/place_api/icons/v2/tree_pinlet", "name": "Recanto", "place_id": "ChIJK7fzICrNQw0R1dd34mgM0R0", "plus_code": {"compound_code": "JFR5+M3 Fuente el Saz de Jarama, Spain", "global_code": "8CGRJFR5+M3"}, "reference": "ChIJK7fzICrNQw0R1dd34mgM0R0", "scope": "GOOGLE", "types": ["park", "point_of_interest", "establishment"], "vicinity": "De Santa Catalina, Fuente el Saz de Jarama"}, {"business_status": "OPERATIONAL", "geometry": {"location": {"lat": 40.6443381, "lng": -3.479712199999999}, "viewport": {"northeast": {"lat": 40.64568558029151, "lng": -3.478390819708499}, "southwest": {"lat": 40.64298761970851, "lng": -3.481088780291502}}}, "icon": "https://maps.gstatic.com/mapfiles/place_api/icons/v1/png_71/park-71.png", "icon_background_color": "#4DB546", "icon_mask_base_uri": "https://maps.gstatic.com/mapfiles/place_api/icons/v2/tree_pinlet", "name": "Alalpardo", "opening_hours": {"open_now": true}, "place_id": "ChIJGz-5RQDLQw0RzpRSXTl1Zdg", "plus_code": {"compound_code": "JGVC+P4 Alalpardo, Spain", "global_code": "8CGRJGVC+P4"}, "reference": "ChIJGz-5RQDLQw0RzpRSXTl1Zdg", "scope": "GOOGLE", "types": ["park", "point_of_interest", "establishment"], "vicinity": "Calle Calvo Sotelo, Alalpardo"}, {"business_status": "OPERATIONAL", "geometry": {"location": {"lat": 40.6148794, "lng": -3.4984441}, "viewport": {"northeast": {"lat": 40.6158332302915, "lng": -3.4971991}, "southwest": {"lat": 40.6131352697085, "lng": -3.502179100000001}}}, "icon": "https://maps.gstatic.com/mapfiles/place_api/icons/v1/png_71/park-71.png", "icon_background_color": "#4DB546", "icon_mask_base_uri": "https://maps.gstatic.com/mapfiles/place_api/icons/v2/tree_pinlet", "name": "Algete", "opening_hours": {"open_now": true}, "photos": [{"height": 4000, "html_attributions": ["<a href=\"https://maps.google.com/maps/contrib/110612844607555507708\">Lourdes Boay</a>"], "photo_reference": "AWn5SU70DTLamCxZrygNlx3HhRu99kLOljlmC8qfUKmfjhgekaIwwjHbwgX5Ltl8OQyvTkJG_Adf04FQuBhqODg5ZLXtun0dDQ1m8G-vzBwVdtvqniWZmQg0DjoTD_ODInp1npGtrm-fFlajsCxczQ8EaXBxtBIO0cHf2LkEdjHphPGZoMDEHamLLl19MCZQRl-utgM-zpiNC9aTaNiqBSdy4ImP81ugMC4IxluVjAEFC0cNg_4C2B70ibpWmddwpav9j3oTSlFqNGxMR9Wg643tXSfPUilsyNEHQ07QFlzpGgKFTNn3DcseJVj60pMSnTs3Pt242sAhlj6xlGCU-1la3eN7aUKr6Qu9xNqha3RLik2v0bAlimnJwxbgbQEp9SWiVX1Xx9n0LcKfjkgOaJRVOzhBDTy13dL_A0tr2xX2FntiBTMlYlhk-lGLeBrI8z32Y3YaBqlXItWqF3Sz3CJHNP10HXJltRk5g84AkNcXcr1SvRDl68LALfFXpAmUmJPdiH25zbbM9i8wdnXNDMFcBFPwsaYOLNy8sPSVCwo5L6Ejq3RIaIQanHDOav0iCX3Wf1qnsxNf1piU3-XufnK_YpIR0nAuXQjxo-ZCJ59lUAJvWuoAl_lD146fOn9PByoi6P3U-g", "width": 2250}], "place_id": "ChIJa3DnNynLQw0RxEzgnKErbYE", "plus_code": {"compound_code": "JG72+XJ Algete, Spain", "global_code": "8CGRJG72+XJ"}, "rating": 3, "reference": "ChIJa3DnNynLQw0RxEzgnKErbYE", "scope": "GOOGLE", "types": ["park", "point_of_interest", "establishment"], "user_ratings_total": 2, "vicinity": "Carretera de Fuente el Saz, Algete"}, {"business_status": "OPERATIONAL", "geometry": {"location": {"lat": 40.6318309, "lng": -3.4771566}, "viewport": {"northeast": {"lat": 40.6329508302915, "lng": -3.475662969708498}, "southwest": {"lat": 40.6302528697085, "lng": -3.478360930291502}}}, "icon": "https://maps.gstatic.com/mapfiles/place_api/icons/v1/png_71/park-71.png", "icon_background_color": "#4DB546", "icon_mask_base_uri": "https://maps.gstatic.com/mapfiles/place_api/icons/v2/tree_pinlet", "name": "Mirador del cementerio", "place_id": "ChIJJdwqXfTLQw0R34q4In21CHU", "plus_code": {"compound_code": "JGJF+P4 Alalpardo, Spain", "global_code": "8CGRJGJF+P4"}, "reference": "ChIJJdwqXfTLQw0R34q4In21CHU", "scope": "GOOGLE", "types": ["park", "point_of_interest", "establishment"], "vicinity": "Norte Mirador Park, Calle Ronda Norte, 49, Alalpardo"}, {"business_status": "OPERATIONAL", "geometry": {"location": {"lat": 40.63180969999999, "lng": -3.477096099999999}, "viewport": {"northeast": {"lat": 40.6329472302915, "lng": -3.475613569708498}, "southwest": {"lat": 40.6302492697085, "lng": -3.478311530291502}}}, "icon": "https://maps.gstatic.com/mapfiles/place_api/icons/v1/png_71/park-71.png", "icon_background_color": "#4DB546", "icon_mask_base_uri": "https://maps.gstatic.com/mapfiles/place_api/icons/v2/tree_pinlet", "name": "Norte Mirador Park", "opening_hours": {"open_now": true}, "photos": [{"height": 3472, "html_attributions": ["<a href=\"https://maps.google.com/maps/contrib/116622595711223815227\">Miguel Gallego</a>"], "photo_reference": "AWn5SU5u746ul2Z4PQYOP24I4p7CCtcBHqZLG4Vp-PQDGWq4t5CH27U_-b1uyfSGGB40EQhAsKQL-AwGEtZCO0ufEppWt1wx1bwF-W3rqefvXUJcmJLmc5IQ02QCOg-0afDv6MEGTZFNQnMfdg4Vu0KlEDyBtlY5kRDBroSNVbRrVqj0cbilSBbRYqLeeXB0rIaQp_vXMjsTXk4GnfOrO_Zxg6Byq73uui4oqeGtAKwTQc2HQzBecZC_TOVY0NKhY-9qCmFB6JL-KEK1hRSvx_iATp_0aYruvucawqhoQL78geNVk1io35VKWLz4ohNtfbxM4_kau2dfbw71MNpWFdTvfVx0CqolTE6msKuPOOqyvY-9tGNcm7SOkyyOUHrDrT-Rgsfyqy12WquPAduPkPl6edNCIu5JGLpDn-Efj5bJw2nzkFRgF4TLyVUb8hI7W0Qde3sYUR8L5NxvB8V8ExdfUQyf3BAirWD5bTagQosiBhAvY0GjuA-TE4Y4Xkt7ngws9YivYLtmWGR4BBv7Hs40KtXwe9-O-7HrZjqV2EIcWwlx9ESKhqIlE_kUjoYzb3CPOpSacA_mj4bFGCOQ17j1YagzxkBtxFdKvyZu6HiH1hTPDlT8ETX-JirSmmoHmIESUDvK4Q", "width": 4624}], "place_id": "ChIJTaMYL0bLQw0RSCKHkebF3Lg", "plus_code": {"compound_code": "JGJF+P5 Alalpardo, Spain", "global_code": "8CGRJGJF+P5"}, "rating": 4.3, "reference": "ChIJTaMYL0bLQw0RSCKHkebF3Lg", "scope": "GOOGLE", "types": ["park", "point_of_interest", "establishment"], "user_ratings_total": 3, "vicinity": "Calle Ronda Norte, 49, Alalpardo"}, {"business_status": "OPERATIONAL", "geometry": {"location": {"lat": 40.6316486, "lng": -3.476885199999999}, "viewport": {"northeast": {"lat": 40.6330390302915, "lng": -3.475436619708498}, "southwest": {"lat": 40.6303410697085, "lng": -3.478134580291502}}}, "icon": "https://maps.gstatic.com/mapfiles/place_api/icons/v1/png_71/park-71.png", "icon_background_color": "#4DB546", "icon_mask_base_uri": "https://maps.gstatic.com/mapfiles/place_api/icons/v2/tree_pinlet", "name": "Adobe Park", "opening_hours": {"open_now": true}, "photos": [{"height": 2336, "html_attributions": ["<a href=\"https://maps.google.com/maps/contrib/105912900426405048362\">violetasf</a>"], "photo_reference": "AWn5SU7Kbi-bXY9-guq52gA-Mf5TrHpsNu85rBJopUaJtWOYhS2oBPVLJ5yrVhMRD5E65JVKKjTFGvmCfros6RDVyIb3kM0tfXTBQw8R1Du9GnXc35gv3eh63l5gxki5nJtSJ6jU87iW46vrraUd9vC6b7DMDFcMfDwRa4BNNjm9Qq3KTSpIcldTYgbm2YtG6uyxde1UqIwHLogCYD_KffdwwIWB8Md1qXrLcKI6cj4p3kujLr_QNIXVqjTUadCr7SXKcwq58gx2Rzpl5L91_0JK-ZnHB2hi6KR5hJowfIIwgY32tkC7-mJwF5BINQLUPLEOFgNrCAdeesL89PbeIz8oAOGKWAiJgzKcUzq-q98kDEUma1su2aY60TcvwTt_R4EqrakzevhuGgrtYWvEDW-f8F5Ik_Nz__NCYEMmVkNjn-1hlpYHDlpDBaXdr_7W1H_PHf2P4bNei7UX6NRufqq_B0TiG00bJcoSwUGznq0TcH4YkIUaa6dHcaRC_AhiAOhdBtagoNHDvvp6GM7-zZvr9VZdF1C08F7qlhkC5sYxf0XIMrIJo2f_gP34D-TXgiu56jp6L6ISD3QG9TJH9KrM9cgueBCjNdmdsbU9LU7qGWUrW20S6SOsAIb1AVtOJoOa", "width": 4160}], "place_id": "ChIJ1WjJEKPLQw0R3jIKZOVIPhw", "plus_code": {"compound_code": "JGJF+M6 Valdeolmos-Alalpardo, Spain", "global_code": "8CGRJGJF+M6"}, "rating": 4.6, "reference": "ChIJ1WjJEKPLQw0R3jIKZOVIPhw", "scope": "GOOGLE", "types": ["park", "point_of_interest", "establishment"], "user_ratings_total": 73, "vicinity": "Calle de Alcalá, SN, Valdeolmos"}, {"business_status": "OPERATIONAL", "geometry": {"location": {"lat": 40.6277288, "lng": -3.4785488}, "viewport": {"northeast": {"lat": 40.6290965302915, "lng": -3.477142719708498}, "southwest": {"lat": 40.6263985697085, "lng": -3.479840680291502}}}, "icon": "https://maps.gstatic.com/mapfiles/place_api/icons/v1/png_71/park-71.png", "icon_background_color": "#4DB546", "icon_mask_base_uri": "https://maps.gstatic.com/mapfiles/place_api/icons/v2/tree_pinlet", "name": "Ramón Linacero Garden", "photos": [{"height": 3353, "html_attributions": ["<a href=\"https://maps.google.com/maps/contrib/116622595711223815227\">Miguel Gallego</a>"], "photo_reference": "AWn5SU462NZQWNci1-JgOUXtBsdjAqo3pcpjflOSx_bJCazX6jd_ZOXao_72L9BSnrPlZzzqCHkeh7g6-_SNgpXtmM9Ui7NqHs_Bu7iOlcF2hXdyILn14m2UQTQgh8VzPeM0DyK_txzebhF5zuikyBfkvm6wmtfhb1KR9hl7FmaKlcohN8G8IAAZ4uiGOZ4IgTLXpERCaY-J2AmcZ-VkoOpqkg1LQCzD3HTJD1hH4axY-R2gokm7Ku1dWBVZcW8C6hiyZkq0y8PKkbIEL0nH_uQHzoLwmqrQgvMtx2uXDoq-ZaTOkz3_EFyaeD_98Azuh2ZW4GQlBsX_ZXiVVo5Yaj9cN-ejq7uBsyYQ6VRVUBaizrKbl_RRCyjFxpdMFRsIX3yjZGkMRZ0Xnaaz1vGyhnPfsyno10y9bdVIV_t1nxnIMMVuL8s3dTmYpp94Pv4VPobwR_YcOrlhGQnPw3lOnTbMJX9VnQmUqbKkLzdbvumtAEucORGbIOD1R9ZBeN8j1k_XKY_F_o-Aq5SouyNHCe1byT84iqyBUOpKc192QEo7c12sWHCgt-4UKy-WuxAo23n51qKC9lHga9gQ98mM0ikXP848MzZHng4DLBf6fRGA64fdOZHGO-ZsSzogcgSRHz4fdRr8cw", "width": 3120}], "place_id": "ChIJb-mIr5jLQw0RwRNK3odfTCE", "plus_code": {"compound_code": "JGHC+3H Alalpardo, Spain", "global_code": "8CGRJGHC+3H"}, "rating": 5, "reference": "ChIJb-mIr5jLQw0RwRNK3odfTCE", "scope": "GOOGLE", "types": ["park", "point_of_interest", "establishment"], "user_ratings_total": 2, "vicinity": "Calle de Ramón Linacero, 1, Alalpardo"}, {"business_status": "OPERATIONAL", "geometry": {"location": {"lat": 40.62772799999999, "lng": -3.4761546}, "viewport": {"northeast": {"lat": 40.62922453029149, "lng": -3.474965419708498}, "southwest": {"lat": 40.6265265697085, "lng": -3.477663380291502}}}, "icon": "https://maps.gstatic.com/mapfiles/place_api/icons/v1/png_71/park-71.png", "icon_background_color": "#4DB546", "icon_mask_base_uri": "https://maps.gstatic.com/mapfiles/place_api/icons/v2/tree_pinlet", "name": "Nuestra Señora del Rosario Park", "opening_hours": {"open_now": true}, "photos": [{"height": 3000, "html_attributions": ["<a href=\"https://maps.google.com/maps/contrib/100180476391017445493\">Gema Sánchez Nájera</a>"], "photo_reference": "AWn5SU603QMh75qviqYowIs2m3WN34Exinq5pwICoZJcp8O42QSrY8DqIyim8tmt0ypgiSJZtuu2SoJvhy-_cwyEMGfV0s3mj-kwZqtzcu9W7bUn_yEkfUrk5hjx9aauRsvfDzI69yNdGbn2KTBzXNWGtO-YExY_WoKFPlcjQOsR0KF7sYJs6MIZvibMgpwSqopIGOZicdy1tj-HrgY1AQn7wcSsV74bwfkwjJJFfSY-3TqlWIllipNAEgsqig8Mlbv9ERt7B1dxhJXDiS4TQbBaB5FVmMk4-WRJZp-QbhkRBOhA-KoYldKyrTL9JudrFmVi5bRugEE1RwNX-W8BTRcBkxCYwrY20CXd0CU0psNxF70Gbo40UjXl3-VQ8Uo8gLLOLMMLx0AykE5DAtgX_FQsGxJbu2lzaNy4EJXGEL04AaWyR8Tzx_OSOV54Vzbm_LW5BkQCwvxhEbQHnjXTys0VWIluQQxTqYkdWCVPof5jqKzkYjwLamk-ov0CBI4Lfp9aT3GFjuDNU7FS-jji2x-W8HtVk21rMEabOkVA-id97ecuooNP3lOAiNowVb6m2u0h6qhP2tPX0-VowPHEgvrRP-AZLONyKpC9Ha2qWr5z85ZqYSyFyatCe3OTiJFBsAPB7pnFcw", "width": 4000}], "place_id": "ChIJYWz4XKHLQw0Ruj8z9jOXftI", "plus_code": {"compound_code": "JGHF+3G Alalpardo, Spain", "global_code": "8CGRJGHF+3G"}, "rating": 4.6, "reference": "ChIJYWz4XKHLQw0Ruj8z9jOXftI", "scope": "GOOGLE", "types": ["park", "tourist_attraction", "point_of_interest", "establishment"], "user_ratings_total": 142, "vicinity": "Alalpardo"}]