[{"business_status": "OPERATIONAL", "geometry": {"location": {"lat": 40.2129607, "lng": -3.8522187}, "viewport": {"northeast": {"lat": 40.2143651802915, "lng": -3.850859569708498}, "southwest": {"lat": 40.2116672197085, "lng": -3.853557530291502}}}, "icon": "https://maps.gstatic.com/mapfiles/place_api/icons/v1/png_71/bank-71.png", "icon_background_color": "#909CE1", "icon_mask_base_uri": "https://maps.gstatic.com/mapfiles/place_api/icons/v2/bank-intl_pinlet", "international_phone_number": "+34 918 10 31 36", "name": "BBVA", "opening_hours": {"open_now": false}, "photos": [{"height": 720, "html_attributions": ["<a href=\"https://maps.google.com/maps/contrib/103230076870059651596\">BBVA</a>"], "photo_reference": "AWn5SU5UF28zfYvrMtHP_4oX0PmBuWguILz_5r22vOY2r10H8rc85arEyCOqhfCibBdKbAVBspjmbYoG1qTY3PmTDCsRA9TPjgv6ilYH52xRqm_kG8BrYAdfbyPOrphnGSQNMTCDSNIFrnp3L0L4LYBCx-vngME4FKXszL4pNOxQYqhsialBZza5OXDPuUDps238xYtdNgANwUKsNQ61lNQKqCMuU9iQJgs5uCNZKmSPo4xKcYR8HMHie8YVvkcS60MFQnZaEJdiQvuS7VduteHbjFw6AsF8bvSIXNcmjBPq4rjxAKtzNHk4DUvCTogWkOOfE9-5A98BEhs", "width": 1280}], "place_id": "ChIJ91WuNA7zQQ0R53gcDRGm-n4", "plus_code": {"compound_code": "647X+54 Griñón, Spain", "global_code": "8CGR647X+54"}, "rating": 1.8, "reference": "ChIJ91WuNA7zQQ0R53gcDRGm-n4", "scope": "GOOGLE", "types": ["bank", "atm", "accounting", "finance", "point_of_interest", "establishment"], "user_ratings_total": 44, "vicinity": "Calle Mayor, 55, Griñón"}, {"business_status": "OPERATIONAL", "geometry": {"location": {"lat": 40.2569542, "lng": -3.8242331}, "viewport": {"northeast": {"lat": 40.2583067802915, "lng": -3.822840069708497}, "southwest": {"lat": 40.2556088197085, "lng": -3.825538030291502}}}, "icon": "https://maps.gstatic.com/mapfiles/place_api/icons/v1/png_71/atm-71.png", "icon_background_color": "#909CE1", "icon_mask_base_uri": "https://maps.gstatic.com/mapfiles/place_api/icons/v2/atm_pinlet", "international_phone_number": "+34 902 32 30 00", "name": "Sabadell Bank ATM", "opening_hours": {"open_now": true}, "photos": [{"height": 900, "html_attributions": ["<a href=\"https://maps.google.com/maps/contrib/103094476976615178577\">Cajero Banco Sabadell</a>"], "photo_reference": "AWn5SU7tQcHoeDC4g7X3A6hg2H98JnbHuR-WvLAZOIw0QmDt2KPS_azOn_Zba4H34Qvvfv_tkV2JBkJAj0-stTvxqOUta80mP1Cjng3XTfKZ7uvI9wYh227Uj0I8rEMKsautdF1d4_diszE_4iNaZbTauC0UgJaLjUrTSJs00Wcl2h0PsuxicfazQ2q9SOdLpMA8s2P_w-Z4OEVaV82ycgboXWSUg7888BrjqT3Hu7xvHKoinkqVxZiSf4lUbaMgvV6S70Fef1Qxn1dZWQgn_0EbTSjN0_VSfjvPd5TeC6WhW8nOnMxA9NnA1fBRrHkdThbRBRe7GPIv-bo", "width": 1600}], "place_id": "ChIJF7ihAggoQg0R8QkQk0zhYmk", "plus_code": {"compound_code": "754G+Q8 Humanes de Madrid, Spain", "global_code": "8CGR754G+Q8"}, "rating": 1, "reference": "ChIJF7ihAggoQg0R8QkQk0zhYmk", "scope": "GOOGLE", "types": ["atm", "finance", "point_of_interest", "establishment"], "user_ratings_total": 1, "vicinity": "Calle Madrid, 85, Humanes de Madrid"}, {"business_status": "OPERATIONAL", "geometry": {"location": {"lat": 40.2006841, "lng": -3.7990644}, "viewport": {"northeast": {"lat": 40.2018927302915, "lng": -3.797757069708497}, "southwest": {"lat": 40.1991947697085, "lng": -3.800455030291502}}}, "icon": "https://maps.gstatic.com/mapfiles/place_api/icons/v1/png_71/bank-71.png", "icon_background_color": "#909CE1", "icon_mask_base_uri": "https://maps.gstatic.com/mapfiles/place_api/icons/v2/bank-intl_pinlet", "international_phone_number": "+34 918 10 62 12", "name": "BBVA", "opening_hours": {"open_now": false}, "photos": [{"height": 720, "html_attributions": ["<a href=\"https://maps.google.com/maps/contrib/117165492132688620275\">BBVA</a>"], "photo_reference": "AWn5SU53zEcbjIoi7f_QrC8VYh4xVVCobt4onTKXOZ4wYNpX4Rd-xJWvHXu4MBQ78P8Btil2gRTfwx9O-Kb1jJLXdaY0FjiXWIQtXeuXnulVO-za2Axp0R7llwAVkuJcWStMG-wbeYxPYwBSPFgJyjtZzPz-nAQ9Qqk4sWyYmmPxsUfWqqwYjNxGG-rb3K__Z8vPDXOAjY6PEK-fkEbkpycKV9E_6MINWJz_3gUYwAIb2HLWr2hP_Gt5C16X0pKseiHEdD28UqfbgNZZu3J7Kp6qO2N-AZAairCw2Fm6MiXgp--gUBEGalPsptHdhcBJetF7WFn5UMsMHTk", "width": 1280}], "place_id": "ChIJPcmC-1v0QQ0RRpk2HbBZthA", "plus_code": {"compound_code": "6622+79 Torrejón de la Calzada, Spain", "global_code": "8CGR6622+79"}, "rating": 3.3, "reference": "ChIJPcmC-1v0QQ0RRpk2HbBZthA", "scope": "GOOGLE", "types": ["bank", "atm", "accounting", "finance", "point_of_interest", "establishment"], "user_ratings_total": 19, "vicinity": "Plaza de España, 5, Torrejón de la Calzada"}, {"business_status": "OPERATIONAL", "geometry": {"location": {"lat": 40.2129753, "lng": -3.8502983}, "viewport": {"northeast": {"lat": 40.2143591802915, "lng": -3.848872719708499}, "southwest": {"lat": 40.2116612197085, "lng": -3.851570680291503}}}, "icon": "https://maps.gstatic.com/mapfiles/place_api/icons/v1/png_71/bank-71.png", "icon_background_color": "#909CE1", "icon_mask_base_uri": "https://maps.gstatic.com/mapfiles/place_api/icons/v2/bank-intl_pinlet", "international_phone_number": "+34 918 10 34 26", "name": "Bankinter", "opening_hours": {"open_now": false}, "photos": [{"height": 720, "html_attributions": ["<a href=\"https://maps.google.com/maps/contrib/104465399990123804770\">Bankinter</a>"], "photo_reference": "AWn5SU6Vrsll84iEGmhPhTLgi1CW3M8S31XIlaRjVZ5MOOCKHchQi4g4VBOWChO-mJH_X4uHOBocT4gO2U8vCO4gihP9iKln4eNDCcUTvVLIa_UC1CL3nWO5mqNw5R6IUv3JeWGJpsEAru66Ryqhi4AlCWJxLSdD67PLm8hlYGEbE-CmNpNkCW0J2Ay6UUICW8Qt45WWL2xXeygru6gyOoA_YZGTurLU9OPLdZMetOvgTTi9iAmtFiEPxVKS5IuvjN3db_fOT-7DmWdmHcw2uoKzy2HpItE4A4-lb91RY4Ec_U_PSMTwHNo0CUGCTm9bhKKPAKRFYb4O2OQ", "width": 720}], "place_id": "ChIJ2T6DdQ7zQQ0RCBv6-P-tUPI", "plus_code": {"compound_code": "647X+5V Griñón, Spain", "global_code": "8CGR647X+5V"}, "rating": 1.8, "reference": "ChIJ2T6DdQ7zQQ0RCBv6-P-tUPI", "scope": "GOOGLE", "types": ["bank", "atm", "finance", "point_of_interest", "establishment"], "user_ratings_total": 15, "vicinity": "Plaza de la Fragua, 7, Griñón"}, {"business_status": "OPERATIONAL", "geometry": {"location": {"lat": 40.2041201, "lng": -3.8590322}, "viewport": {"northeast": {"lat": 40.20549678029149, "lng": -3.857740069708497}, "southwest": {"lat": 40.20279881970849, "lng": -3.860438030291502}}}, "icon": "https://maps.gstatic.com/mapfiles/place_api/icons/v1/png_71/bank-71.png", "icon_background_color": "#909CE1", "icon_mask_base_uri": "https://maps.gstatic.com/mapfiles/place_api/icons/v2/bank-intl_pinlet", "international_phone_number": "+34 918 10 32 10", "name": "Banco Sabadell", "opening_hours": {"open_now": false}, "photos": [{"height": 1080, "html_attributions": ["<a href=\"https://maps.google.com/maps/contrib/105348047079285848088\">Banco Sabadell</a>"], "photo_reference": "AWn5SU4GKgHHOoS4W8JtBN_PwASyYw1C1EaWEGGM1H8He3aLhpHLG9IZsWgxtvZ6L5WpZA2QWSkprNoXPLiIs6kzY241iWvSZ_U-zip1nPdJ7pM38l7KgeUl4XRJxfGsA4pHNaeEFo6OShBiThB7OtOdLNWdUUEvK8zk8N-OOvL4rwkkiylS3tkDFVtBPCVQi4GLBCq3-dZHrwwCXwa8lC61o2RPXILLFBXgqxQJgk1ayeUGnckZK0a1PTdR6nbraMavr23DOH58H26FlhAQRaPLm5wjy4u2n83n67aiMbuV-ITioTAFZmSc4cthDKoXN6-T9jLHWSqiW_M", "width": 1920}], "place_id": "ChIJq6qqahvzQQ0RUBrob9vvjYc", "plus_code": {"compound_code": "643R+J9 Griñón, Spain", "global_code": "8CGR643R+J9"}, "rating": 3.3, "reference": "ChIJq6qqahvzQQ0RUBrob9vvjYc", "scope": "GOOGLE", "types": ["bank", "atm", "accounting", "finance", "point_of_interest", "establishment"], "user_ratings_total": 15, "vicinity": "Calle Francia, s/n, Griñón"}, {"business_status": "OPERATIONAL", "geometry": {"location": {"lat": 40.21254319999999, "lng": -3.8512409}, "viewport": {"northeast": {"lat": 40.2139028302915, "lng": -3.849910769708498}, "southwest": {"lat": 40.2112048697085, "lng": -3.852608730291502}}}, "icon": "https://maps.gstatic.com/mapfiles/place_api/icons/v1/png_71/bank-71.png", "icon_background_color": "#909CE1", "icon_mask_base_uri": "https://maps.gstatic.com/mapfiles/place_api/icons/v2/bank-intl_pinlet", "international_phone_number": "+34 918 10 33 90", "name": "Ibercaja Banco", "opening_hours": {"open_now": false}, "photos": [{"height": 900, "html_attributions": ["<a href=\"https://maps.google.com/maps/contrib/118377960658711507394\">Ibercaja Banco</a>"], "photo_reference": "AWn5SU5u3hX6Zs1cM4Nz9Yv0o03widgigGZAr_Z3e9pWEun_ec80PjARol1dDRPi-o9CsMIc2mOKfIn1mM6vlQNbfpe8QgAW8NgvSf7cLbueW3E0bOLRoLL1PwJyQUIFxZJ1up1OhSl7nVcem_mrqM1sL7qoGHVv2o-fFqHcHthjM28f0veG_XRkPLO_XPYS6gkwcppMtZP2um2T7xfkh0KqdYksBGQwfpJhydLBdxZ7imcA9Cg042ALkp6VRes0f_LeQIKB8MXJxfKw9MdAvhxcEWTzk9yBuK2faq9dPyyAuUPrYFaC8LvdpXCqOeWmar_ZbLKgSaQ-2ps", "width": 1600}], "place_id": "ChIJC0_RaA7zQQ0RJi-J5c5AQfE", "plus_code": {"compound_code": "647X+2G Griñón, Spain", "global_code": "8CGR647X+2G"}, "rating": 2.4, "reference": "ChIJC0_RaA7zQQ0RJi-J5c5AQfE", "scope": "GOOGLE", "types": ["bank", "atm", "accounting", "finance", "point_of_interest", "establishment"], "user_ratings_total": 10, "vicinity": "Calle del Palo, 1, Griñón"}, {"business_status": "OPERATIONAL", "geometry": {"location": {"lat": 40.2116631, "lng": -3.8496609}, "viewport": {"northeast": {"lat": 40.2131073302915, "lng": -3.848248719708498}, "southwest": {"lat": 40.2104093697085, "lng": -3.850946680291502}}}, "icon": "https://maps.gstatic.com/mapfiles/place_api/icons/v1/png_71/bank-71.png", "icon_background_color": "#909CE1", "icon_mask_base_uri": "https://maps.gstatic.com/mapfiles/place_api/icons/v2/bank-intl_pinlet", "international_phone_number": "+34 918 14 00 51", "name": "Banco Santander", "opening_hours": {"open_now": false}, "photos": [{"height": 720, "html_attributions": ["<a href=\"https://maps.google.com/maps/contrib/108002467892535181635\">Banco Santander</a>"], "photo_reference": "AWn5SU5mk0rtLf33DFi9okqX0T_wRLTNSGItjSpMN9XFdG9GxcZcJuL9q1wTuC45RioOZce0FlrpYs8AQ7kDuVcvCw_RqggDgs793hwLlbvkZ_vsKQPrRllJOh1J1MVUozn0Bl4YOFBCRrPT2UoPFJ52pamRUHDmk46b3L9iY2tapr40SwU9vaWzfdtAGPLN7PP6nGmTYr6e61_1eDt7wI0EJAJ-xdyjkk75cCnRGggyFtDhKggdTV5E2Lc9z0x0m_Jo7P8e2EPz4nWtBLeyBrZ7eYWh382XbPauYNYIFT2l6kXp7ORg2anZAuMrMJ8KQNlLZMGFAUNz6wc", "width": 1280}], "place_id": "ChIJ86-wXruIb0ARTl0avVMPiCo", "plus_code": {"compound_code": "6562+M4 Griñón, Spain", "global_code": "8CGR6562+M4"}, "rating": 2.5, "reference": "ChIJ86-wXruIb0ARTl0avVMPiCo", "scope": "GOOGLE", "types": ["bank", "atm", "finance", "point_of_interest", "establishment"], "user_ratings_total": 22, "vicinity": "Calle de la Grama, 4, Griñón"}, {"business_status": "OPERATIONAL", "geometry": {"location": {"lat": 40.2055371, "lng": -3.884582599999999}, "viewport": {"northeast": {"lat": 40.2069284302915, "lng": -3.883301619708497}, "southwest": {"lat": 40.20423046970851, "lng": -3.885999580291502}}}, "icon": "https://maps.gstatic.com/mapfiles/place_api/icons/v1/png_71/bank-71.png", "icon_background_color": "#909CE1", "icon_mask_base_uri": "https://maps.gstatic.com/mapfiles/place_api/icons/v2/bank-intl_pinlet", "international_phone_number": "+34 918 10 48 21", "name": "Banco Santander Agentes", "opening_hours": {"open_now": false}, "photos": [{"height": 720, "html_attributions": ["<a href=\"https://maps.google.com/maps/contrib/115614457104143980305\">Banco Santander Agentes</a>"], "photo_reference": "AWn5SU7lgtlUcBLAI44zNkAr_WVyIvTPBUvnf64dJTJduvP4BQ2ygUlqf-cZrL8xTERxVXnmlgvGrE6g4QknBd8hsZ0ZvdgvvfR9Mkx3ON6J1Q8G-uPyg3QPd53mSUHfjZ-IrPefd68QXXt0DuCqkPAs0k9Xli4dxHEa329mpLRsQdiH7Oeg4jN-r_2Bna1Em95WcxsTGpxtQc645nhwNLbe8aZ3aikz8r6FOTlZ15vuy3YYlYGvK5kBChlr4lGrO1FoM23fmfHldj55McLnSqK3W5-jCUCv5y2FrDSH4PAdeTSFJwbiHLcT8PC8TMf1WpS_-JLCnBVstqY", "width": 1280}], "place_id": "ChIJSVL-3_TyQQ0RCNIXKRo7t6s", "plus_code": {"compound_code": "6448+65 Serranillos del Valle, Spain", "global_code": "8CGR6448+65"}, "rating": 2.4, "reference": "ChIJSVL-3_TyQQ0RCNIXKRo7t6s", "scope": "GOOGLE", "types": ["bank", "atm", "finance", "point_of_interest", "establishment"], "user_ratings_total": 13, "vicinity": "Calle de Cataluña, 14, Serranillos del Valle"}, {"business_status": "OPERATIONAL", "geometry": {"location": {"lat": 40.2620032, "lng": -3.8496135}, "viewport": {"northeast": {"lat": 40.2634600302915, "lng": -3.848519769708497}, "southwest": {"lat": 40.2607620697085, "lng": -3.851217730291502}}}, "icon": "https://maps.gstatic.com/mapfiles/place_api/icons/v1/png_71/atm-71.png", "icon_background_color": "#909CE1", "icon_mask_base_uri": "https://maps.gstatic.com/mapfiles/place_api/icons/v2/atm_pinlet", "international_phone_number": "+34 902 32 30 00", "name": "Sabadell Bank", "opening_hours": {"open_now": true}, "photos": [{"height": 900, "html_attributions": ["<a href=\"https://maps.google.com/maps/contrib/104519814729179215909\">Cajero Banco Sabadell</a>"], "photo_reference": "AWn5SU6Zveu6Pdag1KJK_10gtqQ70_Oie6-b1q8DddBUgS_hAR4i1PZSgPw24Ndzm-MNMaoC7hA1-W8jsdHMsYKaj26MC5wZRxB4X7Tb6ofkIiTDXm4hS6bDLEVYSFDF1s8rC9Zo-QbTbCwhlFaOhzduPAz2xmH0pYUTPsR5suFVYRgxml7ZzNqfWhbWco48ucveLISbMIVI0rhWW49QJs_aa1dFouyPbi8qi76dSRgeoO-pMDmxjmfyR0060Krjfx9IPS7-8jq73lxkHtbyjDm0J5-c5Yl9iSV6Fp9_F41_9xssdfG0WyKWXJ8SD2UwjaiUo30VgiH9x5Y", "width": 1600}], "place_id": "ChIJR7psENKONg0R4KuITOY4-54", "plus_code": {"compound_code": "7562+R5 Moraleja de Enmedio, Spain", "global_code": "8CGR7562+R5"}, "rating": 1, "reference": "ChIJR7psENKONg0R4KuITOY4-54", "scope": "GOOGLE", "types": ["atm", "finance", "point_of_interest", "establishment"], "user_ratings_total": 4, "vicinity": "Calle Norte, 1, Moraleja de Enmedio"}, {"business_status": "OPERATIONAL", "geometry": {"location": {"lat": 40.25553499999999, "lng": -3.824863800000001}, "viewport": {"northeast": {"lat": 40.2569065302915, "lng": -3.823618869708498}, "southwest": {"lat": 40.2542085697085, "lng": -3.826316830291503}}}, "icon": "https://maps.gstatic.com/mapfiles/place_api/icons/v1/png_71/bank-71.png", "icon_background_color": "#909CE1", "icon_mask_base_uri": "https://maps.gstatic.com/mapfiles/place_api/icons/v2/bank-intl_pinlet", "international_phone_number": "+34 914 98 21 16", "name": "BBVA", "opening_hours": {"open_now": false}, "photos": [{"height": 720, "html_attributions": ["<a href=\"https://maps.google.com/maps/contrib/114398909937829518028\">BBVA</a>"], "photo_reference": "AWn5SU43K5MJtK90nuKyorpGS8lpTR1454bH5_8engZugk26Kfup-F4l9xLJeAdOm5cUMHJc24yGA53Kh6CFd1I7OfVVtvZZIDA2OaynotuvxhkKbyRto6bk_yNJ9rAaRctpgu8IgxrseE4-A_Km5v4T6A18EqelHfx6bYzBisWubupuFKdynmu-yAK8hwIqFzJ4CYekb-YOhe8HYwpQWS7hS6TAyDn0xuo-vKZQc0kZneXXX53PDHi6CEykzRwVRi7H65M-vIP62dy5RXt-kPUP7OnifiAO-SMXfJukwCJAkfrmjzWTNCDRvxC-Nd05pNaGv42p5J2QRwk", "width": 1280}], "place_id": "ChIJbeJ-BKiMQQ0RNc0hivLLuQM", "plus_code": {"compound_code": "754G+63 Humanes de Madrid, Spain", "global_code": "8CGR754G+63"}, "rating": 2.2, "reference": "ChIJbeJ-BKiMQQ0RNc0hivLLuQM", "scope": "GOOGLE", "types": ["bank", "atm", "accounting", "finance", "point_of_interest", "establishment"], "user_ratings_total": 45, "vicinity": "Calle Madrid, C/V Ibiza, 66, Humanes de Madrid"}, {"business_status": "OPERATIONAL", "geometry": {"location": {"lat": 40.2001223, "lng": -3.7978662}, "viewport": {"northeast": {"lat": 40.20142483029149, "lng": -3.796535869708498}, "southwest": {"lat": 40.1987268697085, "lng": -3.799233830291503}}}, "icon": "https://maps.gstatic.com/mapfiles/place_api/icons/v1/png_71/bank-71.png", "icon_background_color": "#909CE1", "icon_mask_base_uri": "https://maps.gstatic.com/mapfiles/place_api/icons/v2/bank-intl_pinlet", "international_phone_number": "+34 918 46 02 96", "name": "Eurocaja Rural", "opening_hours": {"open_now": false}, "photos": [{"height": 1080, "html_attributions": ["<a href=\"https://maps.google.com/maps/contrib/104597042525257801750\">Eurocaja Rural</a>"], "photo_reference": "AWn5SU7_9BR5bR31IC0_HVfyCHM2u9jBLZy8CZ9cWXeF_vEeU4VDcYUf6EZ9DgPjA9mwvBqhJ8VJWmWfCXzsjiL1k0QkNel5qg_M9xsY4HFA_yyPinozXtCTZI1zPzhwsg1lXAttMZKIaY1MoIEhTS0NL3hBUhD1QEV-sT6h9ZVNzyNJDFPXi3k7zlQIc2CQJyb-rFl37lrPjNKfDKUkbju7j1IjA5_mUX2nCPyRsWM8GUcHn0t8j23wieHrD0u6xCdXsgbvNJI-nivp-FNRHnKueGGM18j0tRgi5CXKnE8OOE5820fddfGo690XZKYCPBzWfadV0x1xF_g", "width": 1920}], "place_id": "ChIJH1FBw1v0QQ0ROJW29zGGueg", "plus_code": {"compound_code": "6622+2V Torrejón de la Calzada, Spain", "global_code": "8CGR6622+2V"}, "rating": 4.1, "reference": "ChIJH1FBw1v0QQ0ROJW29zGGueg", "scope": "GOOGLE", "types": ["bank", "atm", "finance", "point_of_interest", "establishment"], "user_ratings_total": 14, "vicinity": "Calle de 12 de Octubre, 21, Torrejón de la Calzada"}, {"business_status": "OPERATIONAL", "geometry": {"location": {"lat": 40.2611964, "lng": -3.8624185}, "viewport": {"northeast": {"lat": 40.26249633029149, "lng": -3.861041169708498}, "southwest": {"lat": 40.2597983697085, "lng": -3.863739130291502}}}, "icon": "https://maps.gstatic.com/mapfiles/place_api/icons/v1/png_71/bank-71.png", "icon_background_color": "#909CE1", "icon_mask_base_uri": "https://maps.gstatic.com/mapfiles/place_api/icons/v2/bank-intl_pinlet", "international_phone_number": "+34 917 16 43 77", "name": "Banco Santander", "opening_hours": {"open_now": false}, "photos": [{"height": 720, "html_attributions": ["<a href=\"https://maps.google.com/maps/contrib/115288068557212770441\">Banco Santander</a>"], "photo_reference": "AWn5SU5kmoh1xVPSjxqL5YDOujPb8sTfbAmZcBTFVhhE6zaaLqgxxWBy4GflluoxJuixOBbY4RKGgOTV2yFNB7cUNdd-Rmr_Ge5VCo2d2hJdskqW5GSlUrJGCcv2lrJu4agFz1rXN7ZsJhb_Nz-8XTMNN6jI7aFOv3ysAKKBa7mhFV4Xncrxwb8s_u1W3TZugRTXDNOWersNpNgerYgqwQZ_DWyZEez97Vn7IJddN6foa00qUbp-SPN3ou_cneXFSbftdDRFTIvKIGInumAKRlu3uUbf-vQcXsssde9AlxILj3afpLfYXhJGvZu0PuUI0wS9uy9JLG-Tat0", "width": 1280}], "place_id": "ChIJs2Rd3d6MQQ0RHrBZbH3_IkU", "plus_code": {"compound_code": "746Q+F2 Moraleja de Enmedio, Spain", "global_code": "8CGR746Q+F2"}, "rating": 3.4, "reference": "ChIJs2Rd3d6MQQ0RHrBZbH3_IkU", "scope": "GOOGLE", "types": ["bank", "atm", "finance", "point_of_interest", "establishment"], "user_ratings_total": 13, "vicinity": "Calle Real, 18, Moraleja de Enmedio"}, {"business_status": "OPERATIONAL", "geometry": {"location": {"lat": 40.15596819999999, "lng": -3.875621699999999}, "viewport": {"northeast": {"lat": 40.1572785802915, "lng": -3.874229619708498}, "southwest": {"lat": 40.1545806197085, "lng": -3.876927580291502}}}, "icon": "https://maps.gstatic.com/mapfiles/place_api/icons/v1/png_71/bank-71.png", "icon_background_color": "#909CE1", "icon_mask_base_uri": "https://maps.gstatic.com/mapfiles/place_api/icons/v2/bank-intl_pinlet", "international_phone_number": "+34 925 53 38 30", "name": "Eurocaja Rural", "opening_hours": {"open_now": false}, "photos": [{"height": 1080, "html_attributions": ["<a href=\"https://maps.google.com/maps/contrib/100735923147360399589\">Eurocaja Rural</a>"], "photo_reference": "AWn5SU6V1KobFhomyb1xG8pbq_HHlWRF7VKE1iG6IKzCDT8_-wpPQ_pX7WqF0vw0dqWlBW3zBWLuzQpyZZ7cos0SwE3MtSAEKKxI5HFgMGVlpHJcg81K2p1IMkO-RFF2zmp5zOEkH4iBUsYcsoAu2x-hD0PWSGZ0-n8ksMseeX-c_Q3WKIhonoay4q1QpD-uyRstwJHMQiK71l-Cm834H8nms-L-iocMmuFpiHjsf-5DNArmY07P3JY9nReRaqkquPYVYBlcZo_jdMPIZ0tWDZK_bk4UOEKsqDiz8cMYWEMjMWe8bjophHOx9tyhT4drVUr-8kijIgKV86Q", "width": 1080}], "place_id": "ChIJqUSNioXxQQ0RG5MiMUL1-3o", "plus_code": {"compound_code": "544F+9Q Ugena, Spain", "global_code": "8CGR544F+9Q"}, "rating": 2.8, "reference": "ChIJqUSNioXxQQ0RG5MiMUL1-3o", "scope": "GOOGLE", "types": ["bank", "atm", "finance", "point_of_interest", "establishment"], "user_ratings_total": 13, "vicinity": "Calle de Boadilla, 11, Ugena"}, {"business_status": "OPERATIONAL", "geometry": {"location": {"lat": 40.2141362, "lng": -3.8557964}, "viewport": {"northeast": {"lat": 40.2153939802915, "lng": -3.854116169708497}, "southwest": {"lat": 40.2126960197085, "lng": -3.856814130291502}}}, "icon": "https://maps.gstatic.com/mapfiles/place_api/icons/v1/png_71/generic_business-71.png", "icon_background_color": "#7B9EB0", "icon_mask_base_uri": "https://maps.gstatic.com/mapfiles/place_api/icons/v2/generic_pinlet", "international_phone_number": "+34 910 00 55 16", "name": "Eurocaja Rural", "opening_hours": {"open_now": false}, "photos": [{"height": 899, "html_attributions": ["<a href=\"https://maps.google.com/maps/contrib/115833262752764871496\">Eurocaja Rural</a>"], "photo_reference": "AWn5SU4kkyX2WKGWrEGNsxHv-m4oDfnXumqWsiBCm2GLbT4uFalmJv1268ClKXOLLkCIQq4OqNkyDXWxJZP0AQyrYq-1woxEC45knim4VUfO_nvHXHoPeNV17l1pyJ33Im1cNVHHlhF3xN218XnjEn1In6eo0Yg9Fo1LEJRC_LTDxneaHnrQm4P7WBfnzyRPb_xByu6KnsA0SS4Gz4yTANeFsgCaif0ssAGmEx_dZJg3LekRLrwU8F_Na-FSubAKfkU1IE35ROQT5OrnWXnPVur0Df_fRz8jRFyzYlvfQ3VSdFQg6CUWImXNZKyOjU3cuR1AH1_toz85VfE", "width": 1599}], "place_id": "ChIJIeJWE8DzQQ0RQvm7Zh8szEE", "plus_code": {"compound_code": "647V+MM Griñón, Spain", "global_code": "8CGR647V+MM"}, "rating": 3.6, "reference": "ChIJIeJWE8DzQQ0RQvm7Zh8szEE", "scope": "GOOGLE", "types": ["atm", "bank", "finance", "point_of_interest", "establishment"], "user_ratings_total": 20, "vicinity": "Calle Mayor, 109, Griñón"}, {"business_status": "OPERATIONAL", "geometry": {"location": {"lat": 40.21336949999999, "lng": -3.8524682}, "viewport": {"northeast": {"lat": 40.2146360302915, "lng": -3.851128119708497}, "southwest": {"lat": 40.2119380697085, "lng": -3.853826080291502}}}, "icon": "https://maps.gstatic.com/mapfiles/place_api/icons/v1/png_71/atm-71.png", "icon_background_color": "#909CE1", "icon_mask_base_uri": "https://maps.gstatic.com/mapfiles/place_api/icons/v2/atm_pinlet", "international_phone_number": "+34 900 404 090", "name": "ATM CaixaBank - Cajero", "opening_hours": {"open_now": true}, "photos": [{"height": 681, "html_attributions": ["<a href=\"https://maps.google.com/maps/contrib/106107620884441505505\">ATM CaixaBank - Cajero</a>"], "photo_reference": "AWn5SU5fwvUJnMT0nCtQ144wrxrYnxeM-p5y1xVTN6b2AyQ_cGLFrzIJcrQ_kKeSs0sPAsktlSTz8HQBNCYzl-WsXb6w6KayWUKXC4dzUH5PMfECg40Im5vFT-Ep-fcZGC0Txgo-1Isrf5xZwUH5ao1xNQoc0ajS0oieXlSyz_SIx0aihIxaYRtFT2eS3EcJ1Q9ZUX7XJQvPEwBKFrbnpgpHkwmnzf5nXxvw-9IAcRov50wnWDLvzHSRsZue1Svb15lDqVHlhPv8XIY81fvJK-FBYpxzEq7LpSWGI8cyFVVcXulge_WRJgpEJDO0u75IO53V9dHMRQ9lSxA", "width": 1024}], "place_id": "ChIJDWSzh-3zQQ0RxSLxLVJMnVQ", "plus_code": {"compound_code": "647X+82 Griñón, Spain", "global_code": "8CGR647X+82"}, "reference": "ChIJDWSzh-3zQQ0RxSLxLVJMnVQ", "scope": "GOOGLE", "types": ["atm", "finance", "point_of_interest", "establishment"], "vicinity": "Calle Carlos Ruiz, 1, Griñón"}, {"business_status": "OPERATIONAL", "geometry": {"location": {"lat": 40.2055371, "lng": -3.884582599999999}, "viewport": {"northeast": {"lat": 40.2069284302915, "lng": -3.883301619708497}, "southwest": {"lat": 40.20423046970851, "lng": -3.885999580291502}}}, "icon": "https://maps.gstatic.com/mapfiles/place_api/icons/v1/png_71/atm-71.png", "icon_background_color": "#909CE1", "icon_mask_base_uri": "https://maps.gstatic.com/mapfiles/place_api/icons/v2/atm_pinlet", "name": "Santander ATM", "place_id": "ChIJrbVuIPXyQQ0RTmEFhpzlvJQ", "plus_code": {"compound_code": "6448+65 Serranillos del Valle, Spain", "global_code": "8CGR6448+65"}, "reference": "ChIJrbVuIPXyQQ0RTmEFhpzlvJQ", "scope": "GOOGLE", "types": ["atm", "finance", "point_of_interest", "establishment"], "vicinity": "Calle de Cataluña, 14, Serranillos del Valle"}, {"business_status": "OPERATIONAL", "geometry": {"location": {"lat": 40.20521420000001, "lng": -3.8861839}, "viewport": {"northeast": {"lat": 40.20658993029151, "lng": -3.884747369708498}, "southwest": {"lat": 40.20389196970851, "lng": -3.887445330291502}}}, "icon": "https://maps.gstatic.com/mapfiles/place_api/icons/v1/png_71/bank-71.png", "icon_background_color": "#909CE1", "icon_mask_base_uri": "https://maps.gstatic.com/mapfiles/place_api/icons/v2/bank-intl_pinlet", "international_phone_number": "+34 911 96 77 49", "name": "Eurocaja Rural", "opening_hours": {"open_now": false}, "photos": [{"height": 1080, "html_attributions": ["<a href=\"https://maps.google.com/maps/contrib/104472873021709303080\">Eurocaja Rural</a>"], "photo_reference": "AWn5SU4F_cIM0krX0B9b0TDDU6_GGS0I_5KO1LZm9CtMwhbuTRe5C-O4PDurStbfAx_qzAVdO3RAEXgwwlgShzMx0eoZ1byrpS65l1dSmBPRIYNx8t4E1LLfZZa0-R-qD3GC6L0FEPnkwwtSxuqoU4xLancVWsvy-DKsr5AoqPrAsS9O5gj2s7jw7YURQbncGAENjlzs2GkNbA0a9WGX6_XvtFJFXEkOccLu3c72GDAbUkxBB_gNvqGjuTDbVq8qHkr3_dlM0CsuwljR56Ysm3ihH2Sa3uKni5YGUnNExw5L6pLDQdO8gB06UjLZP2x4NJ6DpitEIV-c", "width": 1080}], "place_id": "ChIJ5cVpXITzQQ0RW3cgiWmL788", "plus_code": {"compound_code": "6447+3G Serranillos del Valle, Spain", "global_code": "8CGR6447+3G"}, "rating": 4.5, "reference": "ChIJ5cVpXITzQQ0RW3cgiWmL788", "scope": "GOOGLE", "types": ["bank", "atm", "finance", "point_of_interest", "establishment"], "user_ratings_total": 17, "vicinity": "Paseo de la Ermita, 7, Serranillos del Valle"}, {"business_status": "OPERATIONAL", "geometry": {"location": {"lat": 40.190987, "lng": -3.8395622}, "viewport": {"northeast": {"lat": 40.19232428029151, "lng": -3.838247969708498}, "southwest": {"lat": 40.18962631970851, "lng": -3.840945930291502}}}, "icon": "https://maps.gstatic.com/mapfiles/place_api/icons/v1/png_71/atm-71.png", "icon_background_color": "#909CE1", "icon_mask_base_uri": "https://maps.gstatic.com/mapfiles/place_api/icons/v2/atm_pinlet", "international_phone_number": "+34 900 404 090", "name": "ATM CaixaBank - Cajero", "opening_hours": {"open_now": true}, "photos": [{"height": 681, "html_attributions": ["<a href=\"https://maps.google.com/maps/contrib/101963514584957122243\">ATM CaixaBank - Cajero</a>"], "photo_reference": "AWn5SU4NJQsxAxY6edHnxpnr5etSNTMwdOX-9MbuPaVh2S2h80kyk4RSNdSnya9SP1GMtHSB13vGKwTtDDaHfBAcAtPKt7jgyj_jOgjienmY34BnFei4KxlQX1Eeqaz_ctUphcgPT2rpY-OQOlnoIo-DEbIUAxrZaHVi9jnx5hp-Ah73Eok04JKj5KkYubNK_LVhQ4IJDWUupvk5T04bBLwm9t_vI7Kc_PJWe-fck-t3JXF-SyX00limxZwv2gYvE4AaWZe-uXq1TobPpdrNmg4wkWH9TAOrLcYr766WbajXiLJBf2grjUI0g0jhbiSAkIe-TWdPuORyVOU", "width": 1024}], "place_id": "ChIJS5HYaOLzQQ0RvnbSnSWDIV4", "plus_code": {"compound_code": "55R6+95 Cubas de la Sagra, Spain", "global_code": "8CGR55R6+95"}, "reference": "ChIJS5HYaOLzQQ0RvnbSnSWDIV4", "scope": "GOOGLE", "types": ["atm", "finance", "point_of_interest", "establishment"], "vicinity": "Calle Real, 20, Cubas de la Sagra"}, {"business_status": "OPERATIONAL", "geometry": {"location": {"lat": 40.2507915, "lng": -3.8299003}, "viewport": {"northeast": {"lat": 40.2521885802915, "lng": -3.828502019708498}, "southwest": {"lat": 40.2494906197085, "lng": -3.831199980291502}}}, "icon": "https://maps.gstatic.com/mapfiles/place_api/icons/v1/png_71/atm-71.png", "icon_background_color": "#909CE1", "icon_mask_base_uri": "https://maps.gstatic.com/mapfiles/place_api/icons/v2/atm_pinlet", "international_phone_number": "+34 913 34 07 61", "name": "Cajero Euro Automatic Cash", "opening_hours": {"open_now": true}, "photos": [{"height": 900, "html_attributions": ["<a href=\"https://maps.google.com/maps/contrib/115443001729565284246\">Cajero Euro Automatic Cash</a>"], "photo_reference": "AWn5SU7mKqvRNyYExoqp39wvQ_m62mYSDkfoVTgZu__kYgIbPdh6ZDyxMWBsZQMLAACWHw0_3PmvHmKOpN_gEnIf6Ob1GuM8G21vTvs9r-11uhrU84uzI-DfhqT6esVJcJTsu0cSpLOyM6iCrXewuJP0PnlJq1wbSS1qDs2uX3SJ-nAV8Rh72mBdNbR7Sk0JmYlRBQjigZn4oodZG0631PJZlJADKLdL2qgXB9gdoA9tBrJGHnlSkMHLXI_4SWop1H4Sn7VAxxE2MXrTP6upsMCrLLq9brOWT6rtYKaYh2hyO0hTQ6gFt0KSM-r7aux95iCKhfgrlHFY_0M", "width": 1600}], "place_id": "ChIJt8EYOQWNQQ0Rw982pE4DNuk", "plus_code": {"compound_code": "752C+82 Humanes de Madrid, Spain", "global_code": "8CGR752C+82"}, "reference": "ChIJt8EYOQWNQQ0Rw982pE4DNuk", "scope": "GOOGLE", "types": ["atm", "finance", "point_of_interest", "establishment"], "vicinity": "De La Industria, 84, Humanes de Madrid"}, {"business_status": "OPERATIONAL", "geometry": {"location": {"lat": 40.2521016, "lng": -3.8290252}, "viewport": {"northeast": {"lat": 40.2534877302915, "lng": -3.827702069708497}, "southwest": {"lat": 40.2507897697085, "lng": -3.830400030291501}}}, "icon": "https://maps.gstatic.com/mapfiles/place_api/icons/v1/png_71/bank-71.png", "icon_background_color": "#909CE1", "icon_mask_base_uri": "https://maps.gstatic.com/mapfiles/place_api/icons/v2/bank-intl_pinlet", "international_phone_number": "+34 916 04 01 31", "name": "Banco Santander", "opening_hours": {"open_now": false}, "photos": [{"height": 720, "html_attributions": ["<a href=\"https://maps.google.com/maps/contrib/117329107525208260349\">Banco Santander</a>"], "photo_reference": "AWn5SU5MOFC1qJ6TzebbMit9rkCxmQNYD-mhRcWL36Xld_M2H8To3_aUlUX88lyiZfDxsSlakG-4PTG8dGlD5GjM2e4IHfCXQW6w9OC57_5pltPQPIvnxn8rXySDHud1TCbvX81xJTj5JGrcNnUT1C0JmzgGlW6_zj7U_1ynIkPf2LyDu4gnh9Awz5nEhr8DoQRCGz4F9j33mEBfhmYp7mkFnxVpiHCxU-669CyUnW3KMIJwQA6Y6Aicug9vXMBRe5u3Yf4Y9sA-Jxg3SPnFyn4UfBrwvApD6PVFD7pcSbwKfGof9Ql3alMxSn81JYzy9ISlnE6QIOfZNik", "width": 1280}], "place_id": "ChIJI2UdL7CNQQ0RMllQI5jH95k", "plus_code": {"compound_code": "752C+R9 Humanes de Madrid, Spain", "global_code": "8CGR752C+R9"}, "rating": 2.6, "reference": "ChIJI2UdL7CNQQ0RMllQI5jH95k", "scope": "GOOGLE", "types": ["bank", "atm", "finance", "point_of_interest", "establishment"], "user_ratings_total": 17, "vicinity": "Calle Madrid, 38, Humanes de Madrid"}]