[{"business_status": "OPERATIONAL", "geometry": {"location": {"lat": 40.34542479999999, "lng": -4.1279469}, "viewport": {"northeast": {"lat": 40.34649693029149, "lng": -4.126666719708498}, "southwest": {"lat": 40.34379896970849, "lng": -4.129364680291502}}}, "icon": "https://maps.gstatic.com/mapfiles/place_api/icons/v1/png_71/school-71.png", "icon_background_color": "#7B9EB0", "icon_mask_base_uri": "https://maps.gstatic.com/mapfiles/place_api/icons/v2/school_pinlet", "international_phone_number": "+34 918 13 75 21", "name": "Colegio Público San Miguel", "place_id": "ChIJzbook0K8QQ0Rwj9Vc0o5ac0", "plus_code": {"compound_code": "8VWC+5R Villamantilla, Spain", "global_code": "8CGQ8VWC+5R"}, "reference": "ChIJzbook0K8QQ0Rwj9Vc0o5ac0", "scope": "GOOGLE", "types": ["point_of_interest", "school", "establishment"], "vicinity": "Calle de las Viñas, 9, Villamantilla"}, {"business_status": "OPERATIONAL", "geometry": {"location": {"lat": 40.3473511, "lng": -4.102280599999999}, "viewport": {"northeast": {"lat": 40.3486518802915, "lng": -4.100932569708498}, "southwest": {"lat": 40.34595391970851, "lng": -4.103630530291502}}}, "icon": "https://maps.gstatic.com/mapfiles/place_api/icons/v1/png_71/school-71.png", "icon_background_color": "#7B9EB0", "icon_mask_base_uri": "https://maps.gstatic.com/mapfiles/place_api/icons/v2/school_pinlet", "international_phone_number": "+34 910 56 03 87", "name": "Escuela Infantil Villanueva De Perales", "place_id": "ChIJzcYOOLC9QQ0R2kAeu2JZ4eA", "plus_code": {"compound_code": "8VWX+W3 Villanueva de Perales, Spain", "global_code": "8CGQ8VWX+W3"}, "reference": "ChIJzcYOOLC9QQ0R2kAeu2JZ4eA", "scope": "GOOGLE", "types": ["point_of_interest", "school", "establishment"], "vicinity": "Calle Chapíneria, 14, Villanueva de Perales"}, {"business_status": "OPERATIONAL", "geometry": {"location": {"lat": 40.34795689999999, "lng": -4.0961614}, "viewport": {"northeast": {"lat": 40.3492598302915, "lng": -4.094778569708498}, "southwest": {"lat": 40.3465618697085, "lng": -4.097476530291503}}}, "icon": "https://maps.gstatic.com/mapfiles/place_api/icons/v1/png_71/school-71.png", "icon_background_color": "#7B9EB0", "icon_mask_base_uri": "https://maps.gstatic.com/mapfiles/place_api/icons/v2/school_pinlet", "international_phone_number": "+34 918 13 78 94", "name": "C.E.I.P. Cristo de La Campana", "opening_hours": {"open_now": false}, "photos": [{"height": 473, "html_attributions": ["<a href=\"https://maps.google.com/maps/contrib/104499203534283143714\">Cp Inf Pri Cristo De La Campana</a>"], "photo_reference": "AWn5SU61bGtNFkRVYZ0opGBE4Ra41oP7wl_RV67qAevTLYRgsR8Y9OVrAKFBb0he_zkhz2O_dW9Rs9_gw9ViSM7ijcWdlq_diHkQqguDxsaGrxmvkLtLCX_bFtZ_-NrEMTGqBY_UucI8tpVzt6GugMmUbocL86cD-dJ2-piqMVeG_NI5HJrqF6v3-LU4_f1xNjHXV2MrUSvxjoSaYzBotz6C5hC7MKDNhi2vQvc2B4qEYKRjL1hchui2zCAYZMm4WC1_V9auxDO0HDXca5k9ChmRHO0x5BLAvThtMijg99QdsN6DB6qPZgRediuhFX9GaXHttHF2rxjYSqE", "width": 940}], "place_id": "ChIJ5bn6zLq9QQ0R42Hr5oA2nEQ", "plus_code": {"compound_code": "8WX3+5G Villanueva de Perales, Spain", "global_code": "8CGQ8WX3+5G"}, "reference": "ChIJ5bn6zLq9QQ0R42Hr5oA2nEQ", "scope": "GOOGLE", "types": ["point_of_interest", "school", "establishment"], "vicinity": "Paseo de Castilla, S/N, Villanueva de Perales"}, {"business_status": "OPERATIONAL", "geometry": {"location": {"lat": 40.29656059999999, "lng": -4.1087278}, "viewport": {"northeast": {"lat": 40.2979643302915, "lng": -4.107727569708498}, "southwest": {"lat": 40.2952663697085, "lng": -4.110425530291502}}}, "icon": "https://maps.gstatic.com/mapfiles/place_api/icons/v1/png_71/school-71.png", "icon_background_color": "#7B9EB0", "icon_mask_base_uri": "https://maps.gstatic.com/mapfiles/place_api/icons/v2/school_pinlet", "international_phone_number": "+34 918 13 63 70", "name": "Public school San Damaso", "opening_hours": {"open_now": false}, "photos": [{"height": 2196, "html_attributions": ["<a href=\"https://maps.google.com/maps/contrib/104238225777498804695\">Colegio Público San Dámaso</a>"], "photo_reference": "AWn5SU5lKjfao_l132nblsNZsZSJWWu6eUQef3D6LscyH7DgzTtVNb9iSfCJ2Xg4SaWJKoymxgtJAryIJwrvKzvYba_DABYnL_oLTb9HEr4mOHbohJxjOWx_7nBfC61yGjvjopjCtKLqlXiEj0gC4JQ8Fh1g19_F8OUMHO9QaAuM-k52uQHFAviCPmCJi2_2b4DnYwPJq7LmVFYPZ7AzEkPOS-0vyuVjDK-ohr37uZYj9R5rGJTEuCgGd0duXvSx-BP0fN844Mgl8JQmP3KFBRsq6mdWOnhILp04stbPgPKMe8ce6OmPypFkgIoB6EgOksg1C6pVfHTFwWk", "width": 4640}], "place_id": "ChIJV4qGWvW-QQ0RL067XYfoIcY", "plus_code": {"compound_code": "7VWR+JG Villamanta, Spain", "global_code": "8CGQ7VWR+JG"}, "reference": "ChIJV4qGWvW-QQ0RL067XYfoIcY", "scope": "GOOGLE", "types": ["point_of_interest", "school", "establishment"], "vicinity": "Cañada Segoviana del Real, Villamanta"}, {"business_status": "OPERATIONAL", "geometry": {"location": {"lat": 40.3483526, "lng": -4.0294839}, "viewport": {"northeast": {"lat": 40.34972073029149, "lng": -4.028162269708498}, "southwest": {"lat": 40.3470227697085, "lng": -4.030860230291503}}}, "icon": "https://maps.gstatic.com/mapfiles/place_api/icons/v1/png_71/school-71.png", "icon_background_color": "#7B9EB0", "icon_mask_base_uri": "https://maps.gstatic.com/mapfiles/place_api/icons/v2/school_pinlet", "international_phone_number": "+34 918 13 00 19", "name": "Cp Inf Pri Duque De Rivas", "opening_hours": {"open_now": false}, "place_id": "ChIJVTACiViWQQ0R7PO5bgym9u8", "plus_code": {"compound_code": "8XXC+86 Sevilla la Nueva, Spain", "global_code": "8CGQ8XXC+86"}, "reference": "ChIJVTACiViWQQ0R7PO5bgym9u8", "scope": "GOOGLE", "types": ["point_of_interest", "school", "establishment"], "vicinity": "Calle Villanueva, 1, Sevilla la Nueva"}, {"business_status": "CLOSED_TEMPORARILY", "geometry": {"location": {"lat": 40.3498191, "lng": -4.099254}, "viewport": {"northeast": {"lat": 40.35116643029149, "lng": -4.097908919708498}, "southwest": {"lat": 40.34846846970849, "lng": -4.100606880291503}}}, "icon": "https://maps.gstatic.com/mapfiles/place_api/icons/v1/png_71/school-71.png", "icon_background_color": "#7B9EB0", "icon_mask_base_uri": "https://maps.gstatic.com/mapfiles/place_api/icons/v2/school_pinlet", "international_phone_number": "+34 918 13 71 57", "name": "El Acebo", "permanently_closed": true, "photos": [{"height": 728, "html_attributions": ["<a href=\"https://maps.google.com/maps/contrib/105377802132873815016\">Granja Escuela El Acebo</a>"], "photo_reference": "AWn5SU4eqdrDEzk66CHdiCFNHaFC3ELAfA9dJYkrQ8yjvLz7yXijLmE61XO_av2nGQcTW7cseziphFPEZClzMrz34u5f488AJ6YmEH8tFLea4twiVLbaNmYZx84_1n_wYhKdoyrTP7vxI1LIZBgJL20JwXouvOOMxv1unaa--GBvz6qS6tRelOeGPNkgps3KAP7GSomBXQgxC4OnWIIa2ggLGDVj2sm8yXm1UEDng3f1SNVhZ0qhCfD1bVmcSKVlIb6Mdi2NK4IBMROJ3Z8UNX4v-PVxHCMGcNfeuISZUU6SvF_sb5SyovadYb9CPML-SeDgeoieNK7SYMVmyuax9CI_FM358htsUS5ilztL14n9oiTFN4jmORJSG7lqXMqvUERk5qk8qdkYlBDiPUD3t5R6eKdWJc9hxWj1TX-vQumm6bhRRSYggynMd017AHMdCp2t038aQhkPxpqOZcWmEnG4iKEi-asA4MMDRk0waW3mddSV4nMn3a28fHs2z5JYp0uIUT_ghCawrTcomuyP02roceWCJWMghB5XmUf-2FqPvwgq_gmo7u5oyBt6fku9SCt6QVnABjFpi2gmMrXcbkjd6t0xpIKpPIvTEsYMdtMi2w6y2SXVW8Bns2s1Jp7NP3RCih8rvUoa", "width": 1296}], "place_id": "ChIJFUPtY6W9QQ0Rd2sdgB0yBPg", "plus_code": {"compound_code": "8WX2+W7 Villanueva de Perales, Spain", "global_code": "8CGQ8WX2+W7"}, "rating": 4.8, "reference": "ChIJFUPtY6W9QQ0Rd2sdgB0yBPg", "scope": "GOOGLE", "types": ["point_of_interest", "school", "establishment"], "user_ratings_total": 8, "vicinity": "Paseo de Enrique Tierno Galván, 4, Villanueva de Perales"}, {"business_status": "OPERATIONAL", "geometry": {"location": {"lat": 40.34601749999999, "lng": -4.0337367}, "viewport": {"northeast": {"lat": 40.3474212802915, "lng": -4.032314969708499}, "southwest": {"lat": 40.3447233197085, "lng": -4.035012930291503}}}, "icon": "https://maps.gstatic.com/mapfiles/place_api/icons/v1/png_71/school-71.png", "icon_background_color": "#7B9EB0", "icon_mask_base_uri": "https://maps.gstatic.com/mapfiles/place_api/icons/v2/school_pinlet", "international_phone_number": "+34 918 12 82 91", "name": "College Nova Hispalis", "opening_hours": {"open_now": false}, "photos": [{"height": 458, "html_attributions": ["<a href=\"https://maps.google.com/maps/contrib/113116818630171090855\">Colegio Nova Hispalis</a>"], "photo_reference": "AWn5SU70Eqw468QqzEZ74HKR2yJlrHzUb6QSaT7RqLUlO_gCq4IiPfCm9VC766bH4zVtB0sAUEiNyLBWgTT1t8l2_HjvNkvLFKUJm1NJXGp3EJl9J5t3cC40VMjJy_iqboC6Ecrp6l99P20WaoasI_cKD_dLn4ZKCfNSURlR4SlJ_mC6cUe84ThBxgVXre0dSMRIP52hlqaNzraGxzVH4zKYKtVQFX7aF7eTN85A6ZghXLEGc2HkYu4BTTAjg2ji606yHvzJFN4YqgcbyeRRyHZEP6_QpFhD_B_a2pZuLOLNYOJ-4f4DaOq78nIqiAwRxvGVRcTDy3KSJyA", "width": 972}], "place_id": "ChIJr6HKr1-WQQ0R_9lnclQrw5c", "plus_code": {"compound_code": "8XW8+CG Sevilla la Nueva, Spain", "global_code": "8CGQ8XW8+CG"}, "reference": "ChIJr6HKr1-WQQ0R_9lnclQrw5c", "scope": "GOOGLE", "types": ["primary_school", "point_of_interest", "school", "establishment"], "vicinity": "Avenida Dos de Mayo, S/N, Sevilla la Nueva"}, {"business_status": "OPERATIONAL", "geometry": {"location": {"lat": 40.34598310000001, "lng": -4.0306067}, "viewport": {"northeast": {"lat": 40.3476401302915, "lng": -4.029203469708498}, "southwest": {"lat": 40.3449421697085, "lng": -4.031901430291501}}}, "icon": "https://maps.gstatic.com/mapfiles/place_api/icons/v1/png_71/school-71.png", "icon_background_color": "#7B9EB0", "icon_mask_base_uri": "https://maps.gstatic.com/mapfiles/place_api/icons/v2/school_pinlet", "international_phone_number": "+34 918 12 40 66", "name": "IES Sevilla la Nueva", "opening_hours": {"open_now": false}, "photos": [{"height": 299, "html_attributions": ["<a href=\"https://maps.google.com/maps/contrib/111410902489757875711\">lucas</a>"], "photo_reference": "AWn5SU60RykVfGwk_ZLbNCpdDz6s9PmX2zMnx4hhTQsTCxzZBMpwLqq_lwPZIV-SIZGHdd_xxHxZsW9EyLWZb_0PwKcz-pT8Mpe9E4kYZfqUCqlO0QDQI7MTvALAElbYftP-tNykwKbAjRWxDdoN4pHVnhb32YmTj6-Z1GY-5b2htk01cj0eA8dGpu1suMIBOzBmg65IIznY7N6PbAj7PjDluTYZUx4qZz7e4Q-d8WF1dXUX57CzmV9DO5m63TTxNnda6kwlDUvbMpy4_Z72wdmuoORN7w7rblbZymOfpHHZOS0qoXrzGgwTAU0yDTc_TkLMLpc6oss9x42Zh3eJlPcZOsYlaY5sFLwXrH6iIlSen1BP0MjTwasFQrD8UUxnEkMpno1kEqeZt4dekq64RvpQ0SjthzX1NA4R1fSbf1fl9bGEl2RC1vnqBJjfGkiwvN8Z6ZHdkcxTi1PFsXeLwN07Wz3tuEd8CUCpMjvQtyeFaPN2V8ewWvqU_gfXDrZWIM7flqUG1p8vt_BxLVITuomIofohXnBCxq-bvZsHGXsPpqN9Z5ZdO71FdInfOA9pZ1Hf1WHDd1hFVmMe3UpyKgiZJal_3Y-m4UQXQuXhwSsGek-iHiVvgxKp5o-qnmi7wuB78wEv7j1oiNCTRfc1uM-9gGpcsrU", "width": 450}], "place_id": "ChIJ5-8YGlmWQQ0RcjuI8OKcEyk", "plus_code": {"compound_code": "8XW9+9Q Sevilla la Nueva, Spain", "global_code": "8CGQ8XW9+9Q"}, "reference": "ChIJ5-8YGlmWQQ0RcjuI8OKcEyk", "scope": "GOOGLE", "types": ["secondary_school", "point_of_interest", "school", "establishment"], "vicinity": "Calle Ruiseñor, 5, Sevilla la Nueva"}, {"business_status": "OPERATIONAL", "geometry": {"location": {"lat": 40.34982439999999, "lng": -4.0992755}, "viewport": {"northeast": {"lat": 40.3511774302915, "lng": -4.097917019708498}, "southwest": {"lat": 40.3484794697085, "lng": -4.100614980291502}}}, "icon": "https://maps.gstatic.com/mapfiles/place_api/icons/v1/png_71/generic_business-71.png", "icon_background_color": "#7B9EB0", "icon_mask_base_uri": "https://maps.gstatic.com/mapfiles/place_api/icons/v2/generic_pinlet", "international_phone_number": "+34 660 43 77 85", "name": "Granja Escuela del Ayer", "photos": [{"height": 3000, "html_attributions": ["<a href=\"https://maps.google.com/maps/contrib/108931310964953656739\">LA LOLA</a>"], "photo_reference": "AWn5SU427hzn4FVBdH7MMMs7g2L4ZcaEhBQ2SCxAcWt2FOw8ZIVOrIYsrypnfO4j-c-BaBz8cnbN88EdL2TpIloRMnK2RA3F1wblQIPDvoTPZ0IVefZhSqpip-GH9nrc23jFA3qgi1OEqAN6KFPyu1IIwh1I6489xDFeCgWrkgfxsB2OQLP1dKdsI8ghwrhRRfhXPolSsjgavFIgHBIPbqMl6cDD2scqOay0Sm1ZdFl1smXrgLE-gDrznhf_SvCyTKQk2SzX0Ccu1rdJZPHRxkaXha3NSTaN4LqYoxbejf4NT-U-bqVuJqysMzNXW6VcUzLewiqp3u29r_zKKcEA6PX_JyiZf4XF1pQx4PowmkagD9f8nJM6bc6qdqxe_O3EeNcj6sMhujbGjpoynB5Q8dKkFPQqDsaNCA1S-PLk30CMIEN3STP2sJ2fnXdtiTojKi1n0jEcpMciXu8bbfOA6WrXJIMwmxlJypTXDRu-kIdo9t8WIv29uCGLcpZHiy7a0aEsJWPSarRRVPnNtG6e1ESraaZVia50Te0W_zUKVPwr1VT2qGh6MajJhOiRtnWPH0xbyPxTkZsFR-M9eS_fte4OZ3tFp8Cd5_ES28PHxOeFFCAYFuZBzO_T9Q-l_Y31ZmutNqV4mQ", "width": 4000}], "place_id": "ChIJ-2tDnI-9QQ0RsNkL3fo1u-8", "plus_code": {"compound_code": "8WX2+W7 Villanueva de Perales, Spain", "global_code": "8CGQ8WX2+W7"}, "rating": 4, "reference": "ChIJ-2tDnI-9QQ0RsNkL3fo1u-8", "scope": "GOOGLE", "types": ["lodging", "point_of_interest", "school", "establishment"], "user_ratings_total": 102, "vicinity": "Paseo de Enrique Tierno Galván, 4, Villanueva de Perales"}, {"business_status": "OPERATIONAL", "geometry": {"location": {"lat": 40.3505967, "lng": -4.0983594}, "viewport": {"northeast": {"lat": 40.3519245802915, "lng": -4.096952019708498}, "southwest": {"lat": 40.3492266197085, "lng": -4.099649980291502}}}, "icon": "https://maps.gstatic.com/mapfiles/place_api/icons/v1/png_71/generic_business-71.png", "icon_background_color": "#7B9EB0", "icon_mask_base_uri": "https://maps.gstatic.com/mapfiles/place_api/icons/v2/generic_pinlet", "international_phone_number": "+34 686 37 02 17", "name": "Eco-Camp", "opening_hours": {"open_now": false}, "photos": [{"height": 4080, "html_attributions": ["<a href=\"https://maps.google.com/maps/contrib/116983583706456355432\">victor coke</a>"], "photo_reference": "AWn5SU678xvEn3wfTTtx36oHQKVarsB4AP7yM0tqk4nqbj0EFZHw_RX2cFnpN7GCoEpTsO8ElNItaeBZlA5JHcjEpqcWKbhrGHM3Mk9l6PDWsurBZ14jOQypFhfCxFwjdnVEY8HZgIeIi9UebzCUNRvTXeXS9PninIHXgCz_6sfcky8CjsLkXcpGworX8fAPo1sn4_bIh4CefCgef4cTB8EIEgzhGfTZLghqrt7v9hy4vPkGEwTaxIlGEWMh812FpTr7G3DWFvTHc5_zahuNmW9cwdhKT_j7akYusIhgaXM_t0ti3-ckge2yS0EPco_i-9sR5BWACzC9wuhYCm0r9e2aWGmklrBCDLIZjsQzYsFYiweY5I9ryNhkzO6WRgn1ex5GZ1HGotDOEpsoqsXrItr0ZB5zjuqRb1vFD3PDdgqwretgg-ozmM2z9xb7WC4eKpiaa14GMQCDpmTqYjo-ZhPyxKuu6C5Svx16E7SwfDOyqPm8FvimHVr_5uQ8J3pTSWnKOxhZFIMUsOA_R-bH3ORXecIMmPTqNrsOjRpBWSd5nSoOClgfp_MVqmCEgRUG9TdQ-zkX02ZG6AHa3-ClkJ3-ILuh1n-7gwLtreykCwRreQ8rTTl_yV2oeDN-FpZr26Xtt-6MLFN_", "width": 3060}], "place_id": "ChIJ52zHGt-9QQ0RnNOtaHQqfsU", "plus_code": {"compound_code": "9W22+6M Villanueva de Perales, Spain", "global_code": "8CGQ9W22+6M"}, "rating": 4.8, "reference": "ChIJ52zHGt-9QQ0RnNOtaHQqfsU", "scope": "GOOGLE", "types": ["lodging", "point_of_interest", "school", "establishment"], "user_ratings_total": 5, "vicinity": "Paseo de Enrique Tierno Galván, 4, Villanueva de Perales"}, {"business_status": "OPERATIONAL", "geometry": {"location": {"lat": 40.3434859, "lng": -4.1279948}, "viewport": {"northeast": {"lat": 40.34483403029149, "lng": -4.126730319708497}, "southwest": {"lat": 40.34213606970849, "lng": -4.129428280291502}}}, "icon": "https://maps.gstatic.com/mapfiles/place_api/icons/v1/png_71/school-71.png", "icon_background_color": "#7B9EB0", "icon_mask_base_uri": "https://maps.gstatic.com/mapfiles/place_api/icons/v2/school_pinlet", "international_phone_number": "+34 918 13 71 45", "name": "Casa de niños \" La Jara\"", "opening_hours": {"open_now": false}, "photos": [{"height": 3000, "html_attributions": ["<a href=\"https://maps.google.com/maps/contrib/109584234533967172689\">Fatima Rodriguez</a>"], "photo_reference": "AWn5SU4YUq85iXIkBtSsK1QW_FPcNP_kZ1Oiyc2_7z4UbwJNER4xOKKN7EmE0vAdlCyPpVFf5Ak6ufrj5LEesVLWZtt-QcEvG8jRMqxvSi_CQWfbGeVlwtYW_PM5biM5DLlz5qsuoylqpgugeIQcaj-susah96GuGrnaDGmYL-WgE5q1du38u5Mp3iY2Ux2ir7-aQZStw49m-4ShtbSuR1b-QQGxlyxWXllKUAHm86SGRqCtOsE708UikKwfsCy-W5MniapVQ8F0M8t_r9I2xnFuqR-0nftdR0frIEHlMcaSJmu8zwMY0CGlm9B3X8yygvbT1d4tjzQWEzFg5soFLzvuDACER5tDb7ABqasxUeZkiUNQG6q6BTds2htV8m7LZCTqx_1Vod1qBBhrSriOeGLksgBX-Y7ud5945qsxyN6cJyhQ4ttYYZBeYqh0EFQgpS5lHz8KPv6RJhf-8jaXS4kblpy9uG4aM39JU0n2HqjqVkFCe6A3hcth5toz9VnkNn1pMonEXvhgi8lbkWp0scBHjBQHrcyv7AprSh-LWYZjvNxyJm-cDh_NNTE0S_dHBeVKrXlJgdvZgBT292hnuRjm2u6ATIv-Hn46V8LWuUd-x6pUK60QBVtioHvII_jzY6f3wOaE7g", "width": 4000}], "place_id": "ChIJ3SvfykO8QQ0RLWosUDVwvPU", "plus_code": {"compound_code": "8VVC+9R Villamantilla, Spain", "global_code": "8CGQ8VVC+9R"}, "rating": 4, "reference": "ChIJ3SvfykO8QQ0RLWosUDVwvPU", "scope": "GOOGLE", "types": ["point_of_interest", "school", "establishment"], "user_ratings_total": 4, "vicinity": "Calle del Olivar, 4, Villamantilla"}, {"business_status": "OPERATIONAL", "geometry": {"location": {"lat": 40.3384556, "lng": -4.0690502}, "viewport": {"northeast": {"lat": 40.3393392802915, "lng": -4.067257019708497}, "southwest": {"lat": 40.33664131970851, "lng": -4.069954980291501}}}, "icon": "https://maps.gstatic.com/mapfiles/place_api/icons/v1/png_71/school-71.png", "icon_background_color": "#7B9EB0", "icon_mask_base_uri": "https://maps.gstatic.com/mapfiles/place_api/icons/v2/school_pinlet", "international_phone_number": "+34 667 83 06 96", "name": "La dolce strega S. L.", "opening_hours": {"open_now": false}, "place_id": "ChIJwyDsYyiXQQ0RlzThnD97XfY", "plus_code": {"compound_code": "8WQJ+99 Villamanta, Spain", "global_code": "8CGQ8WQJ+99"}, "rating": 3, "reference": "ChIJwyDsYyiXQQ0RlzThnD97XfY", "scope": "GOOGLE", "types": ["point_of_interest", "school", "establishment"], "user_ratings_total": 1, "vicinity": "M523, km 5, 400, Villamanta"}, {"business_status": "OPERATIONAL", "geometry": {"location": {"lat": 40.3453378, "lng": -4.029630700000001}, "viewport": {"northeast": {"lat": 40.34672023029149, "lng": -4.028217469708498}, "southwest": {"lat": 40.34402226970849, "lng": -4.030915430291503}}}, "icon": "https://maps.gstatic.com/mapfiles/place_api/icons/v1/png_71/school-71.png", "icon_background_color": "#7B9EB0", "icon_mask_base_uri": "https://maps.gstatic.com/mapfiles/place_api/icons/v2/school_pinlet", "international_phone_number": "+34 918 12 40 93", "name": "Public school Antón Sevillano", "place_id": "ChIJ5-8YGlmWQQ0Rl1nQweO7EC8", "plus_code": {"compound_code": "8XWC+44 Sevilla la Nueva, Spain", "global_code": "8CGQ8XWC+44"}, "reference": "ChIJ5-8YGlmWQQ0Rl1nQweO7EC8", "scope": "GOOGLE", "types": ["point_of_interest", "school", "establishment"], "vicinity": "Calle Ruiseñor, 1, Sevilla la Nueva"}, {"business_status": "OPERATIONAL", "geometry": {"location": {"lat": 40.2972854, "lng": -4.109393}, "viewport": {"northeast": {"lat": 40.29863213029149, "lng": -4.108089019708498}, "southwest": {"lat": 40.2959341697085, "lng": -4.110786980291503}}}, "icon": "https://maps.gstatic.com/mapfiles/place_api/icons/v1/png_71/generic_business-71.png", "icon_background_color": "#7B9EB0", "icon_mask_base_uri": "https://maps.gstatic.com/mapfiles/place_api/icons/v2/generic_pinlet", "international_phone_number": "+34 646 82 10 33", "name": "\"Jara en el Bosque\" MADRE DE DIA Grupo de Juego en la Naturaleza. ESCUELA.", "opening_hours": {"open_now": false}, "photos": [{"height": 1600, "html_attributions": ["<a href=\"https://maps.google.com/maps/contrib/110141458809414721750\">&quot;Jara en el Bosque&quot; MADRE DE DIA Grupo de Juego en la Naturaleza. ESCUELA.</a>"], "photo_reference": "AWn5SU5wRphJ-GLJiY6ADqgZIbidMrTEza5GuFeS-Jx2gNbosN89uS6MDWEz5I78XQYa8n6t1izGfXV_iGNZQbMkHZ6fRXOyMt1HUKPAEhAe75nmgILTOnI9kkDYisPBKWM57zvPZIEE87-WkdrmIIEJYNiyMp-A6yaSWTc8XXQFdnWEXR-LxD6IzsRmZHnLvnhxTwk36RZiMbjwC0qOQ9QzC0P9IGlpo1qpCdK2N5Axb8GwRHhsLWRrLOMft_9O8f0brtIu6hUHFIlftYJ_MYQ3QmWrrqvxHSP-hcrfhIiM_fgOgsJFvt1cLmgQc3zWpCwsAU72MtTVyA8", "width": 900}], "place_id": "ChIJ6zJuJtglQg0RFeVcCvsLIH4", "plus_code": {"compound_code": "7VWR+W6 Villamanta, Spain", "global_code": "8CGQ7VWR+W6"}, "rating": 4.5, "reference": "ChIJ6zJuJtglQg0RFeVcCvsLIH4", "scope": "GOOGLE", "types": ["point_of_interest", "school", "establishment"], "user_ratings_total": 2, "vicinity": "Calle Agustín García Gasco, 11, Villamanta"}, {"business_status": "OPERATIONAL", "geometry": {"location": {"lat": 40.3513826, "lng": -4.033787900000001}, "viewport": {"northeast": {"lat": 40.3527686802915, "lng": -4.032431219708498}, "southwest": {"lat": 40.3500707197085, "lng": -4.035129180291503}}}, "icon": "https://maps.gstatic.com/mapfiles/place_api/icons/v1/png_71/school-71.png", "icon_background_color": "#7B9EB0", "icon_mask_base_uri": "https://maps.gstatic.com/mapfiles/place_api/icons/v2/school_pinlet", "name": "Red Hunters MC", "place_id": "ChIJVwklqByXQQ0R_v9Jqo_fCu0", "plus_code": {"compound_code": "9X28+HF Sevilla la Nueva, Spain", "global_code": "8CGQ9X28+HF"}, "reference": "ChIJVwklqByXQQ0R_v9Jqo_fCu0", "scope": "GOOGLE", "types": ["point_of_interest", "school", "establishment"], "vicinity": "Camino de Las Charcas, 7, Sevilla la Nueva"}, {"business_status": "OPERATIONAL", "geometry": {"location": {"lat": 40.2955183, "lng": -4.1131585}, "viewport": {"northeast": {"lat": 40.2968116802915, "lng": -4.111768469708498}, "southwest": {"lat": 40.2941137197085, "lng": -4.114466430291502}}}, "icon": "https://maps.gstatic.com/mapfiles/place_api/icons/v1/png_71/school-71.png", "icon_background_color": "#7B9EB0", "icon_mask_base_uri": "https://maps.gstatic.com/mapfiles/place_api/icons/v2/school_pinlet", "international_phone_number": "+34 696 99 25 25", "name": "Escuela De Educación Infantil Casa De Niños La Estación", "opening_hours": {"open_now": false}, "photos": [{"height": 3096, "html_attributions": ["<a href=\"https://maps.google.com/maps/contrib/113367424887657625728\">ANA PÉREZ LAPIQUE</a>"], "photo_reference": "AWn5SU6xvm03F7_ezYGSg0fUWVCc5X7922O7dHbablC-Ww_Dx9CKzA938C1nLJ5B32vzH_vyZpr86WwIF2FpnOPq5D047nJDJTA8sSv-qa9kmjs6ozvE-TVuNPA3IKs10wbcw_wb76gWiTy8wFfIf4qJGITQCyB58vOxAxx-mizkETGct3HxF5SfGNREpj5AKkJE3AHJ_jM2CcUIrx2xJvSyyzg45Gf6nVbsPwbIrqyqLEj-63AOb9ICjuK-lomAAEZDLZukSzey5cf6sBxmsQLFi-PD_32ZiPQfOTqmr8_WXdkK5bQxSF_TOC0QovmNtKrMpt8N6c9d4SU_3p7UtoGDPdBvJI8IQienpnSzuH5-xQGYSQhO5uVd77LlOB9ZwuHO9JV36zXB4MZskdqfqQEXcnXZVr3ZrjCfMhxYQEii1t-xZD8UCjE3Q69wvWKZWXlbt380yto5xBxsUAe9N-XVlgNzPdo4qW8CVQ7J8peyVwQOjprfO4y3uok18HpOmReaVPZl0Vl7oLnV3RFcWSRyMztlrAvZDoy1HxNbeLViuNr4jE8CVgMOikrHrMPgegVUm1m34mb3iPJgeL0q1uDVoD_NPfkVG65tPx82J5nF0J-nDHZ6x_rhygXx1QkqtP9nY2IxBA", "width": 4128}], "place_id": "ChIJE1nlNPW-QQ0RBJ1-DT77zfs", "plus_code": {"compound_code": "7VWP+6P Villamanta, Spain", "global_code": "8CGQ7VWP+6P"}, "reference": "ChIJE1nlNPW-QQ0RBJ1-DT77zfs", "scope": "GOOGLE", "types": ["point_of_interest", "school", "establishment"], "vicinity": "Paseo de la Estación, 12, Villamanta"}, {"business_status": "OPERATIONAL", "geometry": {"location": {"lat": 40.34732069999999, "lng": -4.0317836}, "viewport": {"northeast": {"lat": 40.3487383302915, "lng": -4.030489219708498}, "southwest": {"lat": 40.3460403697085, "lng": -4.033187180291502}}}, "icon": "https://maps.gstatic.com/mapfiles/place_api/icons/v1/png_71/school-71.png", "icon_background_color": "#7B9EB0", "icon_mask_base_uri": "https://maps.gstatic.com/mapfiles/place_api/icons/v2/school_pinlet", "international_phone_number": "+34 918 12 80 44", "name": "Escuela de Educación Infantil la Pájara Pinta", "photos": [{"height": 2988, "html_attributions": ["<a href=\"https://maps.google.com/maps/contrib/117346988231543395002\">Guille Rodríguez Lorbada</a>"], "photo_reference": "AWn5SU6cZM2Kke1SnzN70YW6RKWwMsgVvrFtmmjPLM3w0hp6fZ1fo-amgO7pc_8BJu0TlCDyK2jwagQ7KXvmZtO82Jb7xGb562spC0QFRV4Y4EtM2DtAc71181oJWvCjgGBF4dp0C2S4VtsWxuJBZg52ZST7eNiMbLT1lFzRDY4fpnFuODIdVbXo5GDUjDiuoJarMOViSj3zzov2RGicnbpOcayUbSSuaw4p9e-4RKK3xLMw9-mfFPEWkbtNq-au7P9I0ooZYC77XHz1SgTV89pMXkULMihN-3tbUbjfQv8f9Nb9CY8tfmLE8TxefSb6iTG9HhUJEZbnZu-rJFPhEBSbzQo71_G0cGKcYZWknN7dNlBA6o9v00RoS7RkUhVJPYA2_VRepP4Wt-beLdRvlDWU0sGyGt4vAAX8Twf0rceDc7p4tNZjgXVQueWR06Jfn7NN0Kqoa3tZAujIvtBFO0U9PJBJvcq6uQE_O9rabZGeP30KBMiUgEGnWNQOW70eu9WXrpMwKPU-kNJs5e3XBQuS8UaR845IVGnokLc4MmfSN_miKbmVm3hHTWctej5dsg991rkBI96mhYJYhmT5l1LG0no23Vq90AG55dUDGImHWu6X5DgihFlwIsEjXe9r5FxLoaY8MTbO", "width": 5312}], "place_id": "ChIJx6QlHVmWQQ0RgP2q_v7bPqw", "plus_code": {"compound_code": "8XW9+W7 Sevilla la Nueva, Spain", "global_code": "8CGQ8XW9+W7"}, "reference": "ChIJx6QlHVmWQQ0RgP2q_v7bPqw", "scope": "GOOGLE", "types": ["point_of_interest", "school", "establishment"], "vicinity": "Paseo del Olivar, 5, Sevilla la Nueva"}, {"business_status": "OPERATIONAL", "geometry": {"location": {"lat": 40.3477368, "lng": -4.030035799999999}, "viewport": {"northeast": {"lat": 40.34914123029149, "lng": -4.028768169708497}, "southwest": {"lat": 40.34644326970849, "lng": -4.031466130291502}}}, "icon": "https://maps.gstatic.com/mapfiles/place_api/icons/v1/png_71/school-71.png", "icon_background_color": "#7B9EB0", "icon_mask_base_uri": "https://maps.gstatic.com/mapfiles/place_api/icons/v2/school_pinlet", "name": "Школа", "place_id": "ChIJCzXvoaqXQQ0R0lOlX82O-nY", "plus_code": {"compound_code": "8XX9+3X Sevilla la Nueva, Spain", "global_code": "8CGQ8XX9+3X"}, "reference": "ChIJCzXvoaqXQQ0R0lOlX82O-nY", "scope": "GOOGLE", "types": ["point_of_interest", "school", "establishment"], "vicinity": "Calle Villanueva, 3, Sevilla la Nueva"}, {"business_status": "OPERATIONAL", "geometry": {"location": {"lat": 40.3484457, "lng": -4.0286534}, "viewport": {"northeast": {"lat": 40.3497946802915, "lng": -4.027304419708497}, "southwest": {"lat": 40.3470967197085, "lng": -4.030002380291502}}}, "icon": "https://maps.gstatic.com/mapfiles/place_api/icons/v1/png_71/school-71.png", "icon_background_color": "#7B9EB0", "icon_mask_base_uri": "https://maps.gstatic.com/mapfiles/place_api/icons/v2/school_pinlet", "international_phone_number": "+34 637 84 28 03", "name": "Burrosdiversia", "opening_hours": {"open_now": false}, "photos": [{"height": 3000, "html_attributions": ["<a href=\"https://maps.google.com/maps/contrib/113994331027009972875\">Mario Jaime</a>"], "photo_reference": "AWn5SU4pW4yVi7wTL_Hl3MtU2jCfUCflgGe-dMKiYjJbduM0dvm24IzWvftJzloTZcC9Nsq_FslrDf_eySYNdfnZbIhOs4VIKj1SpkY-FRh1YebU67JIPKeObtoH4jiYjuGw71sJr4St9BXnBJZypJe3XopbGgKIPnKZpAjPLTVXcWL9EFGDSJLJxiROUzkSrcTdbTfT8CfpHl3ieF2fboiYAhDKsl4Qw5i6tJp-2YvkWnC5BvFgBblonFsBrUhHuuep7ZvCnJZ2gi7MxYsk6NTcc3XD7qKhi6Lje9ZoPo3qK_15U0CWdcWgg-hYi9qwNG9LXsAxmB8AofwbargIPPsTobiXqvZDOqYVN77HWBYcAfYxsbC0guFMYlX1CThME1ZfcaKZmON6HvP2jO1fb931Wk44SppCz-RJ3OphYIHOBLsAtBY9lQFQxlVldgMpeQWSn7CwbNJ95CSnoI9zabyztpEJDbOPwyMIitQPbqBfZU2GQs45qqH1jY5QqFdtSx9EBdVBpx20L1sG7P9R84TZtZ3jCGoK2v3kWx8clRKSMS0-SkyAqy8SembTxQJkzNsefEAnrqpvRoiJaCLQe83LDUZJ69mxBPHl1p6KrNgCEhB9pmoKxN4Ln0CN1S-yKAm8", "width": 4000}], "place_id": "ChIJNQ47e-hBQQ0Rnls-V-GyGik", "plus_code": {"compound_code": "8XXC+9G Sevilla la Nueva, Spain", "global_code": "8CGQ8XXC+9G"}, "rating": 4.8, "reference": "ChIJNQ47e-hBQQ0Rnls-V-GyGik", "scope": "GOOGLE", "types": ["point_of_interest", "school", "establishment"], "user_ratings_total": 151, "vicinity": "M-523, Sevilla la Nueva"}, {"business_status": "OPERATIONAL", "geometry": {"location": {"lat": 40.3470315, "lng": -4.0280796}, "viewport": {"northeast": {"lat": 40.3484138802915, "lng": -4.026626719708497}, "southwest": {"lat": 40.3457159197085, "lng": -4.029324680291501}}}, "icon": "https://maps.gstatic.com/mapfiles/place_api/icons/v1/png_71/school-71.png", "icon_background_color": "#7B9EB0", "icon_mask_base_uri": "https://maps.gstatic.com/mapfiles/place_api/icons/v2/school_pinlet", "name": "Carvin Escuela Infantil", "opening_hours": {"open_now": true}, "place_id": "ChIJwf1X-yKXQQ0RLSEdARQlQW4", "plus_code": {"compound_code": "8XWC+RQ Sevilla la Nueva, Spain", "global_code": "8CGQ8XWC+RQ"}, "reference": "ChIJwf1X-yKXQQ0RLSEdARQlQW4", "scope": "GOOGLE", "types": ["point_of_interest", "school", "establishment"], "vicinity": "Calle General Asensio, 19, Sevilla la Nueva"}]