[{"business_status": "OPERATIONAL", "geometry": {"location": {"lat": 40.4265474, "lng": -3.537405399999999}, "viewport": {"northeast": {"lat": 40.4278922302915, "lng": -3.536107819708498}, "southwest": {"lat": 40.4251942697085, "lng": -3.538805780291501}}}, "icon": "https://maps.gstatic.com/mapfiles/place_api/icons/v1/png_71/bank-71.png", "icon_background_color": "#909CE1", "icon_mask_base_uri": "https://maps.gstatic.com/mapfiles/place_api/icons/v2/bank-intl_pinlet", "international_phone_number": "+34 916 71 70 14", "name": "BBVA", "opening_hours": {"open_now": false}, "photos": [{"height": 720, "html_attributions": ["<a href=\"https://maps.google.com/maps/contrib/113118885142098305413\">BBVA</a>"], "photo_reference": "AWn5SU7DFyS2raKmANMuXODa9yU6zV438S8sm0m1Ao0SSjXydOvysPW5a8TPsN7Baul7PXlYo59d231uGT23y0Mg62PMS6gQE1vmJZJHo4zwIofeXFMstV6P6Y-QEpgV834aSmbmVew_znbLb8j8J49gaF2aBwl6GEF0KVW84E9b4vuZwcDymALBmwR_j6HqYLiL4II7AINKabFIqABhkiCNd_3J7OO7imgFkX9M_SHYGk3-_ACqkiyAJW4M477-p33gSDTdZSfluC1XF11mzzzoSfcI5xnQqOkfAgD3Up5xYebArsiu8rOaL0eABZEMWwc7d-0X3Cz3mVY", "width": 1280}], "place_id": "ChIJmeiDc4owQg0RPdOatT1Cvbk", "plus_code": {"compound_code": "CFG7+J2 San Fernando de Henares, Spain", "global_code": "8CGRCFG7+J2"}, "rating": 2.2, "reference": "ChIJmeiDc4owQg0RPdOatT1Cvbk", "scope": "GOOGLE", "types": ["bank", "atm", "accounting", "finance", "point_of_interest", "establishment"], "user_ratings_total": 63, "vicinity": "Avenida de la Cañada, 14, San Fernando de Henares"}, {"business_status": "OPERATIONAL", "geometry": {"location": {"lat": 40.4258018, "lng": -3.5456719}, "viewport": {"northeast": {"lat": 40.42719553029149, "lng": -3.544456719708498}, "southwest": {"lat": 40.42449756970849, "lng": -3.547154680291502}}}, "icon": "https://maps.gstatic.com/mapfiles/place_api/icons/v1/png_71/bank-71.png", "icon_background_color": "#909CE1", "icon_mask_base_uri": "https://maps.gstatic.com/mapfiles/place_api/icons/v2/bank-intl_pinlet", "international_phone_number": "+34 916 73 27 21", "name": "BBVA", "opening_hours": {"open_now": false}, "photos": [{"height": 720, "html_attributions": ["<a href=\"https://maps.google.com/maps/contrib/109728747240176389244\">BBVA</a>"], "photo_reference": "AWn5SU5MIMqFEX2g5mZMSwvEQYvD4sQeyAKb_ZgvrLij6apWQ0El60Ua5wZEpjY1KCvIKI5swR789SjVBaoPgw4OuAM3IU7nVbJlVOKklQv73ZJ7K41K7cwgB8ogU9EnudQqcAF1JN-jJgfI9MkCEZTJ_oeoWVtOIhLvLf3k9yhibL0-jDwwFUWnF-UX_EOhm3efxBZ0j6PJYIgdCQjMLLqRn3FCbv6wGIjEhxS9IuNWD6-8VakZ_e8-NPzxnKrau6zY9YH-dv2Iuaj60eG_gGH9UTRawPNrvgwUkcd22KlzkxPxyFBltWV6fbtBxufCRl_KxiT5EaehSyA", "width": 1280}], "place_id": "ChIJB0MFgnwwQg0RYUs-vlA7gpY", "plus_code": {"compound_code": "CFG3+8P Coslada, Spain", "global_code": "8CGRCFG3+8P"}, "rating": 2.5, "reference": "ChIJB0MFgnwwQg0RYUs-vlA7gpY", "scope": "GOOGLE", "types": ["bank", "atm", "accounting", "finance", "point_of_interest", "establishment"], "user_ratings_total": 50, "vicinity": "Calle de Méjico, 12, Coslada"}, {"business_status": "OPERATIONAL", "geometry": {"location": {"lat": 40.4257304, "lng": -3.5639565}, "viewport": {"northeast": {"lat": 40.4270429802915, "lng": -3.562586269708498}, "southwest": {"lat": 40.4243450197085, "lng": -3.565284230291502}}}, "icon": "https://maps.gstatic.com/mapfiles/place_api/icons/v1/png_71/bank-71.png", "icon_background_color": "#909CE1", "icon_mask_base_uri": "https://maps.gstatic.com/mapfiles/place_api/icons/v2/bank-intl_pinlet", "international_phone_number": "+34 916 71 44 00", "name": "BBVA", "opening_hours": {"open_now": false}, "photos": [{"height": 720, "html_attributions": ["<a href=\"https://maps.google.com/maps/contrib/117636908299538257403\">BBVA</a>"], "photo_reference": "AWn5SU4gHsdEHebvyHo5kzi6Sqi_0XuuAQyj2zKHrD2jVigpXLemIgi86zVTBvRM2dsw6jG-sgT2Aq8zF9HnAyzcWOnlCWXgumKT-iz9j4ceqvRc_G1vo5RnGmzdNIirhZ2GIdI90i9Vup1osyqniyvABYDJIzA5qn-5cE6oCCFeY1MRarQ0SPsE-lExCW5Jes2XeiCP3HRGbkyyyi3F7WmdXf35LAoH77DQ2n7FS5tObOmoAXEcSW53bQEW-21kn8rFKs4NmnhL9VHQjFWN1lVY-msQ_irBLnnVRQA_HnbeGrzmIUn_5r4VnNcjHR2QfFCVUGlJfc2apnQ", "width": 1280}], "place_id": "ChIJtbo-JwEwQg0REMruinv7zVU", "plus_code": {"compound_code": "CCGP+7C Coslada, Spain", "global_code": "8CGRCCGP+7C"}, "rating": 2.6, "reference": "ChIJtbo-JwEwQg0REMruinv7zVU", "scope": "GOOGLE", "types": ["bank", "atm", "accounting", "finance", "point_of_interest", "establishment"], "user_ratings_total": 65, "vicinity": "Calle de Luis Grasset, 15, Coslada"}, {"business_status": "OPERATIONAL", "geometry": {"location": {"lat": 40.4294651, "lng": -3.5330019}, "viewport": {"northeast": {"lat": 40.4309353302915, "lng": -3.531759069708498}, "southwest": {"lat": 40.4282373697085, "lng": -3.534457030291502}}}, "icon": "https://maps.gstatic.com/mapfiles/place_api/icons/v1/png_71/bank-71.png", "icon_background_color": "#909CE1", "icon_mask_base_uri": "https://maps.gstatic.com/mapfiles/place_api/icons/v2/bank-intl_pinlet", "international_phone_number": "+34 916 73 98 12", "name": "Banco Sabadell", "opening_hours": {"open_now": false}, "photos": [{"height": 1080, "html_attributions": ["<a href=\"https://maps.google.com/maps/contrib/100857424894786589435\">Banco Sabadell</a>"], "photo_reference": "AWn5SU5EPtE9fmInMuwzPsfHY-sEDHwgbUHheEYXxQm2DFYjTi5I0cwQm93zAFdB69x-jNI1tZtOE1POibdEBgtx55J20Je4ZIL_sKJqGcNyYZ8zKwf7nea19pChuKU69VWst1AePtr9DZgPwCKH0GYxa2JSvitaSao4icJQIx0HQVJA7nIol4rF_4Dg4z19Ae4XYv5QPja8JsJUXZY549gYL-2lGvjwlR9iI8L_yB5FgrfbKfozTP_-kg5ItKfWsTxBAjnmBU_c9P-zv9xzUzp_RWtTzP5HVDseZO2RXe-gtGVjP2L_QpnRsZg7CDN3n-3YufjZkg2X1nw", "width": 1920}], "place_id": "ChIJ2WWyOsd7pRIRlKk41QnpgVA", "plus_code": {"compound_code": "CFH8+QQ San Fernando de Henares, Spain", "global_code": "8CGRCFH8+QQ"}, "rating": 2.1, "reference": "ChIJ2WWyOsd7pRIRlKk41QnpgVA", "scope": "GOOGLE", "types": ["bank", "atm", "accounting", "finance", "point_of_interest", "establishment"], "user_ratings_total": 29, "vicinity": "Calle de José Alix Alix, 18, San Fernando de Henares"}, {"business_status": "OPERATIONAL", "geometry": {"location": {"lat": 40.4192765, "lng": -3.5416027}, "viewport": {"northeast": {"lat": 40.4207166802915, "lng": -3.540305969708498}, "southwest": {"lat": 40.4180187197085, "lng": -3.543003930291502}}}, "icon": "https://maps.gstatic.com/mapfiles/place_api/icons/v1/png_71/bank-71.png", "icon_background_color": "#909CE1", "icon_mask_base_uri": "https://maps.gstatic.com/mapfiles/place_api/icons/v2/bank-intl_pinlet", "international_phone_number": "+34 916 74 34 85", "name": "BBVA", "opening_hours": {"open_now": false}, "photos": [{"height": 720, "html_attributions": ["<a href=\"https://maps.google.com/maps/contrib/113257804197060889084\">BBVA</a>"], "photo_reference": "AWn5SU4L6eMxQw1qLlbx4bUV1I-TYb1r5qu60h-tbV2a5-lFYGEPHsrOjQb4q3_0SvBv9FES1uhzmDD74foS-miTwnzrDCiJHM5k9fmgwVX3Nk5o5e5WcyfJiNQFwxjJv-FLUMGwkSl4GuXuPpwtvZ0wBib1jbZ6e5nwCgv2iDMEJXVEyexTCSEFx7_8ci86q4hPlVWlE2LoaS75hNpyJvRiLeC4o4EQXDKr2anffyLBf-KOal2ZfdpMz8PECcGuHhgb0ZbmnwVez9fvGd6bxsJtlMl2Mk96VjrgQr88dRd32k1Donk0KNqWAapMlHTEBIBicuSuA4oqdf0", "width": 1280}], "place_id": "ChIJmx2D4H0wQg0Rb5G6iTroLmQ", "plus_code": {"compound_code": "CF95+P9 Coslada, Spain", "global_code": "8CGRCF95+P9"}, "rating": 3.6, "reference": "ChIJmx2D4H0wQg0Rb5G6iTroLmQ", "scope": "GOOGLE", "types": ["bank", "atm", "accounting", "finance", "point_of_interest", "establishment"], "user_ratings_total": 14, "vicinity": "Avenida de Madrid, Coslada"}, {"business_status": "OPERATIONAL", "geometry": {"location": {"lat": 40.4260439, "lng": -3.533502599999999}, "viewport": {"northeast": {"lat": 40.4274266802915, "lng": -3.532094269708498}, "southwest": {"lat": 40.4247287197085, "lng": -3.534792230291502}}}, "icon": "https://maps.gstatic.com/mapfiles/place_api/icons/v1/png_71/bank-71.png", "icon_background_color": "#909CE1", "icon_mask_base_uri": "https://maps.gstatic.com/mapfiles/place_api/icons/v2/bank-intl_pinlet", "international_phone_number": "+34 916 74 86 50", "name": "Cajamar Caja Rural", "opening_hours": {"open_now": false}, "photos": [{"height": 608, "html_attributions": ["<a href=\"https://maps.google.com/maps/contrib/106027029740820588748\">Cajamar Caja Rural</a>"], "photo_reference": "AWn5SU7cieAnfE3esmFTNBUyg6v-BGtJTOpE6vzznzvU_1zANTou2xj1Sjtb3iHIgaUp0Ym4ASB_yXrLrdugkdIacaqZHPFI6U0NLPTXcwYw8HRRKLvUG2ouFEaD8R92-nJ7sukiUZsGSw7EPRnyWtbRbWl0B1DhDI4R7ZtvREpEQxljtomFMsMQbQK7HgpZ0kIhTh5YU53pIg0j138RTuq1E3LVU_mGr78kzCGbP0SvYhGd4DLvNxMnBifQ1xR21ZQ0PTKD5qEpulFRhabWYKWg_VxUx9Vb6nAANNuSNNyaf_4xj4iwWWgXn-rgPH1isrsTOiUwm0IODfg", "width": 1080}], "place_id": "ChIJgRkJq4UwQg0RYloC-___3mQ", "plus_code": {"compound_code": "CFG8+CH San Fernando de Henares, Spain", "global_code": "8CGRCFG8+CH"}, "rating": 3.3, "reference": "ChIJgRkJq4UwQg0RYloC-___3mQ", "scope": "GOOGLE", "types": ["bank", "atm", "insurance_agency", "finance", "point_of_interest", "establishment"], "user_ratings_total": 7, "vicinity": "Avenida de la Constitución, 2-4-6, San Fernando de Henares"}, {"business_status": "OPERATIONAL", "geometry": {"location": {"lat": 40.4282371, "lng": -3.5420976}, "viewport": {"northeast": {"lat": 40.4294979302915, "lng": -3.540713069708498}, "southwest": {"lat": 40.4267999697085, "lng": -3.543411030291502}}}, "icon": "https://maps.gstatic.com/mapfiles/place_api/icons/v1/png_71/bank-71.png", "icon_background_color": "#909CE1", "icon_mask_base_uri": "https://maps.gstatic.com/mapfiles/place_api/icons/v2/bank-intl_pinlet", "international_phone_number": "+34 916 69 73 20", "name": "Ibercaja Savings Bank", "opening_hours": {"open_now": false}, "photos": [{"height": 900, "html_attributions": ["<a href=\"https://maps.google.com/maps/contrib/117548630617959153576\">Ibercaja Banco</a>"], "photo_reference": "AWn5SU6btpWGMHsUeIkFFAbBf6lax1Y9ngizrzcJclVenJMZX2hGK9TeIb2m8VD1TBtE3sGfj_nuPCciAfnmfjPdJYVRpoBUZdN9_aD2en0fgosdwdUj3cy_idggfXGvVyyKtvvMvLGIIv1UXFz5Z982pgX2dFBwSzqfKyboTfMODwwonx3kMSySh8kf9UBN7CtDcr_FcchkqAPtQcynVjgkYmq3q2W5kAv1PYDEt2cihN7h2i4NCxDO3NH5RzYNZdOJEiMlgzeDV-O7iodFtomObRXv6BK3PsQWcB24D-qPFXN6LQzYQAayhShVPG8g4Hxzg7q4qPFCjKY", "width": 1600}], "place_id": "ChIJKTvPsmIwQg0RihV8SYiJank", "plus_code": {"compound_code": "CFH5+75 Coslada, Spain", "global_code": "8CGRCFH5+75"}, "rating": 2.6, "reference": "ChIJKTvPsmIwQg0RihV8SYiJank", "scope": "GOOGLE", "types": ["bank", "atm", "accounting", "finance", "point_of_interest", "establishment"], "user_ratings_total": 16, "vicinity": "Calle de Méjico, 29, Coslada"}, {"business_status": "OPERATIONAL", "geometry": {"location": {"lat": 40.4252575, "lng": -3.54362}, "viewport": {"northeast": {"lat": 40.4265365302915, "lng": -3.542265419708498}, "southwest": {"lat": 40.4238385697085, "lng": -3.544963380291502}}}, "icon": "https://maps.gstatic.com/mapfiles/place_api/icons/v1/png_71/bank-71.png", "icon_background_color": "#909CE1", "icon_mask_base_uri": "https://maps.gstatic.com/mapfiles/place_api/icons/v2/bank-intl_pinlet", "international_phone_number": "+34 916 69 25 47", "name": "Santander", "opening_hours": {"open_now": false}, "photos": [{"height": 720, "html_attributions": ["<a href=\"https://maps.google.com/maps/contrib/101312442101832433335\">Banco Santander</a>"], "photo_reference": "AWn5SU6h7xGbEl1kiUWDdG7wDMUP5arKcK4qQYVmomSVyxD62cp7Wan5eoE5KMCGwU3LOMFTb95uBDTCuI_3TPIIRQdXmenud_haDyBQx3p5ssvag12DripnzsJ58Uwy44vpQBxfNHdWYuLdx4Wacyc5gtNfoo7pWTGohN7-JTkdVruikjmvBYTcYxX9Tnyjw_yDQlvKpf5LwRbegM3y46pf1ro-DaNjCIxPQrWQ-XUxFlEQw7h8euE-zLnkv5JYjHEK69TZGLDO1olkq4rY1JPOFeWIkOtBwpsNjRUNF_XPvBpTdeKsm4BWOoWdi1mCxF7fgOMtuNc0fnw", "width": 1280}], "place_id": "ChIJi0MfVHwwQg0Rb3MQ-ii8zP8", "plus_code": {"compound_code": "CFG4+4H Coslada, Spain", "global_code": "8CGRCFG4+4H"}, "rating": 1.8, "reference": "ChIJi0MfVHwwQg0Rb3MQ-ii8zP8", "scope": "GOOGLE", "types": ["bank", "atm", "finance", "point_of_interest", "establishment"], "user_ratings_total": 28, "vicinity": "Avenida de los Príncipes de España, 45, Coslada"}, {"business_status": "OPERATIONAL", "geometry": {"location": {"lat": 40.4271648, "lng": -3.5620111}, "viewport": {"northeast": {"lat": 40.4285615802915, "lng": -3.560518869708498}, "southwest": {"lat": 40.42586361970851, "lng": -3.563216830291502}}}, "icon": "https://maps.gstatic.com/mapfiles/place_api/icons/v1/png_71/bank-71.png", "icon_background_color": "#909CE1", "icon_mask_base_uri": "https://maps.gstatic.com/mapfiles/place_api/icons/v2/bank-intl_pinlet", "international_phone_number": "+34 917 16 38 24", "name": "Banco Sabadell", "opening_hours": {"open_now": false}, "photos": [{"height": 1080, "html_attributions": ["<a href=\"https://maps.google.com/maps/contrib/113532622946254753146\">Banco Sabadell</a>"], "photo_reference": "AWn5SU5_EVTHloahnh8hdUlkNJP4e1zVqExIEz7BYfF6DmT1GJ1j1etlP9YMMkTnoWPxYBP6lStobH8mqHMi5UUI-vOfSYdBAb6niAgVDdwJOsJCPNDj8EB5DaqBF6y0fqNjluDpRkozDHZa8EOsbQRPVoCTXvrfUfqdg6333Sohq_VN3HfbKUCyziD0P6l6rT-nKgJlghZ3zPNnJkIRD5AQwAy4PNh68N4IulqVQAPiFcT36NlOMCqxpqYY9fpdbgcDk6D9PUxE9GNomV4cN1F2w345Mz6N17SKI4l82sDDaVXGOeyuM9-iEHA8MluIQh-A-pJoH-jiSw0", "width": 1920}], "place_id": "ChIJh_UjAYgwQg0RtwKTtLG9m3w", "plus_code": {"compound_code": "CCGQ+V5 Coslada, Spain", "global_code": "8CGRCCGQ+V5"}, "rating": 2.2, "reference": "ChIJh_UjAYgwQg0RtwKTtLG9m3w", "scope": "GOOGLE", "types": ["bank", "atm", "accounting", "finance", "point_of_interest", "establishment"], "user_ratings_total": 99, "vicinity": "Avenida de la Constitución, 67, Coslada"}, {"business_status": "OPERATIONAL", "geometry": {"location": {"lat": 40.42609379999999, "lng": -3.5640862}, "viewport": {"northeast": {"lat": 40.42748678029149, "lng": -3.562749269708498}, "southwest": {"lat": 40.4247888197085, "lng": -3.565447230291502}}}, "icon": "https://maps.gstatic.com/mapfiles/place_api/icons/v1/png_71/bank-71.png", "icon_background_color": "#909CE1", "icon_mask_base_uri": "https://maps.gstatic.com/mapfiles/place_api/icons/v2/bank-intl_pinlet", "international_phone_number": "+34 916 69 03 79", "name": "Banco Santander", "opening_hours": {"open_now": false}, "photos": [{"height": 720, "html_attributions": ["<a href=\"https://maps.google.com/maps/contrib/116078823155295253000\">Banco Santander</a>"], "photo_reference": "AWn5SU6o6cd5WFTfxGGFpwCw4QjHWgkXYzi4kajPjI6w1WMn3uAtyefY661NR92u972rU-31uoxWoLuzCHQyjx84W-V4yZnkpj3jKPRq7r3swPX00w7DJJaf3LGwmxUSUPdFHCj6QAUx_eIDbB9Gg8C26mYk-kmXCct62ACl4Yn9y-qf5UpjpFos-qi_2gWVCbciVB-hQWTwFUzCu3qdm51uokcgixdInVoZ8VOuToVp8kRJEwEPpvpaSrFA1FQKJaWmMb-A0Bx9je1mNQ3cW2Ol6RMSbDWYzSeIuQdets_iyvuAfitxFNmhBphg0SbGhc9S8_S_ScBsJ1g", "width": 1280}], "place_id": "ChIJoQ6KoQ0wQg0REoismwak18c", "plus_code": {"compound_code": "CCGP+C9 Coslada, Spain", "global_code": "8CGRCCGP+C9"}, "rating": 2.2, "reference": "ChIJoQ6KoQ0wQg0REoismwak18c", "scope": "GOOGLE", "types": ["bank", "atm", "finance", "point_of_interest", "establishment"], "user_ratings_total": 37, "vicinity": "Avenida de la Constitución, 76, Coslada"}, {"business_status": "OPERATIONAL", "geometry": {"location": {"lat": 40.42841, "lng": -3.532851}, "viewport": {"northeast": {"lat": 40.42963238029149, "lng": -3.531490169708499}, "southwest": {"lat": 40.42693441970849, "lng": -3.534188130291502}}}, "icon": "https://maps.gstatic.com/mapfiles/place_api/icons/v1/png_71/bank-71.png", "icon_background_color": "#909CE1", "icon_mask_base_uri": "https://maps.gstatic.com/mapfiles/place_api/icons/v2/bank-intl_pinlet", "international_phone_number": "+34 916 72 28 12", "name": "Ibercaja Banco", "opening_hours": {"open_now": false}, "photos": [{"height": 900, "html_attributions": ["<a href=\"https://maps.google.com/maps/contrib/109015059569347726737\">Ibercaja Banco</a>"], "photo_reference": "AWn5SU5GGuiQlcYidjheE51MxNWz1aLPEYMxEdpJuuHQhJmewyp3uUcBYVE22ChjeAdqMVeLGQGORvG4suIfphfECy6YJGmDHkRbyy_AqT3jytWjdkuaNCzTNZ1nFRmL1XE0u8E1pq8ceB1bWvPdrExaWBGR1d3ycHbVUiCqKIqLZ9LN_g-ybW_iihGlOJdIWU0KVULXml8pj0InOtgZQjn2xIB_6K-ybmBKfmaXtekwNug3OjYuVU6lAy4QnkpePS_6k1jgQYiWbYfsNjoiSfmkl7GT9sHTeU6X8y_rVi1cJiXcr9l0He8J_HVaWX38vSRbYV-tGQuod2I", "width": 1600}], "place_id": "ChIJZ6aBhI8wQg0RMR5CCMejEyQ", "plus_code": {"compound_code": "CFH8+9V San Fernando de Henares, Spain", "global_code": "8CGRCFH8+9V"}, "rating": 3.8, "reference": "ChIJZ6aBhI8wQg0RMR5CCMejEyQ", "scope": "GOOGLE", "types": ["bank", "atm", "accounting", "finance", "point_of_interest", "establishment"], "user_ratings_total": 19, "vicinity": "Calle de José Alix Alix, 16, San Fernando de Henares"}, {"business_status": "OPERATIONAL", "geometry": {"location": {"lat": 40.4171226, "lng": -3.523175}, "viewport": {"northeast": {"lat": 40.41861413029149, "lng": -3.521915019708498}, "southwest": {"lat": 40.4159161697085, "lng": -3.524612980291502}}}, "icon": "https://maps.gstatic.com/mapfiles/place_api/icons/v1/png_71/bank-71.png", "icon_background_color": "#909CE1", "icon_mask_base_uri": "https://maps.gstatic.com/mapfiles/place_api/icons/v2/bank-intl_pinlet", "international_phone_number": "+34 916 71 83 13", "name": "Banco Santander", "opening_hours": {"open_now": false}, "photos": [{"height": 720, "html_attributions": ["<a href=\"https://maps.google.com/maps/contrib/112938118137693425110\">Banco Santander</a>"], "photo_reference": "AWn5SU7Fbg5wychpAzl_mYyzDby9I4IDKWtXq004-wb_UoORIAh9j0fbFqqBeBU4hGEs3Pk7qPrX4RHtdx0v8rda807wZBgI-s-g9dThhi43cfMzeApy3IcZ_s-KaQD8D9Bquwf50k9w6q7MUmLDbG6axJvCQo42pqRFQTGhgSE2iP0brqihIz1bxEnpoKG0yhxWxij0gz167KtIRpCN_Uc6TPDWBeUWdTjBMSVaN_SCx-ahitcwHmMx4UiVz7NGSGfeRqhbt-TgFN9meJ7LYHuUuX3B_vPG9rUV7TyJHu0pphGP3e6xY53eedJMUgYTTvVSOrMNiuVE", "width": 1280}], "place_id": "ChIJL2UivJ4wQg0RFP8JP5-uNEM", "plus_code": {"compound_code": "CF8G+RP San Fernando de Henares, Spain", "global_code": "8CGRCF8G+RP"}, "rating": 2.2, "reference": "ChIJL2UivJ4wQg0RFP8JP5-uNEM", "scope": "GOOGLE", "types": ["bank", "atm", "finance", "point_of_interest", "establishment"], "user_ratings_total": 24, "vicinity": "CTRO.CIAL, Calle Somorrostro, 46, San Fernando de Henares"}, {"business_status": "OPERATIONAL", "geometry": {"location": {"lat": 40.4265558, "lng": -3.537366399999999}, "viewport": {"northeast": {"lat": 40.42789723029149, "lng": -3.536088469708498}, "southwest": {"lat": 40.42519926970849, "lng": -3.538786430291502}}}, "icon": "https://maps.gstatic.com/mapfiles/place_api/icons/v1/png_71/atm-71.png", "icon_background_color": "#909CE1", "icon_mask_base_uri": "https://maps.gstatic.com/mapfiles/place_api/icons/v2/atm_pinlet", "name": "Cajeros Automáticos BBVA", "place_id": "ChIJiQ13hdgxQg0RxWYS1DoU6wQ", "plus_code": {"compound_code": "CFG7+J3 Coslada, Spain", "global_code": "8CGRCFG7+J3"}, "reference": "ChIJiQ13hdgxQg0RxWYS1DoU6wQ", "scope": "GOOGLE", "types": ["atm", "finance", "point_of_interest", "establishment"], "vicinity": "Travesía de la Era, 1, Coslada"}, {"business_status": "OPERATIONAL", "geometry": {"location": {"lat": 40.42714149999999, "lng": -3.5369231}, "viewport": {"northeast": {"lat": 40.4284948302915, "lng": -3.535537219708497}, "southwest": {"lat": 40.4257968697085, "lng": -3.538235180291501}}}, "icon": "https://maps.gstatic.com/mapfiles/place_api/icons/v1/png_71/atm-71.png", "icon_background_color": "#909CE1", "icon_mask_base_uri": "https://maps.gstatic.com/mapfiles/place_api/icons/v2/atm_pinlet", "name": "Punto Nickel - LOCUTORIO ZAKI", "opening_hours": {"open_now": false}, "place_id": "ChIJIzFgHLQxQg0R7kjuiFbATfk", "plus_code": {"compound_code": "CFG7+V6 San Fernando de Henares, Spain", "global_code": "8CGRCFG7+V6"}, "reference": "ChIJIzFgHLQxQg0R7kjuiFbATfk", "scope": "GOOGLE", "types": ["atm", "bank", "finance", "point_of_interest", "establishment"], "vicinity": "Calle de Albino Pérez Ayestarain, 35, LOCAL 3A, San Fernando de Henares"}, {"business_status": "OPERATIONAL", "geometry": {"location": {"lat": 40.4246648, "lng": -3.538895499999999}, "viewport": {"northeast": {"lat": 40.4260123802915, "lng": -3.537484769708498}, "southwest": {"lat": 40.4233144197085, "lng": -3.540182730291502}}}, "icon": "https://maps.gstatic.com/mapfiles/place_api/icons/v1/png_71/atm-71.png", "icon_background_color": "#909CE1", "icon_mask_base_uri": "https://maps.gstatic.com/mapfiles/place_api/icons/v2/atm_pinlet", "name": "Punto Nickel - ESTANCO COSLADA - 013", "opening_hours": {"open_now": false}, "photos": [{"height": 1798, "html_attributions": ["<a href=\"https://maps.google.com/maps/contrib/109757079564566923069\">PVM TCCT</a>"], "photo_reference": "AWn5SU4FffD7nHFeXoJXfm1RaV6NL1XxsyphNUkYDsLzVXo-hfN2r440uNa0Hl_Ag-gwCIXVsxW71mbtO41fN3ANxmJa-YKZ-fg9zquX3PfZ7PoCG9PrR59LtWdUXb8S33pdGP_j9YERPR7u7t-yJX-QRIwRhcvTy5kue-7ApIQW1UmCHW1ApNDBUmdXYkp1-jnka2raB-jOTby0fsvRUxoP9bsUJ2lE1_CV3OL2MMi2pgnPCUDnMas_ARVrM6B2pwzXN922K0YfLu_GO0rACc8VpUaqevqTIjXaKXDAa2Nv_FTcGwL-OpwLzhPew1BhcjKkbqHpMSfJmysMRfbtuGVRtLKcok3fxDQonrEMJ81zwVMEYhd32iq4nlRpEUhiPuDV2jmXD-v6WAYjkH2UBiFZvaUBWKVNkDB0wvLmVkLYuCzzTe7GgVnBNuJ4GnWN-8l85if6E1xeUWGmO2LQ-wL15Tc1oOgTM-Mul9yjfaVtrQ-5ufuPB1i-qwTA1DI5NKGl0mfe5qK8WRb3z90yRoFR9meNN2n-gz7J1sWNR4tJms6waL0yyVZ5fRJjcOfcijGjBg0yHu1BTuKYx8M-79bPj2GnkV3_07jkKeSdZkKqo-YnOkD2_AlrJFOIwd-anYF7y1T37g", "width": 2061}], "place_id": "ChIJvTybnEsxQg0RTbt5XIzm_IU", "plus_code": {"compound_code": "CFF6+VC Coslada, Spain", "global_code": "8CGRCFF6+VC"}, "rating": 5, "reference": "ChIJvTybnEsxQg0RTbt5XIzm_IU", "scope": "GOOGLE", "types": ["atm", "bank", "finance", "point_of_interest", "establishment"], "user_ratings_total": 1, "vicinity": "Calle del Ebro, LOCAL 4, Coslada"}, {"business_status": "OPERATIONAL", "geometry": {"location": {"lat": 40.42527279999999, "lng": -3.5333521}, "viewport": {"northeast": {"lat": 40.4266830802915, "lng": -3.531585019708499}, "southwest": {"lat": 40.4239851197085, "lng": -3.534282980291502}}}, "icon": "https://maps.gstatic.com/mapfiles/place_api/icons/v1/png_71/atm-71.png", "icon_background_color": "#909CE1", "icon_mask_base_uri": "https://maps.gstatic.com/mapfiles/place_api/icons/v2/atm_pinlet", "international_phone_number": "+34 900 404 090", "name": "ATM CaixaBank - Cajero", "opening_hours": {"open_now": true}, "photos": [{"height": 681, "html_attributions": ["<a href=\"https://maps.google.com/maps/contrib/104523916203773226403\">ATM CaixaBank - Cajero</a>"], "photo_reference": "AWn5SU6efdi6xeVuUu7Fn9ayv60FzVZASfH8CvnxB-CpTmHMUvGH62trZ9f3dnZRTUBXF7I4nEOS4yAweOImwyW0NxiGVrMQi7lT-5Y3NQvMxSy_aDxeXAnI4XyRFq4EQsiDjEFffQ5sqATI53hbTyKvvbVUuoRbB2RoMY73w7pB7i0WDi9eFl-4F04RL2R9MILYlx-ySHgRK7vsU86RJTHvzFZIvRvAbmuOHgSHijHpH_jBtxGTbHribYpZkQpEfpSe62s2FCCAEzAmk0C_UrYDPeIMIHjNE_yX4d0JvPVhB6YG-24sXq9zJQTka7gyLZbq8190hHtnPBk", "width": 1024}], "place_id": "ChIJP1FKVqExQg0R56x2dXBE_Lk", "plus_code": {"compound_code": "CFG8+4M San Fernando de Henares, Spain", "global_code": "8CGRCFG8+4M"}, "reference": "ChIJP1FKVqExQg0R56x2dXBE_Lk", "scope": "GOOGLE", "types": ["atm", "finance", "point_of_interest", "establishment"], "vicinity": "Calle de la Libertad, 3, San Fernando de Henares"}, {"business_status": "OPERATIONAL", "geometry": {"location": {"lat": 40.4264009, "lng": -3.533013599999999}, "viewport": {"northeast": {"lat": 40.42777288029149, "lng": -3.531730969708498}, "southwest": {"lat": 40.42507491970849, "lng": -3.534428930291502}}}, "icon": "https://maps.gstatic.com/mapfiles/place_api/icons/v1/png_71/atm-71.png", "icon_background_color": "#909CE1", "icon_mask_base_uri": "https://maps.gstatic.com/mapfiles/place_api/icons/v2/atm_pinlet", "name": "Punto Nickel", "place_id": "ChIJ06_nv0IxQg0RUqwKH0qEDIE", "plus_code": {"compound_code": "CFG8+HQ San Fernando de Henares, Spain", "global_code": "8CGRCFG8+HQ"}, "reference": "ChIJ06_nv0IxQg0RUqwKH0qEDIE", "scope": "GOOGLE", "types": ["atm", "bank", "finance", "point_of_interest", "establishment"], "vicinity": "Calle de José Alix Alix, 2, San Fernando de Henares"}, {"business_status": "OPERATIONAL", "geometry": {"location": {"lat": 40.4252573, "lng": -3.5328225}, "viewport": {"northeast": {"lat": 40.4266696802915, "lng": -3.531297719708498}, "southwest": {"lat": 40.42397171970851, "lng": -3.533995680291502}}}, "icon": "https://maps.gstatic.com/mapfiles/place_api/icons/v1/png_71/bank-71.png", "icon_background_color": "#909CE1", "icon_mask_base_uri": "https://maps.gstatic.com/mapfiles/place_api/icons/v2/bank-intl_pinlet", "international_phone_number": "+34 916 71 21 50", "name": "Banco Santander", "opening_hours": {"open_now": false}, "photos": [{"height": 720, "html_attributions": ["<a href=\"https://maps.google.com/maps/contrib/107667446134201789172\">Banco Santander</a>"], "photo_reference": "AWn5SU4bKquaz7ChiR4Qzn5rUIgVOo5Fxd4_5EVbzaJW6ApN8TDvJJ_Dz37Np5pvbzQ7Ea4UjwEU7D5HdmkzAJSDe5N5bFzP8h2Jz1P2NY5rOTFikDqhBKHq-34OaGr_FbF2crWF9ATywMFdLp79LSQYh0kfH9mm9FCHWrrntbStk7n2Hr92IspW6cQ0OPWSszQK3doZHdmTuCbKTXloYUYsy0XJS1oqeNTFwd2MKIfAGeHlOcOyA4F_M94lKjaNZCKOWbW_9uSS4Tt0cSgakeW-y3q-V7bOzqogYq5CxxwbA122aul-9GFDA8bkHWdcgsthMzxNXsdqHEU", "width": 1280}], "place_id": "ChIJ7yxLqccxQg0RRSAX63Px0x4", "plus_code": {"compound_code": "CFG8+4V San Fernando de Henares, Spain", "global_code": "8CGRCFG8+4V"}, "rating": 2, "reference": "ChIJ7yxLqccxQg0RRSAX63Px0x4", "scope": "GOOGLE", "types": ["bank", "atm", "finance", "point_of_interest", "establishment"], "user_ratings_total": 30, "vicinity": "Calle de la Libertad, 8, San Fernando de Henares"}, {"business_status": "OPERATIONAL", "geometry": {"location": {"lat": 40.42512089999999, "lng": -3.5306172}, "viewport": {"northeast": {"lat": 40.42642363029149, "lng": -3.529285569708497}, "southwest": {"lat": 40.42372566970849, "lng": -3.531983530291501}}}, "icon": "https://maps.gstatic.com/mapfiles/place_api/icons/v1/png_71/atm-71.png", "icon_background_color": "#909CE1", "icon_mask_base_uri": "https://maps.gstatic.com/mapfiles/place_api/icons/v2/atm_pinlet", "name": "Punto Nickel - La Huerta Tecnologías", "opening_hours": {"open_now": false}, "place_id": "ChIJlSPC9WQxQg0RCAlkTWMb1vk", "plus_code": {"compound_code": "CFG9+2Q San Fernando de Henares, Spain", "global_code": "8CGRCFG9+2Q"}, "reference": "ChIJlSPC9WQxQg0RCAlkTWMb1vk", "scope": "GOOGLE", "types": ["atm", "bank", "finance", "point_of_interest", "establishment"], "vicinity": "Calle de la Huerta, 3, LOCAL DERECHO, San Fernando de Henares"}, {"business_status": "OPERATIONAL", "geometry": {"location": {"lat": 40.4294651, "lng": -3.5330019}, "viewport": {"northeast": {"lat": 40.4307926802915, "lng": -3.531730119708498}, "southwest": {"lat": 40.4280947197085, "lng": -3.534428080291502}}}, "icon": "https://maps.gstatic.com/mapfiles/place_api/icons/v1/png_71/atm-71.png", "icon_background_color": "#909CE1", "icon_mask_base_uri": "https://maps.gstatic.com/mapfiles/place_api/icons/v2/atm_pinlet", "international_phone_number": "+34 900 404 090", "name": "ATM CaixaBank - Cajero", "opening_hours": {"open_now": true}, "photos": [{"height": 681, "html_attributions": ["<a href=\"https://maps.google.com/maps/contrib/101441962555508046360\">ATM CaixaBank - Cajero</a>"], "photo_reference": "AWn5SU7Mnrvw-KiwDueQzNuW1rJVTACDd7_dO_UMqGcOK4VUmMwoUzYSIhv_NRpbusa3BdRP25fyXdz-HbCtNHV2xbOeQpZHT6Ce2RB_zNtqS-yrA-iZdtForuEhlZ6Rdc3L4EQRiZiL0im3TXkoR23gn0Zee6zSGcZ8WEA2aKkCFYxX3HHfzUYiKdckayBiuxxasarVfy0TJj4N3KS2HUJZSLOtKhUOtdzzf4VNK8Ett3PRYosfiSQAfezydrVIwz2a4dJWh-XuU1kZhOA7M1K5qeuZPf9bQ_ws6qLIIoD1zP9aqQ2jw2kMX-eVY_hAa_HVg4cWQaTA4kA", "width": 1024}], "place_id": "ChIJu95C4e8xQg0RNlB8YAbKCgQ", "plus_code": {"compound_code": "CFH8+QQ San Fernando de Henares, Spain", "global_code": "8CGRCFH8+QQ"}, "reference": "ChIJu95C4e8xQg0RNlB8YAbKCgQ", "scope": "GOOGLE", "types": ["atm", "finance", "point_of_interest", "establishment"], "vicinity": "Calle de José Alix Alix, 18, San Fernando de Henares"}]