[{"business_status": "OPERATIONAL", "geometry": {"location": {"lat": 40.36122, "lng": -4.40047}, "viewport": {"northeast": {"lat": 40.3625758302915, "lng": -4.399124269708498}, "southwest": {"lat": 40.3598778697085, "lng": -4.401822230291502}}}, "icon": "https://maps.gstatic.com/mapfiles/place_api/icons/v1/png_71/pharmacy-71.png", "icon_background_color": "#F88181", "icon_mask_base_uri": "https://maps.gstatic.com/mapfiles/place_api/icons/v2/pharmacy_pinlet", "international_phone_number": "+34 918 61 00 60", "name": "Farmacia Julio Álvarez Palacios", "opening_hours": {"open_now": false}, "photos": [{"height": 4000, "html_attributions": ["<a href=\"https://maps.google.com/maps/contrib/102628395385083912249\">Farmacia Julio Álvarez Palacios</a>"], "photo_reference": "AWn5SU5LtCoYOWTLh7ZyTSWuSp0kbQbVOXO7iKeqnvBEeI4eOApV1UOUsV4P3-Gqr_XPnwfi8KIQjErw_pek7sndvMqk3dpcIRKgKrWiIVon_r4i0r0wQfz5pS2wMuJjw_wbGIK_FI6oscnBzvFBaHGygohIcfLtKKgQXRaVKsJbBHwD_NNan3BGfL3umxaPEnTDL7Pt8nGnjHA6QV-AC5FSyDRue-bw0I1o5qaoVYeeu-ksy21iKGqw_WEYFhVwYsTOJvCmrQ7RWK9AS2RiqpOV4bMMsn3QRrJHyeoHEVoGUifQCbCAL99gRZfaf4GwdFHQqS9kimh_KFc", "width": 6000}], "place_id": "ChIJCSbHrTNNQA0RW8SIgWavnzE", "plus_code": {"compound_code": "9H6X+FR San Martín de Valdeiglesias, Spain", "global_code": "8CGQ9H6X+FR"}, "rating": 4.4, "reference": "ChIJCSbHrTNNQA0RW8SIgWavnzE", "scope": "GOOGLE", "types": ["pharmacy", "shoe_store", "health", "store", "point_of_interest", "establishment"], "user_ratings_total": 92, "vicinity": "Plaza de la Corredera, 4, San Martín de Valdeiglesias"}, {"business_status": "OPERATIONAL", "geometry": {"location": {"lat": 40.3618616, "lng": -4.398047299999999}, "viewport": {"northeast": {"lat": 40.3631832302915, "lng": -4.396676569708498}, "southwest": {"lat": 40.3604852697085, "lng": -4.399374530291502}}}, "icon": "https://maps.gstatic.com/mapfiles/place_api/icons/v1/png_71/pharmacy-71.png", "icon_background_color": "#F88181", "icon_mask_base_uri": "https://maps.gstatic.com/mapfiles/place_api/icons/v2/pharmacy_pinlet", "international_phone_number": "+34 690 17 22 29", "name": "La Farmacia de María", "opening_hours": {"open_now": false}, "photos": [{"height": 4032, "html_attributions": ["<a href=\"https://maps.google.com/maps/contrib/109369671013199258864\">Maria Alvarez Palacios</a>"], "photo_reference": "AWn5SU6bGX0t6el0RCKnEUj-PbKgjloAQilv8dDdGs4gpoQFWq-sZvS9oAGZ6u1NZ7a-J-xo7AblgXh1jMpTeSbu2mfDbDccunYOxDGzD7ed8GONkHDMu1kle2HfkckpHQKmFLWYASeuZc4WEmk7z5O7tTZtjTs1spIUzzq1rcrJ5fUbtPMqC6GUmpLmznEsXz8H2xpx1a9YZm2unL1_qFSMFI43KBQQqgrqsQVd_vfnAhfBW9Wm1YGnSXgMxQGTx-ZbwhO_pvzahxyL9aEZpHjhbdBGTGMbrhfyQPUNC23zZeMFTBip9-al04LE-zHVO7SDENnSqyss9INZt7g5Qg4L3CYHD3TfwCCNG-0ATYc4SAPrNhWGuyMYNIi9KnyB78NBSfKvTMRYGI832zhh8fF5__GVnC5dZAPsHa2-pzL4QU9I8ldAhdLoqXdftqkssAe4TYPDvauWjZd67a2ffb_GyWtsnYMc55SdhiSPsUgcrg87DYiBGgCdexH1T2E-znm_m_zEkERRzdu4-0l5uBRl0lcc_5mkeNHrJubqQwNxpGI2ZGQ47wQKjoe5tj6E2EkN1yj_8h7nSbVpdMUxjjwgX_Xr5dFx6KkQR782oBk7SBYa3-hhX2HQBB1MQ5omxFxg-i9q2Q6T4_e7e2bVVGy7AA", "width": 3024}], "place_id": "ChIJrV4cNjNNQA0RV8EZIo2mahA", "plus_code": {"compound_code": "9J62+PQ San Martín de Valdeiglesias, Spain", "global_code": "8CGQ9J62+PQ"}, "rating": 4, "reference": "ChIJrV4cNjNNQA0RV8EZIo2mahA", "scope": "GOOGLE", "types": ["pharmacy", "health", "store", "point_of_interest", "establishment"], "user_ratings_total": 52, "vicinity": "Calle de Ramón y Cajal, 18, San Martín de Valdeiglesias"}, {"business_status": "OPERATIONAL", "geometry": {"location": {"lat": 40.3646776, "lng": -4.398041899999999}, "viewport": {"northeast": {"lat": 40.36603418029151, "lng": -4.396779819708498}, "southwest": {"lat": 40.36333621970851, "lng": -4.399477780291503}}}, "icon": "https://maps.gstatic.com/mapfiles/place_api/icons/v1/png_71/pharmacy-71.png", "icon_background_color": "#F88181", "icon_mask_base_uri": "https://maps.gstatic.com/mapfiles/place_api/icons/v2/pharmacy_pinlet", "international_phone_number": "+34 918 61 30 29", "name": "Farmacia José Manuel Martín Díaz", "opening_hours": {"open_now": false}, "place_id": "ChIJ96o_Us4xQA0RKAajCm5jJAI", "plus_code": {"compound_code": "9J72+VQ San Martín de Valdeiglesias, Spain", "global_code": "8CGQ9J72+VQ"}, "rating": 4.6, "reference": "ChIJ96o_Us4xQA0RKAajCm5jJAI", "scope": "GOOGLE", "types": ["pharmacy", "health", "store", "point_of_interest", "establishment"], "user_ratings_total": 5, "vicinity": "Calle de la Fuente, 10b, San Martín de Valdeiglesias"}, {"business_status": "OPERATIONAL", "geometry": {"location": {"lat": 40.3647128, "lng": -4.3980717}, "viewport": {"northeast": {"lat": 40.3660475802915, "lng": -4.396794719708498}, "southwest": {"lat": 40.3633496197085, "lng": -4.399492680291503}}}, "icon": "https://maps.gstatic.com/mapfiles/place_api/icons/v1/png_71/pharmacy-71.png", "icon_background_color": "#F88181", "icon_mask_base_uri": "https://maps.gstatic.com/mapfiles/place_api/icons/v2/pharmacy_pinlet", "international_phone_number": "+34 918 61 30 29", "name": "FARMACIA LA ESTACIÓN", "opening_hours": {"open_now": false}, "photos": [{"height": 3024, "html_attributions": ["<a href=\"https://maps.google.com/maps/contrib/108301208868881549989\">FARMACIA LA ESTACIÓN</a>"], "photo_reference": "AWn5SU6nU5bpCEORLI_FwPCy1lXeqQrbgsJmbN3XPlUinC7lYzIskmtvJYa6x-kDSUbctsoCE5AvFFPBAqgYgMLCvtGnG458i1TCnAMNvwnpyJea12F4dGfxivOPg2AkY4wr-bvtvdqqXCUo8LQ9uO4SU-Ks49Ey4js3_oyKmbK4L_SX9Lw867w0EcCyqMfLrqBS3wz0-aDxDOpLQHDIBbSpF6wjuVXKqEjDZVxdwkKR1RjmzEe27cZ9FBonh2vH3-KNOzULcXGcye7Hx7bgjUnQBj3EiljRGRhVS722-UCr5rVuV4iWmCI_xl7UNeVLyGeniokJOqw5WHI", "width": 4032}], "place_id": "ChIJ4WPS1jRNQA0RpyyE3m6nuds", "plus_code": {"compound_code": "9J72+VQ San Martín de Valdeiglesias, Spain", "global_code": "8CGQ9J72+VQ"}, "rating": 4.1, "reference": "ChIJ4WPS1jRNQA0RpyyE3m6nuds", "scope": "GOOGLE", "types": ["pharmacy", "health", "store", "point_of_interest", "establishment"], "user_ratings_total": 47, "vicinity": "Calle de la Fuente, 10, San Martín de Valdeiglesias"}]