[{"business_status": "OPERATIONAL", "geometry": {"location": {"lat": 40.46454999999999, "lng": -3.33508}, "viewport": {"northeast": {"lat": 40.46753185000001, "lng": -3.334237149999999}, "southwest": {"lat": 40.46355604999999, "lng": -3.33760855}}}, "icon": "https://maps.gstatic.com/mapfiles/place_api/icons/v1/png_71/park-71.png", "icon_background_color": "#4DB546", "icon_mask_base_uri": "https://maps.gstatic.com/mapfiles/place_api/icons/v2/tree_pinlet", "name": "Parque Los Cerros", "opening_hours": {"open_now": true}, "photos": [{"height": 3464, "html_attributions": ["<a href=\"https://maps.google.com/maps/contrib/100307585752358554600\">Desi Avi</a>"], "photo_reference": "AWn5SU6JiRG5pkyMCHLij35pdkzT_jgIpnW9pGmwwHnwzn5X7_ADAk1nKIaT9aXhkUnZ3SaDrsbFnpPd0mYoYh_WQAr6Bp3aDCpMEwN8-tiz6aF30BvS5cPAIKO4T8-AXeN4IFeK4dOYzvT5DTLm6ueXv4Aud2QQpdyBeNPek45Zu-Iq7aN_CBd61TD-yk6KtpmU4xbtw9AZSY1ckmpPwaKc1K1LCHU8KlIPVMQA_FkPx4g8tRx9LHYlJvAyhEaIGjZFLikQ4q7n3o-V1QKYFKEvNekPjnuEFV4HjpNcYZy8oF8Rq9v8987mxzsIPMgn9WI5ulTsHsp1TVFjSzxP24LRCJEDEPiOxohYOYycCJfAbw9wtX1jp-YzYUqb_SysoOzaSh8xfjLwxC7_1-3JKhUPDlpjtgVP0ejwY-iD2f9kARf-0fG0wYo_7M0sfqT48BZZKWa6fAL-VXNLJ0T51OJg0k5r7jFwO3g3L0aTPF__EjkkXkGYcPy-lTnGtdeoY85MUuNTV_x9DwgsLPKDeSeXc98ffbbGZnwnKcZAMvGGJ6q1_Bot-2KijSBnPUaFnJLgoXftkEXBrkMigHeaBXCJPosYsb8rApTu1xc2sq1F9po6upLvIQRJ4mJTGmdv8PWo3qjoog", "width": 4618}], "place_id": "ChIJUUIwCypPQg0RJJB45-ESwCc", "plus_code": {"compound_code": "FM77+RX Alcala de Henares, Spain", "global_code": "8CGRFM77+RX"}, "rating": 4.6, "reference": "ChIJUUIwCypPQg0RJJB45-ESwCc", "scope": "GOOGLE", "types": ["park", "tourist_attraction", "point_of_interest", "establishment"], "user_ratings_total": 186, "vicinity": "Alcala de Henares"}, {"business_status": "OPERATIONAL", "geometry": {"location": {"lat": 40.4331095, "lng": -3.3000096}, "viewport": {"northeast": {"lat": 40.4345352302915, "lng": -3.298636369708499}, "southwest": {"lat": 40.4318372697085, "lng": -3.301334330291502}}}, "icon": "https://maps.gstatic.com/mapfiles/place_api/icons/v1/png_71/park-71.png", "icon_background_color": "#4DB546", "icon_mask_base_uri": "https://maps.gstatic.com/mapfiles/place_api/icons/v2/tree_pinlet", "name": "Infantil Park", "place_id": "ChIJxWMJ6YZPQg0RI1GoKWbKnIA", "plus_code": {"compound_code": "CMMX+6X Villalbilla, Spain", "global_code": "8CGRCMMX+6X"}, "reference": "ChIJxWMJ6YZPQg0RI1GoKWbKnIA", "scope": "GOOGLE", "types": ["park", "point_of_interest", "establishment"], "vicinity": "Calle Hontanilla, 34, Villalbilla"}, {"business_status": "OPERATIONAL", "geometry": {"location": {"lat": 40.43195829999999, "lng": -3.294891299999999}, "viewport": {"northeast": {"lat": 40.4333887302915, "lng": -3.293628869708498}, "southwest": {"lat": 40.4306907697085, "lng": -3.296326830291501}}}, "icon": "https://maps.gstatic.com/mapfiles/place_api/icons/v1/png_71/park-71.png", "icon_background_color": "#4DB546", "icon_mask_base_uri": "https://maps.gstatic.com/mapfiles/place_api/icons/v2/tree_pinlet", "name": "Hontanilla Park", "photos": [{"height": 1836, "html_attributions": ["<a href=\"https://maps.google.com/maps/contrib/115000934989808359320\">Celia AR</a>"], "photo_reference": "AWn5SU58412HPbK1ZB31v7_TrzjWTWpzjCFW7BwwrRfwKlSfM5MILfPKGvy2prt2wVz4u9mFwNpyDDs6Qd5xjdEkcsyKFot2VCRB8qPO6Te4_Mfz6fmXIox1FXKhDJjsX4_431co0lIkH-bmHm4UlF1PxwH4uEEexGhFIT6WvZgJ-EUrOogU21fvRrmK871nFH9jfFqhOq9xkIDMMm_d9qsxO5lccJqGcpcGTLrrurarAN9f_qJ1JGvxhMxmcPo05P2VZSLCfRAPJcF_WJobEuYLDhvZ4avx3aRVWQ8SWR1j9eMMJaacnd4uXZn_vL46KoZcxLhenApgUU1Uxjh_zpgelmnLKJ_Mg0KH4YCY5-aK8i7rpftCfuzq5i5Zaayxo12FTxv3kNq8cUIwQvIjGi3acNmfakL6XGmen8MncbBXzhhGnQRnYGYIOiYNk_chtlT3ISWvptt479GPsMA1BQxnQBj5gOIJ5mIKuXpHj3I-NtrjlTXOyHVmQ2OgPdMczGhzWImbi3Lh5g1ijBPEwRojNpWoMJGgKm9Gnd1TdCP2T0Gf1lMfh4KPONDSAlV4f04YgQN4GTSA6h1A-pjR8t1huMHv9ZcH4o1r17khBp_LRIZ2A5O1umyAIKWeEriQyi1fVC59oA", "width": 3264}], "place_id": "ChIJgbM9oeJPQg0RB_XOLCvJGQE", "plus_code": {"compound_code": "CPJ4+Q2 Villalbilla, Spain", "global_code": "8CGRCPJ4+Q2"}, "rating": 4, "reference": "ChIJgbM9oeJPQg0RB_XOLCvJGQE", "scope": "GOOGLE", "types": ["park", "point_of_interest", "establishment"], "user_ratings_total": 2, "vicinity": "Calle Cazadores de Melilla, 42, Villalbilla"}, {"business_status": "OPERATIONAL", "geometry": {"location": {"lat": 40.4339231, "lng": -3.3049848}, "viewport": {"northeast": {"lat": 40.43535423029149, "lng": -3.303620469708499}, "southwest": {"lat": 40.4326562697085, "lng": -3.306318430291503}}}, "icon": "https://maps.gstatic.com/mapfiles/place_api/icons/v1/png_71/park-71.png", "icon_background_color": "#4DB546", "icon_mask_base_uri": "https://maps.gstatic.com/mapfiles/place_api/icons/v2/tree_pinlet", "name": "para niños Park", "opening_hours": {"open_now": true}, "place_id": "ChIJk5Qf-BJPQg0Rc_c7zmiVqqc", "plus_code": {"compound_code": "CMMW+H2 Villalbilla, Spain", "global_code": "8CGRCMMW+H2"}, "reference": "ChIJk5Qf-BJPQg0Rc_c7zmiVqqc", "scope": "GOOGLE", "types": ["park", "point_of_interest", "establishment"], "vicinity": "Calle Alameda, 108P, Villalbilla"}, {"business_status": "OPERATIONAL", "geometry": {"location": {"lat": 40.431614, "lng": -3.2912797}, "viewport": {"northeast": {"lat": 40.4330543302915, "lng": -3.289885919708498}, "southwest": {"lat": 40.43035636970851, "lng": -3.292583880291502}}}, "icon": "https://maps.gstatic.com/mapfiles/place_api/icons/v1/png_71/park-71.png", "icon_background_color": "#4DB546", "icon_mask_base_uri": "https://maps.gstatic.com/mapfiles/place_api/icons/v2/tree_pinlet", "name": "canino Park", "place_id": "ChIJvxiCHVtPQg0RuZ0MmsKCWE4", "plus_code": {"compound_code": "CPJ5+JF Villalbilla, Spain", "global_code": "8CGRCPJ5+JF"}, "reference": "ChIJvxiCHVtPQg0RuZ0MmsKCWE4", "scope": "GOOGLE", "types": ["park", "point_of_interest", "establishment"], "vicinity": "Calle Alto Tajo, 3, Villalbilla"}, {"business_status": "OPERATIONAL", "geometry": {"location": {"lat": 40.43132819999999, "lng": -3.290397899999999}, "viewport": {"northeast": {"lat": 40.43276078029149, "lng": -3.289280269708498}, "southwest": {"lat": 40.43006281970849, "lng": -3.291978230291501}}}, "icon": "https://maps.gstatic.com/mapfiles/place_api/icons/v1/png_71/park-71.png", "icon_background_color": "#4DB546", "icon_mask_base_uri": "https://maps.gstatic.com/mapfiles/place_api/icons/v2/tree_pinlet", "name": "Merendero", "place_id": "ChIJyR1CHfRPQg0RLZps5q98CIQ", "plus_code": {"compound_code": "CPJ5+GR Villalbilla, Spain", "global_code": "8CGRCPJ5+GR"}, "reference": "ChIJyR1CHfRPQg0RLZps5q98CIQ", "scope": "GOOGLE", "types": ["park", "point_of_interest", "establishment"], "vicinity": "lago Sanabria, Avenida Parques Naturales, Madrid"}, {"business_status": "OPERATIONAL", "geometry": {"location": {"lat": 40.43145199999999, "lng": -3.2902031}, "viewport": {"northeast": {"lat": 40.43299338029149, "lng": -3.288757919708498}, "southwest": {"lat": 40.43029541970849, "lng": -3.291455880291502}}}, "icon": "https://maps.gstatic.com/mapfiles/place_api/icons/v1/png_71/park-71.png", "icon_background_color": "#4DB546", "icon_mask_base_uri": "https://maps.gstatic.com/mapfiles/place_api/icons/v2/tree_pinlet", "name": "El Mirador Park", "opening_hours": {"open_now": true}, "photos": [{"height": 1726, "html_attributions": ["<a href=\"https://maps.google.com/maps/contrib/111612403303880172959\">Steve Fernandez</a>"], "photo_reference": "AWn5SU4QmwWK2mQruN-87Uj140oQ6Hnj0Hg10bo2Wlnaez-jP2FGyi2lecRc5_OM3XW9g6M0n8H7ZWRcZ4SaDzWUnXW88kl61NzhlcmtsqW1u0tpyglXZZ2pPbMnol8UYxrGVqLcmmCDhBijaeQsW4f14_IvV5_7V7k3UKdd1ggtSLqxvzqQB-uv6ZP9F0D1Cr0FU-flULsYtj4ANjFcTIHF_E5LwiOOpg-fkAqo8SazIM4G6KRcqRyKeo19jPXQ3K12DD_dSFzdq3DFW0Nudg3PwFX_zvu4Zf5AEKruBWdUmYj9gpw749ZR76pYa8lCJC_YoHI1XGC7BZ1mI69CrWqKlNEmWGm61x-GDY3oMlJh8CuIimH9xltkUUtKJ0TbNpHweDPtztBgL6aNRBMqATYiAPQx6l5M4O1bHOI_mzpp40jiokOZxggyFFkkTDBQFfJHUhNg_MpaJmDw1APugkhPuBXpzDAfu4eCyMUwqetDQQo3QjcI6CmzC9L4fRWCfvCu05w6VmENw7UCFEQTSHt9fFrr8uh-LPrbfDSw7LhtHZY7xQ_MzVYwpOI_Q76sVCiSdjXZq_q3Kbpv6XdCl1MI3nTxnAbHlb6zHOaPLDvDHY3wqOYuy_d42p_ODYmeKzVmkBFnmTnjKL8egPUJB1MLFPSFfLg", "width": 1290}], "place_id": "ChIJi5MO_bpPQg0RtODhzeZEfCM", "plus_code": {"compound_code": "CPJ5+HW Villalbilla, Spain", "global_code": "8CGRCPJ5+HW"}, "rating": 4.1, "reference": "ChIJi5MO_bpPQg0RtODhzeZEfCM", "scope": "GOOGLE", "types": ["park", "point_of_interest", "establishment"], "user_ratings_total": 21, "vicinity": "Calle Lago de Sanabria, 2, Villalbilla"}, {"business_status": "OPERATIONAL", "geometry": {"location": {"lat": 40.4320609, "lng": -3.2895013}, "viewport": {"northeast": {"lat": 40.4335370302915, "lng": -3.288280519708498}, "southwest": {"lat": 40.4308390697085, "lng": -3.290978480291502}}}, "icon": "https://maps.gstatic.com/mapfiles/place_api/icons/v1/png_71/park-71.png", "icon_background_color": "#4DB546", "icon_mask_base_uri": "https://maps.gstatic.com/mapfiles/place_api/icons/v2/tree_pinlet", "name": "Biobosque", "photos": [{"height": 3520, "html_attributions": ["<a href=\"https://maps.google.com/maps/contrib/111612403303880172959\">Steve Fernandez</a>"], "photo_reference": "AWn5SU5Vmpb7BB3fgxACNJ9BcNGbyolokAZaM6nxAAuCPvhcbyAEpyWxMXqZRJqBReE1vFHJ7V_r-SxZGiOa6EK_mKSdIuqbzxEXLdlOj-Z7dyYGfkrGKA1v-r2btJEt-DbPJvwdqT9oS6lRIilgJ6yEv9-p0Yk-j0RrtmekMLXw4YSDk8CJNDMKqHEG6U3jJvFoTFkyr_8gHe9sK8cZL35QqfQ4Yx9LX212EBbAeRks9cH8ZdMxGUQGTyJXTGjTYuzy-XDe5wA94f9xYrJMkIstDYV1teUBoQPTI5Br7Cj0xXgqoXUZzBWQuBaa66XEQJh2Qk-tMdNTMQwk6t36i_0RO3yIdMRN-DWbE1JlwcXsahkgVbmFavg24kU52cHZSoRo5nuNYVgQaMpwUt71HfsrDAk5YZ0e9lqOUAHFGcBvgPqEQt5FwIaMY1XqSSN4oD5bMaecW0CsEHJseyf2_IDf1mrAkD2pnqtCf78Yq-uBnCOWwrw7LuETFMUan3PVrBznKJaHSvBb1cRWf9RTeUL5WRGvaHImlfztR1hlWA25Xl8_PQCF8wvXIdWWzbKaIgiym5Z5rcinxW-EYiQOW6ADW0vgH9gAiQq8y2VVQQQ7tkvVQagxCjrUjmbFK_oRLOuCM1ZrEE7ovt57hgXxHJ6vnLnjYeg", "width": 1980}], "place_id": "ChIJ3QjU44pPQg0RgBfsIHAlWWc", "plus_code": {"compound_code": "CPJ6+R5 Villalbilla, Spain", "global_code": "8CGRCPJ6+R5"}, "rating": 5, "reference": "ChIJ3QjU44pPQg0RgBfsIHAlWWc", "scope": "GOOGLE", "types": ["park", "point_of_interest", "establishment"], "user_ratings_total": 3, "vicinity": "Villalbilla"}, {"business_status": "OPERATIONAL", "geometry": {"location": {"lat": 40.41811939999999, "lng": -3.2996874}, "viewport": {"northeast": {"lat": 40.4194694302915, "lng": -3.298272519708498}, "southwest": {"lat": 40.41677146970851, "lng": -3.300970480291502}}}, "icon": "https://maps.gstatic.com/mapfiles/place_api/icons/v1/png_71/park-71.png", "icon_background_color": "#4DB546", "icon_mask_base_uri": "https://maps.gstatic.com/mapfiles/place_api/icons/v2/tree_pinlet", "name": "Valverde Park", "place_id": "ChIJITTcOIBFQg0RDJoJNjwc-A8", "plus_code": {"compound_code": "CP92+64 Valverde de Alcalá, Spain", "global_code": "8CGRCP92+64"}, "rating": 5, "reference": "ChIJITTcOIBFQg0RDJoJNjwc-A8", "scope": "GOOGLE", "types": ["park", "point_of_interest", "establishment"], "user_ratings_total": 1, "vicinity": "Calle Alcalá, 38, Valverde de Alcalá"}, {"business_status": "OPERATIONAL", "geometry": {"location": {"lat": 40.4156812, "lng": -3.3066266}, "viewport": {"northeast": {"lat": 40.41707603029151, "lng": -3.305278969708498}, "southwest": {"lat": 40.41437806970851, "lng": -3.307976930291502}}}, "icon": "https://maps.gstatic.com/mapfiles/place_api/icons/v1/png_71/park-71.png", "icon_background_color": "#4DB546", "icon_mask_base_uri": "https://maps.gstatic.com/mapfiles/place_api/icons/v2/tree_pinlet", "name": "Camino a Torres de la Alameda", "place_id": "ChIJT4opkvtFQg0R9sfK8UOtY2Q", "reference": "ChIJT4opkvtFQg0R9sfK8UOtY2Q", "scope": "GOOGLE", "types": ["park", "point_of_interest", "establishment"], "vicinity": "CM8V+78, Valverde de Alcalá"}, {"business_status": "OPERATIONAL", "geometry": {"location": {"lat": 40.4277442, "lng": -3.3222478}, "viewport": {"northeast": {"lat": 40.4292082802915, "lng": -3.321107519708498}, "southwest": {"lat": 40.4265103197085, "lng": -3.323805480291502}}}, "icon": "https://maps.gstatic.com/mapfiles/place_api/icons/v1/png_71/park-71.png", "icon_background_color": "#4DB546", "icon_mask_base_uri": "https://maps.gstatic.com/mapfiles/place_api/icons/v2/tree_pinlet", "name": "La Encina", "place_id": "ChIJUSY6WzlPQg0R5FlsMVi4_e4", "reference": "ChIJUSY6WzlPQg0R5FlsMVi4_e4", "scope": "GOOGLE", "types": ["park", "point_of_interest", "establishment"], "vicinity": "CMHH+34, Villalbilla"}, {"business_status": "OPERATIONAL", "geometry": {"location": {"lat": 40.4134981, "lng": -3.2954408}, "viewport": {"northeast": {"lat": 40.4148528302915, "lng": -3.294127519708498}, "southwest": {"lat": 40.4121548697085, "lng": -3.296825480291502}}}, "icon": "https://maps.gstatic.com/mapfiles/place_api/icons/v1/png_71/park-71.png", "icon_background_color": "#4DB546", "icon_mask_base_uri": "https://maps.gstatic.com/mapfiles/place_api/icons/v2/tree_pinlet", "name": "Camino a Pozuelo del Rey", "opening_hours": {"open_now": true}, "place_id": "ChIJ5znR0utFQg0RloFZhAQLgGA", "plus_code": {"compound_code": "CP73+9R Valverde de Alcalá, Spain", "global_code": "8CGRCP73+9R"}, "reference": "ChIJ5znR0utFQg0RloFZhAQLgGA", "scope": "GOOGLE", "types": ["park", "point_of_interest", "establishment"], "vicinity": "Camino de las Colonias, 1, Valverde de Alcalá"}, {"business_status": "OPERATIONAL", "geometry": {"location": {"lat": 40.4320226, "lng": -3.2737417}, "viewport": {"northeast": {"lat": 40.4335560302915, "lng": -3.272581319708499}, "southwest": {"lat": 40.43085806970851, "lng": -3.275279280291502}}}, "icon": "https://maps.gstatic.com/mapfiles/place_api/icons/v1/png_71/park-71.png", "icon_background_color": "#4DB546", "icon_mask_base_uri": "https://maps.gstatic.com/mapfiles/place_api/icons/v2/tree_pinlet", "name": "Vértice Geodésico de Carrabilla", "opening_hours": {"open_now": true}, "photos": [{"height": 5792, "html_attributions": ["<a href=\"https://maps.google.com/maps/contrib/110016191547855715655\">Luis Prieto Pascual</a>"], "photo_reference": "AWn5SU4K6c7nG6yChGWqPZCS4UtGrNRUeMMK3Q9-CC-rzmfvyLcI65Xem7jk9BWaVBj-fGw1avBfxYxo33BGmFCM2dG9R52wogbhodqi0GE50KKb0yNEJT-BCaHc2xcAaWdYOncOvO1U11gOB-J3M041wTe63WJ8A0wXFzlrVanfhSCZqTpIQsXy-KJb_FfuPlnOBfMa7PI8Imk0aCUrzUJDfjs8yJC4L_QjTayN7lS5gOw8SWizU75v71bl7yv-gO7iqnJsO8EuYAjpgRxEJ2Hw_lXjNe6FLBB3f2pZ9yVTM9w3OCrk88U3F1oSw2WCgLvNtdvig38xHubF0R61vE2WiZaBSnRSEcNfLDtCp2kQ5vSSyw-NFIBB98TriSU3dt3OhMKhvhAVWgGoGMNTRbnU4stpAs85jqf6jnVIvBlsziFbFUuoDR7oCk_WYvoOgWPfr06pvvy_sNyKZ3hIxsSBW-xsNUeVAaj2jgJZC7x1wU8MuAfsgCHRTJsUICeTg9n1bI3fz1e953vq08t1Q92p5YpTHMhAmvg50nS54nhGCwgPQa6buDsjyyDfC3vplBr8mH-gL3BdrrWxnPxYLrHrKRhp5k-eBzYruu34vNrf0BNXvCXOXqPBFsqYY7v5oyIH", "width": 4344}], "place_id": "ChIJ-3vfiixPQg0R_0WcebOcfcQ", "plus_code": {"compound_code": "CPJG+RG Villalbilla, Spain", "global_code": "8CGRCPJG+RG"}, "reference": "ChIJ-3vfiixPQg0R_0WcebOcfcQ", "scope": "GOOGLE", "types": ["park", "point_of_interest", "establishment"], "vicinity": "Avenida Olimpiada, 46, Villalbilla"}, {"business_status": "OPERATIONAL", "geometry": {"location": {"lat": 40.44859809999999, "lng": -3.283247099999999}, "viewport": {"northeast": {"lat": 40.44992968029149, "lng": -3.281858719708498}, "southwest": {"lat": 40.44723171970849, "lng": -3.284556680291502}}}, "icon": "https://maps.gstatic.com/mapfiles/place_api/icons/v1/png_71/park-71.png", "icon_background_color": "#4DB546", "icon_mask_base_uri": "https://maps.gstatic.com/mapfiles/place_api/icons/v2/tree_pinlet", "name": "Vía pecuaria", "place_id": "ChIJn5G0NwBPQg0RIod1QE9RKjw", "plus_code": {"compound_code": "CPX8+CP Anchuelo, Spain", "global_code": "8CGRCPX8+CP"}, "reference": "ChIJn5G0NwBPQg0RIod1QE9RKjw", "scope": "GOOGLE", "types": ["park", "point_of_interest", "establishment"], "vicinity": "Camino del Tesoro, Anchuelo"}, {"business_status": "OPERATIONAL", "geometry": {"location": {"lat": 40.4150491, "lng": -3.313511499999999}, "viewport": {"northeast": {"lat": 40.4164015302915, "lng": -3.312167069708498}, "southwest": {"lat": 40.4137035697085, "lng": -3.314865030291501}}}, "icon": "https://maps.gstatic.com/mapfiles/place_api/icons/v1/png_71/park-71.png", "icon_background_color": "#4DB546", "icon_mask_base_uri": "https://maps.gstatic.com/mapfiles/place_api/icons/v2/tree_pinlet", "name": "Senda Barranco la Calera", "place_id": "ChIJmdy7OwRFQg0RSTcAaXzEcVk", "reference": "ChIJmdy7OwRFQg0RSTcAaXzEcVk", "scope": "GOOGLE", "types": ["park", "point_of_interest", "establishment"], "vicinity": "CM8P+2H, Valverde de Alcalá"}, {"business_status": "OPERATIONAL", "geometry": {"location": {"lat": 40.4315561, "lng": -3.3310201}, "viewport": {"northeast": {"lat": 40.4328976302915, "lng": -3.329677169708498}, "southwest": {"lat": 40.4301996697085, "lng": -3.332375130291502}}}, "icon": "https://maps.gstatic.com/mapfiles/place_api/icons/v1/png_71/park-71.png", "icon_background_color": "#4DB546", "icon_mask_base_uri": "https://maps.gstatic.com/mapfiles/place_api/icons/v2/tree_pinlet", "name": "Macapra", "opening_hours": {"open_now": true}, "photos": [{"height": 1800, "html_attributions": ["<a href=\"https://maps.google.com/maps/contrib/113638164910732480503\">José Luis Martinez</a>"], "photo_reference": "AWn5SU7uMdqZSr3-sWEGyMC7lo6hUjnRk051XjWDbI2pQQoQ00SBxWVK6k2OUWomczkI7qgSHp2IYX8iQaU9b3YyPBHjbSBAWe3Toxde0aVYlXmsTeH09qH6O7c2yhe5CbKfcZwwwM5fbDNjL-r6affZiTezC_JqFQEW8uXMsWDmxMf3aiefx7C9LsjMWrLPP6it7ZdLNH-540-jSWOIKln3yo3XgkbXNlxyokTVDpS-eQQ6HjzzSn5uUbWX1mlLxDcfFHKB0qw5A8pox_aXK25XD7Bjii4gSdCAoby_PEAJ7CWGWS06R0Yf5R5iLPX-IHpgRG6svjExgYrHrcKvujBzv2krLgYRXnDLucKOvXpcXQbiP_fQGfra54Bv2lWBSV3iIkPHEsx2jvpqLevLp27MFYGBVgnIgue4f25qwrrWKdw4EC2WC3-MwU9wp7a7xq6eLy4AOynkJB4dbi7tSnVOxQE6FvtYsW4ze7DXieSMDHFFLtW7qLMiIiy4Ajs-zlM1FpO-agd8YyMaC2BtsJz5w9B-d0DMLRt06zHUDjY61sqeTkVzq-urByIeHGXCstuRpEYE5p1RJXeQ0DNNOCwF6H9Co6kP8wSNrmBSrYay8vFqvK7Yx0wcMGPuMWZVL5vnU9F5DTd2", "width": 4000}], "place_id": "ChIJlbhyfYBPQg0RkLXeSxPYTFU", "plus_code": {"compound_code": "CMJ9+JH Villalbilla, Spain", "global_code": "8CGRCMJ9+JH"}, "reference": "ChIJlbhyfYBPQg0RkLXeSxPYTFU", "scope": "GOOGLE", "types": ["park", "point_of_interest", "establishment"], "vicinity": "Lugar Dehesa de los Hueros, 125, Villalbilla"}, {"business_status": "OPERATIONAL", "geometry": {"location": {"lat": 40.4306159, "lng": -3.331998999999999}, "viewport": {"northeast": {"lat": 40.4318043802915, "lng": -3.330424319708498}, "southwest": {"lat": 40.4291064197085, "lng": -3.333122280291501}}}, "icon": "https://maps.gstatic.com/mapfiles/place_api/icons/v1/png_71/park-71.png", "icon_background_color": "#4DB546", "icon_mask_base_uri": "https://maps.gstatic.com/mapfiles/place_api/icons/v2/tree_pinlet", "name": "Cerro Mirador", "place_id": "ChIJEbv6sQpPQg0RubnK_MIDcH4", "plus_code": {"compound_code": "CMJ9+66 Los Hueros, Spain", "global_code": "8CGRCMJ9+66"}, "reference": "ChIJEbv6sQpPQg0RubnK_MIDcH4", "scope": "GOOGLE", "types": ["park", "point_of_interest", "establishment"], "vicinity": "Lugar Dehesa Hueros, 29, Madrid"}, {"business_status": "OPERATIONAL", "geometry": {"location": {"lat": 40.45272620000001, "lng": -3.2784899}, "viewport": {"northeast": {"lat": 40.45408878029151, "lng": -3.277143419708498}, "southwest": {"lat": 40.45139081970851, "lng": -3.279841380291502}}}, "icon": "https://maps.gstatic.com/mapfiles/place_api/icons/v1/png_71/park-71.png", "icon_background_color": "#4DB546", "icon_mask_base_uri": "https://maps.gstatic.com/mapfiles/place_api/icons/v2/tree_pinlet", "name": "Manantial", "opening_hours": {"open_now": true}, "photos": [{"height": 3000, "html_attributions": ["<a href=\"https://maps.google.com/maps/contrib/117757682230819536722\">Jorge Sánchez</a>"], "photo_reference": "AWn5SU5SqXT9AKrBdR7QNtcUWYcAnzcsTDp4n6GhPMH0GH_ST5Ijh94eDVHqPNfU4N5cvFieauE9FPan6SuLRmS2VXVmsSbVtWGqi4EmZt1ZUKHfBzFPD2aiAITK1x_I0cIUeQvRA5ahTHujgg1alSBGIIpTnhlOzRZmQ_t2CiTVlw8_n8k1mrIpG0Ktfi8zareLcuRMwrNbKApCLyIjVLDfEyUl14ZAkH_k22L3_I9p9cDp7v_73TUBZaDe9yaoD50P8VFDLdjBe8McPNrzZSzyEp801AXdfdBJIaeu5YOx0GfHbqO4vTIia5zqG0t1yW90nb9fNN_TpoAzYFRhFTiFh1Y4FUyBIJ3Zom1aRRd_3gi6xR6YyBygU90RBm2m-2cqSo-8e-AGq-fYZNShKqtJ6d8jjheuanowi-3dTJ8mm6hxj3ifJxbmUOBkYRE2ka3tIyNpqz2-UKP2bYpC3O2cCfx-3G6zLJetQ1RohEN8QHa-JjCcAAl4hzwhBKjuA_OdnPidbHYRc-Cz8-5noFJOdDc53eqzxiOS_fngfWO4sZ89_ttIPggWiIbo4z7F1i8jv0awNxNLc--NWr9A8GlSIJB2ZeDu0VAqTciveXYxTjjVzR7Lb6CKaKpqSUSz8Q", "width": 4000}], "place_id": "ChIJYeX4nbhPQg0RFCDld0gINv4", "plus_code": {"compound_code": "FP3C+3J Anchuelo, Spain", "global_code": "8CGRFP3C+3J"}, "rating": 4.7, "reference": "ChIJYeX4nbhPQg0RFCDld0gINv4", "scope": "GOOGLE", "types": ["park", "point_of_interest", "establishment"], "user_ratings_total": 14, "vicinity": "Camino del Tesoro, Anchuelo"}, {"business_status": "OPERATIONAL", "geometry": {"location": {"lat": 40.4550712, "lng": -3.2763694}, "viewport": {"northeast": {"lat": 40.4564054302915, "lng": -3.273223600000001}, "southwest": {"lat": 40.4537074697085, "lng": -3.277417999999999}}}, "icon": "https://maps.gstatic.com/mapfiles/place_api/icons/v1/png_71/park-71.png", "icon_background_color": "#4DB546", "icon_mask_base_uri": "https://maps.gstatic.com/mapfiles/place_api/icons/v2/tree_pinlet", "name": "Cueva de Los Pastores", "opening_hours": {"open_now": true}, "photos": [{"height": 1080, "html_attributions": ["<a href=\"https://maps.google.com/maps/contrib/116374572692678822723\">Antonio López</a>"], "photo_reference": "AWn5SU7Xrkl-p7znBtS0qLRlMjc4YYkY37R5MYRBZxvdw6ULxkmXHmxvZDLebTpib1pQq2zcQbRio07WhORcyElmz3mwsG0k-UGLjJjbZ4tsPtFgaKvpwEtlwN-JX1nYRvdlLDFRTsu0v4uKuFYkv23X5GSN9zxoTxEdaV2kNqWADqzktBkQC-ypV1ndJfBAD672C9aHxhWGiwf0iGB6nAD-C-G6mnLL06BiAe__DJD0XZvK3KCvBji6QWFq_uWTJK1djXC-j1k5AtG2WhxsJRRhXa5B_SizeotTZzPdPt193SukKb10Ct5B1halWLvLms2kyZTBFg3s34NcoHTdq4RyLBd7XDoVTalRE8wWYJAvkcmgzE1V2IImGqp4iMRa4GqZB4rlMBv9M-WIgqvKyzwZpwA64CBqzWi6aP8E1Zpy6TvTw6KVQXWz8XyLjXWTZ6HFDL97mVLEZrA1W8XSBidZyyL2wSVsEERlRGmBizAlKcdA1j-ZFdB5UQLKh7SYmj5OVDMtvXYqftenZT3I8d9GiztzKN1wPSIsDmvb57kt7hNV0fPWITC1e-LmRR-4_b4mite8n-uwnJfb0gb2-7f2v46kQyCo1YhH5_vz7-x8lGFvbK7iPtqNQ9sP57TfakOlsERZuA", "width": 1920}], "place_id": "ChIJPSRJjAZPQg0RCxZ-deYHUbo", "plus_code": {"compound_code": "FP4F+2F Anchuelo, Spain", "global_code": "8CGRFP4F+2F"}, "rating": 4.5, "reference": "ChIJPSRJjAZPQg0RCxZ-deYHUbo", "scope": "GOOGLE", "types": ["park", "point_of_interest", "establishment"], "user_ratings_total": 2, "vicinity": "Anchuelo"}, {"business_status": "OPERATIONAL", "geometry": {"location": {"lat": 40.4102226, "lng": -3.3246614}, "viewport": {"northeast": {"lat": 40.4115783302915, "lng": -3.323242619708498}, "southwest": {"lat": 40.4088803697085, "lng": -3.325940580291502}}}, "icon": "https://maps.gstatic.com/mapfiles/place_api/icons/v1/png_71/park-71.png", "icon_background_color": "#4DB546", "icon_mask_base_uri": "https://maps.gstatic.com/mapfiles/place_api/icons/v2/tree_pinlet", "name": "Los Pinares", "opening_hours": {"open_now": true}, "photos": [{"height": 4080, "html_attributions": ["<a href=\"https://maps.google.com/maps/contrib/105027762344944707763\">Miguel Angel Rivera</a>"], "photo_reference": "AWn5SU4g9uiFhjOuuIOkdIRAsd7WLRlNH2roG5HPyCjT4Ecv6mD1vB_OjDuke5xm9AZAlp994XJapjBr82QG-yDq_DsEAkIMhSoW8cDQqTDtO28-8HIkISyQhmqBN6d49nFcDI8mlfelqzLrioHrvRlYNs89I0oI0LK5IlStnH-xc5BGWZq3OMO-PkuKMbj7nZNCsDWyRMZ2dzy9S3lx3WNShUSmw6osE2707zk00PSqPkl7UizbDclmYIW16JLn66oImwbhOPn6EodWztFOddJ9j0-RKqDmxkZx4ZGtpbq8ZpN-n23jiYCTt-lzE1YSef_WZGtmIBm1md3qvyLIZYjx2wRif7Am0trPHtGiV1AGj-Np2qHIWj341BwM7cZPv75frwd1aXWTqJ4RGQgbws1qcfC4twlKf_guSiiX9l377savR35oVq-JUdOjAk9OfFn8wIWhAlm2QTiY7khwbBkjIDsvo0Aqto7pybZC2HkgRFzpBhqyQECHlLfJxPU3Jo8mhsBwMtzwOxvv_eIyS5_pz0twG_JJgkxO4v4AOU5Pa_mXnlKFOR5PMzWC8AJEHfydTz9vIrHQuvmpiMMPpLrgjzCANbMjl39lgF0KLTt3wtrL6LTHg9oCOlFgk-GjNjn1JAGin3A2", "width": 3072}], "place_id": "ChIJbZGGVhRFQg0Rh2feFTJWKpk", "rating": 4, "reference": "ChIJbZGGVhRFQg0Rh2feFTJWKpk", "scope": "GOOGLE", "types": ["park", "point_of_interest", "establishment"], "user_ratings_total": 1, "vicinity": "CM6G+34, Valverde de Alcalá"}]