[{"business_status": "OPERATIONAL", "geometry": {"location": {"lat": 40.99434, "lng": -3.6361644}, "viewport": {"northeast": {"lat": 40.9956398302915, "lng": -3.634702269708498}, "southwest": {"lat": 40.9929418697085, "lng": -3.637400230291502}}}, "icon": "https://maps.gstatic.com/mapfiles/place_api/icons/v1/png_71/shopping-71.png", "icon_background_color": "#4B96F3", "icon_mask_base_uri": "https://maps.gstatic.com/mapfiles/place_api/icons/v2/shoppingcart_pinlet", "international_phone_number": "+34 918 68 08 25", "name": "Coaliment", "opening_hours": {"open_now": false}, "photos": [{"height": 1080, "html_attributions": ["<a href=\"https://maps.google.com/maps/contrib/108991065925202119120\">Jesus</a>"], "photo_reference": "AWn5SU6oVmiUVRi72g3dP7NgBu7343kFimL_fmdAUf0T_GWLT8-eH10sQGnKszYMOdDb0gMR-E2cQ1virHO-MJfa-_Ip-F92_q1EigZ30MNAdXpBiivZJdVizNwryLqIRj4ukfrVbWjVHhoF5ibu0ihj9WX1o4o3wVQ7nhieLzDLB5X03MkuLkuKRuPjNpceZlv1BJaMSk4gTMkJOoNK9c0Iay3rVWhtJCnhRpKdk4Z-iPTYCylGyzubeYnFF6Rg9qjvey-5KqAN1yzHxQrTwaV-eu0TQYTLlMfWQ4SkQhOWrJiBOt_EdeGEJ5jLCXfLVZWBWOh0CcaMGOwcMIjuKtW0B40bV_zipC_nfa1xM53YMyh1sI_Fz01ebFk68aKJ4fMWiTV7N2m0OPRiNMANYE53AYNT15OxOPonwn3D4-UrdLWSwn2kLlZUA8DZunshRdbdyqOC9-_JhoXGgBtpSIrkwZs2Aevqf9-_h_0tzs0Y9gW4VUjnikqRVYAoRUQenzGjT8pl_xsEDoFrO3t8TA5GeUPxlFLurmUevSM3B7-JB-Za0bQZL9rZ4N-kAHYLO_FL_-jkPYa5nw2cgWJt0mNosAnm7G7I48PuSxbvqFeDGltPcxZd6AxQkh-z3nZEFBM8b5j9lw", "width": 1920}], "place_id": "ChIJGdRMcDvkQw0RFtx6vl-MyGE", "plus_code": {"compound_code": "X9V7+PG Buitrago del Lozoya, Spain", "global_code": "8CGRX9V7+PG"}, "rating": 4.4, "reference": "ChIJGdRMcDvkQw0RFtx6vl-MyGE", "scope": "GOOGLE", "types": ["supermarket", "grocery_or_supermarket", "point_of_interest", "store", "food", "establishment"], "user_ratings_total": 153, "vicinity": "Calle Real, 3, Buitrago del Lozoya"}, {"business_status": "OPERATIONAL", "geometry": {"location": {"lat": 40.9927863, "lng": -3.6363121}, "viewport": {"northeast": {"lat": 40.9941538802915, "lng": -3.634908619708498}, "southwest": {"lat": 40.9914559197085, "lng": -3.637606580291502}}}, "icon": "https://maps.gstatic.com/mapfiles/place_api/icons/v1/png_71/shopping-71.png", "icon_background_color": "#4B96F3", "icon_mask_base_uri": "https://maps.gstatic.com/mapfiles/place_api/icons/v2/shoppingcart_pinlet", "international_phone_number": "+34 958 80 83 00", "name": "Coviran", "opening_hours": {"open_now": false}, "place_id": "ChIJJTetTzvkQw0R9Llv-FKX2-A", "plus_code": {"compound_code": "X9V7+4F Buitrago del Lozoya, Spain", "global_code": "8CGRX9V7+4F"}, "rating": 3.8, "reference": "ChIJJTetTzvkQw0R9Llv-FKX2-A", "scope": "GOOGLE", "types": ["supermarket", "grocery_or_supermarket", "point_of_interest", "store", "food", "establishment"], "user_ratings_total": 48, "vicinity": "Calle de la Tahona, 34, Buitrago del Lozoya"}, {"business_status": "OPERATIONAL", "geometry": {"location": {"lat": 40.9906688, "lng": -3.6375542}, "viewport": {"northeast": {"lat": 40.9920004302915, "lng": -3.636290319708497}, "southwest": {"lat": 40.9893024697085, "lng": -3.638988280291502}}}, "icon": "https://maps.gstatic.com/mapfiles/place_api/icons/v1/png_71/shopping-71.png", "icon_background_color": "#4B96F3", "icon_mask_base_uri": "https://maps.gstatic.com/mapfiles/place_api/icons/v2/shoppingcart_pinlet", "international_phone_number": "+34 912 17 04 53", "name": "Supermercados Dia", "opening_hours": {"open_now": false}, "photos": [{"height": 657, "html_attributions": ["<a href=\"https://maps.google.com/maps/contrib/102278769117057403321\">Supermercados Dia</a>"], "photo_reference": "AWn5SU5-E19rIJJ2xqnvxFNV35D21CJGvjZ_Y2kQn1q7mCsWpbSiPUyPGWg5V3PLQrmtb8t7h_61eSfXwU0v9ObzQmRqygDrrEo7kH3bBDR2Vzoe-_cQtUjQa0uFWzcdGO1SaXMKMH8MuozMsb53bPwve23vJprBp52ElVoL60YJ6wmXrEovQo-NqUULgiKkGoZvKvJq6xrJE6-KutQlE9XZQGsKF0O9H_lOqfjnrupYQZwQvScR5tXvSdzzNHAZDJVfwSWNyVBxSkH8oL2h6mLQQRLD7Se-D5nr9KhvkKbdssUs1w6UIz9qPygbE_y1ZWAV2_E2muzlJ8Q", "width": 509}], "place_id": "ChIJo6DmZSPkQw0Rlu2sqmskzPE", "plus_code": {"compound_code": "X9R6+7X Buitrago del Lozoya, Spain", "global_code": "8CGRX9R6+7X"}, "rating": 3.7, "reference": "ChIJo6DmZSPkQw0Rlu2sqmskzPE", "scope": "GOOGLE", "types": ["supermarket", "convenience_store", "bakery", "grocery_or_supermarket", "point_of_interest", "store", "food", "establishment"], "user_ratings_total": 369, "vicinity": "Calle Miralrío, 16, Buitrago del Lozoya"}, {"business_status": "OPERATIONAL", "geometry": {"location": {"lat": 40.99462939999999, "lng": -3.6363583}, "viewport": {"northeast": {"lat": 40.99602718029149, "lng": -3.635083819708498}, "southwest": {"lat": 40.9933292197085, "lng": -3.637781780291502}}}, "icon": "https://maps.gstatic.com/mapfiles/place_api/icons/v1/png_71/shopping-71.png", "icon_background_color": "#4B96F3", "icon_mask_base_uri": "https://maps.gstatic.com/mapfiles/place_api/icons/v2/shoppingcart_pinlet", "international_phone_number": "+34 914 90 89 00", "name": "Carrefour Express", "opening_hours": {"open_now": false}, "photos": [{"height": 599, "html_attributions": ["<a href=\"https://maps.google.com/maps/contrib/107731511755793905599\">Carrefour Express</a>"], "photo_reference": "AWn5SU77-DFxBTN03ZmgDVUhDrRecPwgOKedszRGk-pkSmtYkIi691W3I0j0vVjXLkOLvKbcioCEP_KHsOwRLcLRyjuGJ6luPLoc4L1nuTHlrbU6K0kIgt4hcOk4uQ2FHzRJgeTCvHnTPyc8Q3qJa_f_UA9ymLsXPPs-vf2GLQ5fDxoE8texWJbz_hHrWMb-UyLQb0t3la4VrlsGw9sdsEtac_VRZS6rzJYlyparKzbMnuMCj46ROAzu5tcNqK-5VP7LOQ_jJarrlXZsH-4D6KKGn4m7i6cAjEsFUocEGDN2gU7TD3bOL2G6S5SkKIQUn7k7HgNN-WSLiCs", "width": 680}], "place_id": "ChIJey87GfjlQw0Rpv6FNtC9TQw", "plus_code": {"compound_code": "X9V7+VF Buitrago del Lozoya, Spain", "global_code": "8CGRX9V7+VF"}, "rating": 4.1, "reference": "ChIJey87GfjlQw0Rpv6FNtC9TQw", "scope": "GOOGLE", "types": ["supermarket", "grocery_or_supermarket", "point_of_interest", "store", "food", "establishment"], "user_ratings_total": 285, "vicinity": "Plaza de la Constitución, 12, Buitrago del Lozoya"}]