[{"business_status": "OPERATIONAL", "geometry": {"location": {"lat": 40.5441057, "lng": -3.896950799999999}, "viewport": {"northeast": {"lat": 40.5458653802915, "lng": -3.895879669708498}, "southwest": {"lat": 40.5431674197085, "lng": -3.898577630291502}}}, "icon": "https://maps.gstatic.com/mapfiles/place_api/icons/v1/png_71/pharmacy-71.png", "icon_background_color": "#F88181", "icon_mask_base_uri": "https://maps.gstatic.com/mapfiles/place_api/icons/v2/pharmacy_pinlet", "international_phone_number": "+34 916 30 62 35", "name": "FARMACIA PUNTA GALEA", "opening_hours": {"open_now": false}, "photos": [{"height": 340, "html_attributions": ["<a href=\"https://maps.google.com/maps/contrib/103929068632994122071\">FARMACIA PUNTA GALEA</a>"], "photo_reference": "AWn5SU4iQRy58ZxcTaiOLKBf3pf7-qwjSVYCbxNsHM-zFo9GHq4lYr2vNkJXg5is-yS1RXHulXtR5L1S2Rwq2XFH0JzFwcwbKZvavuyyOHSKQ0XQ5eHzwWNiJqfrSk36oU1VcjI6nJC0fJDTniLXT9rZuZRur4w9kDKKyxKmwqTd-8-hLyAeRX7bvrFptkShFoIlb5a6zcsGE6wh5MzM3XeuJ7tbBuYqToS-OYHjFCzH8yCfqRFhqLwFNmuGEI1sL-sZFZucGJtEK1b5T_tZjoQQ5jd6NmS2gOvl1EiiPG1bKyUFljjnMGSFfBxfYcxGDIeK5U4ArxxzLYo", "width": 512}], "place_id": "ChIJVe0VyMiCQQ0RhAtzxkcLB_c", "plus_code": {"compound_code": "G4V3+J6 Las Rozas de Madrid, Spain", "global_code": "8CGRG4V3+J6"}, "rating": 4.6, "reference": "ChIJVe0VyMiCQQ0RhAtzxkcLB_c", "scope": "GOOGLE", "types": ["pharmacy", "store", "health", "point_of_interest", "establishment"], "user_ratings_total": 27, "vicinity": "Calle Chile, 8, Las Rozas de Madrid"}, {"business_status": "OPERATIONAL", "geometry": {"location": {"lat": 40.5754493, "lng": -3.930644799999999}, "viewport": {"northeast": {"lat": 40.57677333029149, "lng": -3.929276069708498}, "southwest": {"lat": 40.5740753697085, "lng": -3.931974030291502}}}, "icon": "https://maps.gstatic.com/mapfiles/place_api/icons/v1/png_71/pharmacy-71.png", "icon_background_color": "#F88181", "icon_mask_base_uri": "https://maps.gstatic.com/mapfiles/place_api/icons/v2/pharmacy_pinlet", "international_phone_number": "+34 620 28 19 04", "name": "La Farmacia de Marta", "opening_hours": {"open_now": false}, "photos": [{"height": 1834, "html_attributions": ["<a href=\"https://maps.google.com/maps/contrib/115543862797196037565\">Carlos Rodriguez</a>"], "photo_reference": "AWn5SU6qtpSn6exy95Z2O0kgE7OBKlqzCJV9bLLoIBfp66EYFxPWE-dbz6LEgxRFrYXRQtVfoPZMIpMEiJtu4k1ImyUKbX1H5NVPvzCjgmluECmFR4mUCvI3M29oC3pueJR-ooN_2W8gqzgvyFhjPv5oKkLoK2aD1ab6gn6tpjbFoaRFnvwyrOx7g-OcIuqnDV-S-2dj7vN7YwnJycaavoJcJgKiHTc_OYO1lAw6P5CL1yGQbOYNg9BAqzFXzLAViFIxTcYRmx895gpUbW_Tf7Z9os8gZE2pyJ_tmoeLXp3i7x1gjF6ZvpTj85S3qjTZumsETh2wDJr7l0wvpOg14nq0AySQng9wMgviDLBFcdZMs56yZKUHNIRDmzb_QzOeiyT1PF-NS2fqjQLAhc6MwKNFEj9zim2E74sdOceFl9twrrM1F3uLjWhUrIsfY5e7WLE7oQz0qJxSkUIauMASpxln1cr22Z9X-glXFKqq-eMN7kEZ74MFZKCmLFmx3Wyb29fV8mJsDwJo0UOiEQBZ7uYfzI2DWFzf-_4HqN6-mZkGKqhK5vFDuQ9IuAOH8U8Yupho9mkt8NAzoM7VDqY8yyQTO1BwSl_cPbyvuRUccDS_wCrx7SjE03S2q9FqHJgA1gwKE9NHBmuok04pRLhX0IpWeA", "width": 4096}], "place_id": "ChIJNdFkYNx3QQ0Ra7BojpYKQvc", "plus_code": {"compound_code": "H3G9+5P Torrelodones, Spain", "global_code": "8CGRH3G9+5P"}, "rating": 4.3, "reference": "ChIJNdFkYNx3QQ0Ra7BojpYKQvc", "scope": "GOOGLE", "types": ["pharmacy", "store", "health", "point_of_interest", "establishment"], "user_ratings_total": 15, "vicinity": "Calle Huertos, 2, Torrelodones"}, {"business_status": "OPERATIONAL", "geometry": {"location": {"lat": 40.5808853, "lng": -3.9312351}, "viewport": {"northeast": {"lat": 40.5821645802915, "lng": -3.929913119708498}, "southwest": {"lat": 40.5794666197085, "lng": -3.932611080291502}}}, "icon": "https://maps.gstatic.com/mapfiles/place_api/icons/v1/png_71/pharmacy-71.png", "icon_background_color": "#F88181", "icon_mask_base_uri": "https://maps.gstatic.com/mapfiles/place_api/icons/v2/pharmacy_pinlet", "international_phone_number": "+34 918 59 33 62", "name": "Farmacia Patricia Vega", "opening_hours": {"open_now": false}, "photos": [{"height": 3456, "html_attributions": ["<a href=\"https://maps.google.com/maps/contrib/117077742829654533774\">Paco Antequera</a>"], "photo_reference": "AWn5SU77jTvTYwVbgI2EfxzWUWVyLkQieTP1N3xDHBH56vlTIbJAgxwswdJUxKXq4koujP7vzq8h1DERNAY8hCqsQAoWToXqXBqAIjqemV6Zna87O4RfE8XyRu0OnbBT8A9KRZO02a9IvKO4_o4Xw8wkGk1obH3NRT8PBvd8gk4_EiVXEvo2wHhRA3x40lxUCDgL0TxRSIyIrUlpwOlwA1nvF9gcOcH1j8MuFumVpcRkVzSVOamJ7KrZO8MSMnX_NPXJGigj8nZ3xgDfPj9r-5vrcFKT6gh-kzrUu2XerGlC8CUllwP-fmsz6f_isDQkdrM6gUa4oFe3xLP5YQhTnsXs7WIpGQYib6raW5cgxpbpHCOwMtO5Z1eQPTDh7y2a0cuceJdLMcms9lJSglNhp9QuX90-_XJdrhNDutIyorgrFkYXK0rnr3Mwh4umQg_smR19Vf07LAA3ssm2MuH_JvHGSbGxmNKIXUTJu-wLnSDrFtTn2jo4ORxHDrtjTzBqM6AH8F_pjox3WGhcOsIvFxqeqhexCA0ASs1lu1PyKzlJClVBxcPcimf6fF_EH7z94CCDhUFP19dvk9EN-SzEZutrMqM226eyQOCWyRvqRzyq-QqFWGzcbP58rZVTay9HwZV62k9NyQ", "width": 4608}], "place_id": "ChIJ10S-gcN3QQ0RY0DRLR6Nenw", "plus_code": {"compound_code": "H3J9+9G Torrelodones, Spain", "global_code": "8CGRH3J9+9G"}, "rating": 4.4, "reference": "ChIJ10S-gcN3QQ0RY0DRLR6Nenw", "scope": "GOOGLE", "types": ["pharmacy", "store", "health", "point_of_interest", "establishment"], "user_ratings_total": 32, "vicinity": "Calle Señora Sergia, 48b, Torrelodones"}, {"business_status": "OPERATIONAL", "geometry": {"location": {"lat": 40.578016, "lng": -3.9523422}, "viewport": {"northeast": {"lat": 40.57932048029149, "lng": -3.950881769708498}, "southwest": {"lat": 40.57662251970849, "lng": -3.953579730291502}}}, "icon": "https://maps.gstatic.com/mapfiles/place_api/icons/v1/png_71/pharmacy-71.png", "icon_background_color": "#F88181", "icon_mask_base_uri": "https://maps.gstatic.com/mapfiles/place_api/icons/v2/pharmacy_pinlet", "international_phone_number": "+34 918 59 01 01", "name": "Farmacia Colonia", "opening_hours": {"open_now": false}, "photos": [{"height": 533, "html_attributions": ["<a href=\"https://maps.google.com/maps/contrib/105883582434164867883\">Farmacia Colonia</a>"], "photo_reference": "AWn5SU5vJLKYkV_369kotlNi_rJ8nEV3UCC7b3uT_RyhHJY5ghlppmAmsRcanjGizq3VMsBuYOdoKNfwhKBhXmV2bfPFQ_4LWu1d7JA-XLGqoDTGfivT2TMNO8NruK361IHQ_ezrl6H8WsNgCNbEVcyVgk4lzIjPuPmjdVDrBJuMHq7Y4siku_KsdTkbbalWZk2j9F5qGnWnHrHODmLOcnm35AgG-g6aMqwbC3Bj5cdYChb2atFMMYvQtyfQjSiLAJjuGjoPSeb9tR06mYInpFzlFGRsKOgnipwJ79rW-1yKpPdsu7_GEbleR1kGKcJ56kQ1nLWiW5cm", "width": 1364}], "place_id": "ChIJS4qB9zF2QQ0REO8ayJZ4F6U", "plus_code": {"compound_code": "H2HX+63 Torrelodones, Spain", "global_code": "8CGRH2HX+63"}, "rating": 4.3, "reference": "ChIJS4qB9zF2QQ0REO8ayJZ4F6U", "scope": "GOOGLE", "types": ["pharmacy", "store", "health", "point_of_interest", "establishment"], "user_ratings_total": 46, "vicinity": "Calle Jesusa Lara, 15, Torrelodones"}, {"business_status": "OPERATIONAL", "geometry": {"location": {"lat": 40.5437415, "lng": -3.900442800000001}, "viewport": {"northeast": {"lat": 40.5449703802915, "lng": -3.899000269708498}, "southwest": {"lat": 40.54227241970851, "lng": -3.901698230291503}}}, "icon": "https://maps.gstatic.com/mapfiles/place_api/icons/v1/png_71/pharmacy-71.png", "icon_background_color": "#F88181", "icon_mask_base_uri": "https://maps.gstatic.com/mapfiles/place_api/icons/v2/pharmacy_pinlet", "name": "Serini 3, S. L.", "place_id": "ChIJPaxus86CQQ0RrxsbG-pb5_w", "plus_code": {"compound_code": "G3VX+FR Las Rozas de Madrid, Spain", "global_code": "8CGRG3VX+FR"}, "reference": "ChIJPaxus86CQQ0RrxsbG-pb5_w", "scope": "GOOGLE", "types": ["pharmacy", "store", "health", "point_of_interest", "establishment"], "vicinity": "Calle Chile, 10, Las Rozas de Madrid"}, {"business_status": "OPERATIONAL", "geometry": {"location": {"lat": 40.53458920000001, "lng": -3.9419306}, "viewport": {"northeast": {"lat": 40.5358649802915, "lng": -3.940444169708498}, "southwest": {"lat": 40.5331670197085, "lng": -3.943142130291502}}}, "icon": "https://maps.gstatic.com/mapfiles/place_api/icons/v1/png_71/pharmacy-71.png", "icon_background_color": "#F88181", "icon_mask_base_uri": "https://maps.gstatic.com/mapfiles/place_api/icons/v2/pharmacy_pinlet", "international_phone_number": "+34 916 30 43 15", "name": "Farmacia Molino de la Hoz", "opening_hours": {"open_now": false}, "photos": [{"height": 720, "html_attributions": ["<a href=\"https://maps.google.com/maps/contrib/104940487027197965082\">Maria José Hernandez Gonzalez de Mendoza</a>"], "photo_reference": "AWn5SU7kh3bMcko84PM5aVVaMRXU1OhsVQszAwqTzAJMU1oV1XCbHDH9e32GP0eBSePfwoS9EYcpID3yb6_I-sf_z8WRpLewqhJ-zcqaJbmWGFSF8lvsG0cw_3poOH95bx4yS6wk-r7_lp_E0JvmpqNfL6H5Wtz1qt5qTEtaBsMbq_YzbpLbcdlgVFNXCV_smqcPBTDfNavI-DbNXoAawflGhwNVP-hkxeJ9pLYX9cRPGAuvxloXYlB_JFi3B3XWE1l1BnQ-Q85P4omwcDLZWZrYNR1T2JkeDVzoQ-DLftnIbijf7n3T7BkqN4wR3mcUKLn8VtAFSNA_XaeUK9xsLsFfw5EAOnFT-hnVO4vN7qdIjN2L8ATnzgTHjTe9v5LfQOKIGc94WsZhzIeRb14SBeK1ZEgz-G0XCAuL1l8av2MRE-wZGLNbSs7a0f1QFhacmgUIuWt5K5L8-cfE5ogk_UFjHl8R1Az5PikC24GOXkZHbHuPSHrXmA0CsMcj8TRt-T0833zdz14uqWk_4_oihn0GQKPHTIHyyl0XDKZ8a10fU7xrN_xLivi08PrSJ_gcvMksNz7RHaWA5yVlpC6AcH3BM1K7MS3BeaEhLRdvbUFX8L_t5dm8977FGB2RCYn0368xxk1_tMvV", "width": 960}], "place_id": "ChIJM1QElHyDQQ0R3al9Kfg49os", "plus_code": {"compound_code": "G3M5+R6 Las Rozas de Madrid, Spain", "global_code": "8CGRG3M5+R6"}, "rating": 4.7, "reference": "ChIJM1QElHyDQQ0R3al9Kfg49os", "scope": "GOOGLE", "types": ["pharmacy", "store", "health", "point_of_interest", "establishment"], "user_ratings_total": 19, "vicinity": "Molino De La Hoz, Urbanización, Calle Camino Real, 1, Las Rozas de Madrid"}, {"business_status": "OPERATIONAL", "geometry": {"location": {"lat": 40.62045219999999, "lng": -3.907764899999999}, "viewport": {"northeast": {"lat": 40.62177863029149, "lng": -3.906251469708497}, "southwest": {"lat": 40.6190806697085, "lng": -3.908949430291501}}}, "icon": "https://maps.gstatic.com/mapfiles/place_api/icons/v1/png_71/pharmacy-71.png", "icon_background_color": "#F88181", "icon_mask_base_uri": "https://maps.gstatic.com/mapfiles/place_api/icons/v2/pharmacy_pinlet", "international_phone_number": "+34 918 56 82 58", "name": "Farmacia El Cerrillo Laura Cardona - Vicente Costales", "opening_hours": {"open_now": false}, "place_id": "ChIJQb-Tv2J3QQ0RtJ_dZK6rLPE", "plus_code": {"compound_code": "J3CR+5V Hoyo de Manzanares, Spain", "global_code": "8CGRJ3CR+5V"}, "rating": 5, "reference": "ChIJQb-Tv2J3QQ0RtJ_dZK6rLPE", "scope": "GOOGLE", "types": ["pharmacy", "store", "health", "point_of_interest", "establishment"], "user_ratings_total": 6, "vicinity": "Avenida de Madrid, 10, Hoyo de Manzanares"}, {"business_status": "OPERATIONAL", "geometry": {"location": {"lat": 40.53555619999999, "lng": -3.8982299}, "viewport": {"northeast": {"lat": 40.5369352802915, "lng": -3.897112719708498}, "southwest": {"lat": 40.53423731970851, "lng": -3.899810680291502}}}, "icon": "https://maps.gstatic.com/mapfiles/place_api/icons/v1/png_71/pharmacy-71.png", "icon_background_color": "#F88181", "icon_mask_base_uri": "https://maps.gstatic.com/mapfiles/place_api/icons/v2/pharmacy_pinlet", "international_phone_number": "+34 916 31 91 74", "name": "Parafarmacia Las Rozas", "opening_hours": {"open_now": false}, "place_id": "ChIJEXkj9dCCQQ0RXRd32C6nI-g", "plus_code": {"compound_code": "G4P2+6P Las Rozas de Madrid, Spain", "global_code": "8CGRG4P2+6P"}, "reference": "ChIJEXkj9dCCQQ0RXRd32C6nI-g", "scope": "GOOGLE", "types": ["pharmacy", "store", "health", "point_of_interest", "establishment"], "vicinity": "Avenida de Atenas, 1, Las Rozas de Madrid"}, {"business_status": "OPERATIONAL", "geometry": {"location": {"lat": 40.62366749999999, "lng": -3.9050334}, "viewport": {"northeast": {"lat": 40.6250390802915, "lng": -3.903710919708498}, "southwest": {"lat": 40.6223411197085, "lng": -3.906408880291503}}}, "icon": "https://maps.gstatic.com/mapfiles/place_api/icons/v1/png_71/pharmacy-71.png", "icon_background_color": "#F88181", "icon_mask_base_uri": "https://maps.gstatic.com/mapfiles/place_api/icons/v2/pharmacy_pinlet", "international_phone_number": "+34 918 56 97 83", "name": "Farmacia Polideportivo Licenciada Raquel González-Guerrero Llamas", "opening_hours": {"open_now": false}, "place_id": "ChIJZQR_gWR3QQ0R1eONGcylmxo", "plus_code": {"compound_code": "J3FV+FX Hoyo de Manzanares, Spain", "global_code": "8CGRJ3FV+FX"}, "rating": 4.8, "reference": "ChIJZQR_gWR3QQ0R1eONGcylmxo", "scope": "GOOGLE", "types": ["pharmacy", "store", "health", "point_of_interest", "establishment"], "user_ratings_total": 21, "vicinity": "Avenida de Juan Carlos I, 28, Hoyo de Manzanares"}, {"business_status": "OPERATIONAL", "geometry": {"location": {"lat": 40.57874820000001, "lng": -4.0039624}, "viewport": {"northeast": {"lat": 40.58009398029151, "lng": -4.002700169708498}, "southwest": {"lat": 40.57739601970851, "lng": -4.005398130291502}}}, "icon": "https://maps.gstatic.com/mapfiles/place_api/icons/v1/png_71/pharmacy-71.png", "icon_background_color": "#F88181", "icon_mask_base_uri": "https://maps.gstatic.com/mapfiles/place_api/icons/v2/pharmacy_pinlet", "international_phone_number": "+34 918 58 56 87", "name": "Farmacia Óptica La Iglesia", "opening_hours": {"open_now": false}, "photos": [{"height": 1154, "html_attributions": ["<a href=\"https://maps.google.com/maps/contrib/118211624542873320787\">Farmacia Óptica La Iglesia</a>"], "photo_reference": "AWn5SU5tEWzgBE4arFdpWJ63SvfwAw4riA7nXR23t__whsGH3Z3Qa5JNQ1l_HTRmMhOtFoEDRvNRkndqw4d0vark4MiiW8g8ivfod8DWlw543WXyyd2fqzq_9fEjXqp3BKOYITOxF-S0u4tSUG0AOUnflcv0ULeDpxm0vuRxsaI8lbSEpjQ8mRc7nqMpYIAv7siG3FPns-1WaTT4zpo_F0EQn2_wOVZ1s1Ifa5JROkbrccaN5TIBpWB5s52GVcKptMditEGuM2O8hLGwLhN9T5UmT-i4_Zs_9z4uq1Ua4v7oVuPF3oiMC9l7l_Ix-GJ8x9ERyOlXxuMcF38", "width": 2048}], "place_id": "ChIJL5veMOx1QQ0R4DCWu2seqmI", "plus_code": {"compound_code": "HXHW+FC Galapagar, Spain", "global_code": "8CGQHXHW+FC"}, "rating": 3.5, "reference": "ChIJL5veMOx1QQ0R4DCWu2seqmI", "scope": "GOOGLE", "types": ["pharmacy", "store", "health", "point_of_interest", "establishment"], "user_ratings_total": 26, "vicinity": "Calle Guadarrama, 12, Galapagar"}, {"business_status": "OPERATIONAL", "geometry": {"location": {"lat": 40.5186662, "lng": -3.9274085}, "viewport": {"northeast": {"lat": 40.5200412802915, "lng": -3.926108069708498}, "southwest": {"lat": 40.51734331970851, "lng": -3.928806030291503}}}, "icon": "https://maps.gstatic.com/mapfiles/place_api/icons/v1/png_71/pharmacy-71.png", "icon_background_color": "#F88181", "icon_mask_base_uri": "https://maps.gstatic.com/mapfiles/place_api/icons/v2/pharmacy_pinlet", "international_phone_number": "+34 916 31 49 29", "name": "Farmanueva", "opening_hours": {"open_now": false}, "place_id": "ChIJdUggk-ecQQ0RgbO1LZj5ru8", "plus_code": {"compound_code": "G39F+F2 Las Rozas de Madrid, Spain", "global_code": "8CGRG39F+F2"}, "rating": 2, "reference": "ChIJdUggk-ecQQ0RgbO1LZj5ru8", "scope": "GOOGLE", "types": ["pharmacy", "store", "health", "point_of_interest", "establishment"], "user_ratings_total": 2, "vicinity": "SANTOLINA, Las Rozas de Madrid"}, {"business_status": "OPERATIONAL", "geometry": {"location": {"lat": 40.5767514, "lng": -4.005436599999999}, "viewport": {"northeast": {"lat": 40.5780797302915, "lng": -4.004142619708497}, "southwest": {"lat": 40.5753817697085, "lng": -4.006840580291501}}}, "icon": "https://maps.gstatic.com/mapfiles/place_api/icons/v1/png_71/pharmacy-71.png", "icon_background_color": "#F88181", "icon_mask_base_uri": "https://maps.gstatic.com/mapfiles/place_api/icons/v2/pharmacy_pinlet", "international_phone_number": "+34 918 58 01 08", "name": "FARMACIA Elena Ortega Coto", "opening_hours": {"open_now": false}, "photos": [{"height": 2304, "html_attributions": ["<a href=\"https://maps.google.com/maps/contrib/118136275586272345276\">FARMACIA Elena Ortega Coto</a>"], "photo_reference": "AWn5SU5dKDAQQB_FTBqvk6u9cwKXhA4O3pLhjznCW5nB47OOH8uUWt05gEw7PhC5JTP2EsrS7Y-11ZC0mjLIGJPJnkkOvWT8ixXvoZRKEcVCKDYwlxiDSccpkAyB920oS87kMj5B-aWhUgaG3ok1bc8rLsSRPGsDzu1QMAM7jNTR0bzPWOcVoOIf2hxtGi2rk28Qx-Z9tN7ugVrnmkbIv_SVr3KqaLXSONJRvqa4R1JCv7PtZB37gQQwYeChd8ntRLbuTiQSznZVQJIfHFSZuFCf2LaJesUnX8771Q8-s5HXYzXiJH3mrOMwkK5I7iMN0CsS33qvMCWrO0g", "width": 2189}], "place_id": "ChIJwYgEn-11QQ0RBprlVYGC0CA", "plus_code": {"compound_code": "HXGV+PR Galapagar, Spain", "global_code": "8CGQHXGV+PR"}, "rating": 4.2, "reference": "ChIJwYgEn-11QQ0RBprlVYGC0CA", "scope": "GOOGLE", "types": ["pharmacy", "store", "health", "point_of_interest", "establishment"], "user_ratings_total": 46, "vicinity": "Plaza del Caño, 16, Galapagar"}, {"business_status": "OPERATIONAL", "geometry": {"location": {"lat": 40.52333739999999, "lng": -3.893561}, "viewport": {"northeast": {"lat": 40.52465818029149, "lng": -3.892164819708498}, "southwest": {"lat": 40.5219602197085, "lng": -3.894862780291502}}}, "icon": "https://maps.gstatic.com/mapfiles/place_api/icons/v1/png_71/pharmacy-71.png", "icon_background_color": "#F88181", "icon_mask_base_uri": "https://maps.gstatic.com/mapfiles/place_api/icons/v2/pharmacy_pinlet", "international_phone_number": "+34 916 40 49 54", "name": "Farmacia Concepcion Ortego", "opening_hours": {"open_now": false}, "place_id": "ChIJS0WYiiaDQQ0RSEK-tLhRg9E", "plus_code": {"compound_code": "G4F4+8H Las Rozas de Madrid, Spain", "global_code": "8CGRG4F4+8H"}, "rating": 3.1, "reference": "ChIJS0WYiiaDQQ0RSEK-tLhRg9E", "scope": "GOOGLE", "types": ["pharmacy", "store", "health", "point_of_interest", "establishment"], "user_ratings_total": 45, "vicinity": "Camilo Jose Cela 13, Las Rozas (Parque Empresarial), Madrid"}, {"business_status": "OPERATIONAL", "geometry": {"location": {"lat": 40.5196622, "lng": -3.8957869}, "viewport": {"northeast": {"lat": 40.5210901302915, "lng": -3.894388919708497}, "southwest": {"lat": 40.5183921697085, "lng": -3.897086880291501}}}, "icon": "https://maps.gstatic.com/mapfiles/place_api/icons/v1/png_71/pharmacy-71.png", "icon_background_color": "#F88181", "icon_mask_base_uri": "https://maps.gstatic.com/mapfiles/place_api/icons/v2/pharmacy_pinlet", "international_phone_number": "+34 916 40 46 42", "name": "La Botica de Marta Vila", "opening_hours": {"open_now": false}, "photos": [{"height": 2848, "html_attributions": ["<a href=\"https://maps.google.com/maps/contrib/111868558729437824506\">Sergio Vergara (Tours Virtuales &amp; Photo)</a>"], "photo_reference": "AWn5SU7UBYyjxNtXBEGtzGW48Kyy7K6XS1Q33RJifr7ZJvgwZDyKmNmEpgyj9WaYp7ckhpmOVAdTskN-j1pnjSEuc8HL8xHASeVgS8KY2sPN3hfTPzAYdFDDF-OhB1NgoYtaM2ey4HF7D_YHPMNsQeYhG-V_7nXUYgOIExit4iAwYlFIqsYa5jxH_6maJOC0-dimZv_ZZChOtJQkdzoTMLUELNYtJWFjCvdw27_SVo9xUqEgoUTdWaVzK04Y-N5q4GQ3E-niXtiejCIuSXv5SfgMM-hTg4TFlReyJEwBV02HKomr5Jc7H-xGj-JN2TeIpunTba5gOOSBaBRgcEGW8YsOMSQoibm73RloKura6ku5emoKYyzHNx28Adje96pWXSabr9ccAwCljJIx4oAyucHxlxV5ijLm2qxGPmZQGWtP1O0uAHSOHKSrHqlrzWP4By6hwaFu_J3nLh10f1OieYfmZAy011Rw2b1Dfcv2aubs9oFlSM30UZXLKa3PzWmJaMYGxq0ejHzX_RkcO6b5nZOSBUYrafLGDZYNgHDaWYattdE-wir3LdhPRGpPom_do7M4nCAHSLisuXDkungKRhQZpY8mh6nvZtCxsbS3m6e9NSxkQdAxXxB-dmeAXgBIF_yA", "width": 4288}], "place_id": "ChIJ46tIXiWDQQ0RdRAIRaxuXpU", "plus_code": {"compound_code": "G493+VM Las Rozas de Madrid, Spain", "global_code": "8CGRG493+VM"}, "rating": 3.8, "reference": "ChIJ46tIXiWDQQ0RdRAIRaxuXpU", "scope": "GOOGLE", "types": ["pharmacy", "store", "health", "point_of_interest", "establishment"], "user_ratings_total": 69, "vicinity": "Calle Camilo José Cela, 10, Las Rozas de Madrid"}, {"business_status": "OPERATIONAL", "geometry": {"location": {"lat": 40.5765603, "lng": -3.929779700000001}, "viewport": {"northeast": {"lat": 40.57784873029149, "lng": -3.928479119708498}, "southwest": {"lat": 40.5751507697085, "lng": -3.931177080291502}}}, "icon": "https://maps.gstatic.com/mapfiles/place_api/icons/v1/png_71/pharmacy-71.png", "icon_background_color": "#F88181", "icon_mask_base_uri": "https://maps.gstatic.com/mapfiles/place_api/icons/v2/pharmacy_pinlet", "international_phone_number": "+34 918 59 09 31", "name": "Farmacia Gálvez Ruano", "opening_hours": {"open_now": false}, "photos": [{"height": 3456, "html_attributions": ["<a href=\"https://maps.google.com/maps/contrib/106049116941298332490\">David Cabestrero</a>"], "photo_reference": "AWn5SU4mFfb8oz2cRSvGdoeXiNMCw3MutartHJDrPqtX5fOmkkYxZ8XjtU1LASmEDxAUU0jsnbfKdqQrBEvxQFbqwNrEtN3EO0WEykDE1EEl28sk6-s-5orVrD2KmRJI4TMGUxtr1-wkc7pL32rO_D0_fxObU1GQ7oS6IqU31PDSU4p7AV3Fl3VYyph9OOKce7d_Gp9v1jAcIotXE_QwKPikxjbUKy8llUu76Yb-GQpvvX4Mn68fVkbwm8oPEvGapysiJWPcbiTEsDRLn4GFEZ1kUk62o4GKWQ1XLsHHo_AdaqoOQRFsRXAybBBepT493Tq2kLu-dz-4AinysmER-0I9VPGa45hFAH1TvMaO9ekhqlAqk1sGATPGgX9GXiEk4kvntEMrFFH3GPjn65B5WEpsUMfKTxfsN_GGmV_9sKq0V3fOk5VWVdm0B0CTxtQDvHppoQrwrVkpTRmrbdb7RztX9NkXk1zJC3WHUaytOuhBzAwOgfniTt5ar_MoY2n0xC4Rk7ecTFBDfuTxJf3bZtlb0es2DQJagOG0_VtedjGuMjbX1IhrkY3Z-EF4M2vvv3OIiLRxj_8Rw6hOJI2cdNDKjM1M9pLEBWvmDscUJFedF5_omopacN9ciyg7hO23XHl4iDWXU7QL", "width": 4608}], "place_id": "ChIJ6ZH15Nx3QQ0RX5U7XQknQlk", "plus_code": {"compound_code": "H3GC+J3 Torrelodones, Spain", "global_code": "8CGRH3GC+J3"}, "rating": 4, "reference": "ChIJ6ZH15Nx3QQ0RX5U7XQknQlk", "scope": "GOOGLE", "types": ["pharmacy", "store", "health", "point_of_interest", "establishment"], "user_ratings_total": 39, "vicinity": "Calle Carlos Picabea, 2, Torrelodones"}, {"business_status": "OPERATIONAL", "geometry": {"location": {"lat": 40.5766064, "lng": -3.9299804}, "viewport": {"northeast": {"lat": 40.5778853802915, "lng": -3.928651869708498}, "southwest": {"lat": 40.5751874197085, "lng": -3.931349830291503}}}, "icon": "https://maps.gstatic.com/mapfiles/place_api/icons/v1/png_71/pharmacy-71.png", "icon_background_color": "#F88181", "icon_mask_base_uri": "https://maps.gstatic.com/mapfiles/place_api/icons/v2/pharmacy_pinlet", "international_phone_number": "+34 918 59 44 89", "name": "Centro Clinico Farmacia", "place_id": "ChIJ9fLU6Nx3QQ0RNL_hjhHSEdU", "plus_code": {"compound_code": "H3GC+J2 Torrelodones, Spain", "global_code": "8CGRH3GC+J2"}, "reference": "ChIJ9fLU6Nx3QQ0RNL_hjhHSEdU", "scope": "GOOGLE", "types": ["pharmacy", "store", "health", "point_of_interest", "establishment"], "vicinity": "Spain"}, {"business_status": "OPERATIONAL", "geometry": {"location": {"lat": 40.5783321, "lng": -3.9277953}, "viewport": {"northeast": {"lat": 40.5797246302915, "lng": -3.926489119708497}, "southwest": {"lat": 40.5770266697085, "lng": -3.929187080291502}}}, "icon": "https://maps.gstatic.com/mapfiles/place_api/icons/v1/png_71/pharmacy-71.png", "icon_background_color": "#F88181", "icon_mask_base_uri": "https://maps.gstatic.com/mapfiles/place_api/icons/v2/pharmacy_pinlet", "international_phone_number": "+34 918 59 05 84", "name": "Farmacia Reviriego Morcuende", "opening_hours": {"open_now": false}, "photos": [{"height": 1728, "html_attributions": ["<a href=\"https://maps.google.com/maps/contrib/108852651104054662037\">Farmacia Reviriego Morcuende</a>"], "photo_reference": "AWn5SU4sOTV_pFnOpTVMsn7gDukLUcwF_RgmLF_1oZfsvpnPYUP9y23WEMo-5qNJRp79ODtdIa75gndecvRWzUy3OJwshLUORrOf8vFN0O80IUUjbRTa4eizifSE4sJgSMv1IzxZoc51kaMTbANIvP0iXFhofZSWMOeg1rtrj0bXKf7mS0QBkJdZkbKLArUfdJRm2xPTszGq9yFOVJu0YzIUh5W78WrzCCee3KUwbQTCXv4B5HAWJF1zJIZQqZ-vSxabAlPK_BSgBuYLZ0GtJJ2J81rO3lsHNlLyoaa6PBxj37xtJFhomNzUA2sQaTzZ0J3gXGU7XBQA7jg", "width": 2592}], "place_id": "ChIJu1TvdYN3QQ0RFFac5Zpyrr0", "plus_code": {"compound_code": "H3HC+8V Torrelodones, Spain", "global_code": "8CGRH3HC+8V"}, "rating": 4.7, "reference": "ChIJu1TvdYN3QQ0RFFac5Zpyrr0", "scope": "GOOGLE", "types": ["pharmacy", "store", "health", "point_of_interest", "establishment"], "user_ratings_total": 31, "vicinity": "Calle José Sánchez Rubio, Torrelodones"}, {"business_status": "OPERATIONAL", "geometry": {"location": {"lat": 40.5749579, "lng": -3.9258756}, "viewport": {"northeast": {"lat": 40.5762673302915, "lng": -3.924559719708498}, "southwest": {"lat": 40.5735693697085, "lng": -3.927257680291502}}}, "icon": "https://maps.gstatic.com/mapfiles/place_api/icons/v1/png_71/pharmacy-71.png", "icon_background_color": "#F88181", "icon_mask_base_uri": "https://maps.gstatic.com/mapfiles/place_api/icons/v2/pharmacy_pinlet", "international_phone_number": "+34 918 59 37 35", "name": "Farmacia Marfagón", "opening_hours": {"open_now": false}, "photos": [{"height": 1192, "html_attributions": ["<a href=\"https://maps.google.com/maps/contrib/117876400802744831874\">Farmacia Marfagón</a>"], "photo_reference": "AWn5SU5mWeq3y2TeG3AKf_YBUSBgA573xQe2drI5PArFcD4r3oHfFOO2v4r6o-3miZPQBbewv6hNWshsM7qsfhmqISs1ecPl-TtwFNFyqegbbsjfBqyyMBRzQd1bt09NtaDRgrPeoF8fEdEKP5viMtLZQb7T6ev_p9gifx7cNpWCRs1c7PwQkE5ikm0w4kyrtTi6qjqD9Lij5_kie49BxH3tLGTc92LC67mnIu-WBWQ-i7LiCBzFFkUFEo_GZ8Vx4Q22mQyTglCYteW8r-x600NYJW2MtCkcIlnSJ2m7LKMO6aXp99u55ZVcrmtlTqLWz7lSbeHfU8g5q60", "width": 2119}], "place_id": "ChIJw_sRb-d3QQ0RNbBkffw5WZk", "plus_code": {"compound_code": "H3FF+XJ Torrelodones, Spain", "global_code": "8CGRH3FF+XJ"}, "rating": 4.8, "reference": "ChIJw_sRb-d3QQ0RNbBkffw5WZk", "scope": "GOOGLE", "types": ["pharmacy", "store", "health", "point_of_interest", "establishment"], "user_ratings_total": 63, "vicinity": "Calle Real, 41, Torrelodones"}, {"business_status": "OPERATIONAL", "geometry": {"location": {"lat": 40.5677986, "lng": -3.9206889}, "viewport": {"northeast": {"lat": 40.5692461302915, "lng": -3.919670269708497}, "southwest": {"lat": 40.5665481697085, "lng": -3.922368230291502}}}, "icon": "https://maps.gstatic.com/mapfiles/place_api/icons/v1/png_71/pharmacy-71.png", "icon_background_color": "#F88181", "icon_mask_base_uri": "https://maps.gstatic.com/mapfiles/place_api/icons/v2/pharmacy_pinlet", "international_phone_number": "+34 918 54 41 16", "name": "Farmacia Sierra Sana", "opening_hours": {"open_now": false}, "photos": [{"height": 3024, "html_attributions": ["<a href=\"https://maps.google.com/maps/contrib/116917654235057144404\">Farmacia Sierra Sana</a>"], "photo_reference": "AWn5SU5K0_Yj07Ykzxi7spN2vcxpJPDNwsdXpLJBnYfcCD_5blzzqZ-OtzMdpZClJ53-5_nZTvDDHhyov2vnKF9q6D2-B0KGpScK4yMQ4LsBazf18ALoetrMxlZLbonJV7ib7MxQ7ovN-7R0rumPla3ZD-ihYV4y6Z3UIUpWmUq09k8Ef3xtRDwzMPHpl9KuDRZGqreTHagZv-k-i2kGFZxSAGd8mDaIbIg5optcOPH0Vhsnnb8IXB8l918iBCGQ7pUe7ZfygFikfeCpREPL9XRwe1lIpirK5dBMHHr-fKmElQ3uHLnwBJgFDGHzRWWG5TYRdCCygrXpYp4", "width": 4032}], "place_id": "ChIJ31IDAG6dQQ0RLhkto2OsI_E", "plus_code": {"compound_code": "H39H+4P Torrelodones, Spain", "global_code": "8CGRH39H+4P"}, "rating": 3.5, "reference": "ChIJ31IDAG6dQQ0RLhkto2OsI_E", "scope": "GOOGLE", "types": ["pharmacy", "store", "health", "point_of_interest", "establishment"], "user_ratings_total": 65, "vicinity": "CC Espacio, Avenida de la Fontanilla, nº1, Torrelodones"}, {"business_status": "OPERATIONAL", "geometry": {"location": {"lat": 40.5813146, "lng": -3.9042391}, "viewport": {"northeast": {"lat": 40.5827002802915, "lng": -3.902779219708498}, "southwest": {"lat": 40.5800023197085, "lng": -3.905477180291502}}}, "icon": "https://maps.gstatic.com/mapfiles/place_api/icons/v1/png_71/pharmacy-71.png", "icon_background_color": "#F88181", "icon_mask_base_uri": "https://maps.gstatic.com/mapfiles/place_api/icons/v2/pharmacy_pinlet", "international_phone_number": "+34 955 30 51 80", "name": "Fincas Milenia", "place_id": "ChIJAQBwBh14QQ0RUqRV5V48QfI", "plus_code": {"compound_code": "H3JW+G8 Torrelodones, Spain", "global_code": "8CGRH3JW+G8"}, "reference": "ChIJAQBwBh14QQ0RUqRV5V48QfI", "scope": "GOOGLE", "types": ["pharmacy", "store", "health", "point_of_interest", "establishment"], "vicinity": "Calle Jazmines, 4, Torrelodones"}]