[{"business_status": "OPERATIONAL", "geometry": {"location": {"lat": 40.4054034, "lng": -3.3649975}, "viewport": {"northeast": {"lat": 40.4069377802915, "lng": -3.363519269708498}, "southwest": {"lat": 40.4042398197085, "lng": -3.366217230291502}}}, "icon": "https://maps.gstatic.com/mapfiles/place_api/icons/v1/png_71/civic_building-71.png", "icon_background_color": "#7B9EB0", "icon_mask_base_uri": "https://maps.gstatic.com/mapfiles/place_api/icons/v2/civic-bldg_pinlet", "international_phone_number": "+34 655 91 43 39", "name": "Policía Local de Torres de la Alameda", "photos": [{"height": 3000, "html_attributions": ["<a href=\"https://maps.google.com/maps/contrib/103075379508246232749\">Gemma Cabildo</a>"], "photo_reference": "AWn5SU6TfXTfbhrEYyD2pQ6mt04kY36QmPcatZD-FZgvSOV_7Cx4RNZMgjmXwJ96_zoQslpODDfOC7vQsG1STCwqOyMh_wivHq3GWwr1fc1qkpT9fipTq44Y1N2kF1XegJU214j34uhQMm527Rh_vlEYZbhBB7uXqAL-Stlg-9aomVLdBU8doLYBMePygUB1-gDuGE8BILrJNhOrOTxDkuR7aSDYqGCL2BUu90rmzQmyaXCE2BB0yruG1Mc7n88sv_7mTriQoq6hU3bvEwu0Hz8YkIGb5sGV1a2367SBvyvumRccCM7AdRd7UqguAodzsUZwxOl4mWtYMJlH47JCd56mV83aOuyEmLsOAiqG-L_H8JRZ9AcmASGn-zWeF0rydZPKZA9feo9EneSNUa9e5-SbEAz_JHRo_E6Mz3ivW99u7wvL44XdH7i9cFJTZVrbz8CTXfqEEJVD4OqZM0yLUQVknyycASTwSpoykClA-f4xTsAT44u7VKwlysUGiBHYyt11BELf4kBPiI-VJt80eMsKFDiYyh85YeTeK_JFAdsKk_WlYRc9LckITZj52wjGlJRj2aph2iDzB23arwa0BOv0Vyb9qA-jE0f6YkwWsczMNZOJJyU4-9139KtIl3gevHJrqhFG9w", "width": 4000}], "place_id": "ChIJMTv3Xz9GQg0R2khKgT_hHZM", "plus_code": {"compound_code": "CJ4P+52 Torres de la Alameda, Spain", "global_code": "8CGRCJ4P+52"}, "reference": "ChIJMTv3Xz9GQg0R2khKgT_hHZM", "scope": "GOOGLE", "types": ["police", "point_of_interest", "establishment"], "vicinity": "Paseo de los Pozos, S/N, Torres de la Alameda"}, {"business_status": "OPERATIONAL", "geometry": {"location": {"lat": 40.3364407, "lng": -3.385701699999999}, "viewport": {"northeast": {"lat": 40.3378073302915, "lng": -3.384316919708498}, "southwest": {"lat": 40.3351093697085, "lng": -3.387014880291502}}}, "icon": "https://maps.gstatic.com/mapfiles/place_api/icons/v1/png_71/civic_building-71.png", "icon_background_color": "#7B9EB0", "icon_mask_base_uri": "https://maps.gstatic.com/mapfiles/place_api/icons/v2/civic-bldg_pinlet", "international_phone_number": "+34 629 18 15 39", "name": "POLICÍA LOCAL CAMPO REAL.", "place_id": "ChIJB0VcBNVAQg0RhoS01t8FOyo", "plus_code": {"compound_code": "8JP7+HP Campo Real, Spain", "global_code": "8CGR8JP7+HP"}, "reference": "ChIJB0VcBNVAQg0RhoS01t8FOyo", "scope": "GOOGLE", "types": ["police", "point_of_interest", "establishment"], "vicinity": "Calle Pedro Collado Belinchón, 5, 7, Campo Real"}, {"business_status": "OPERATIONAL", "geometry": {"location": {"lat": 40.3400034, "lng": -3.3753765}, "viewport": {"northeast": {"lat": 40.34137923029149, "lng": -3.374122069708498}, "southwest": {"lat": 40.33868126970849, "lng": -3.376820030291502}}}, "icon": "https://maps.gstatic.com/mapfiles/place_api/icons/v1/png_71/civic_building-71.png", "icon_background_color": "#7B9EB0", "icon_mask_base_uri": "https://maps.gstatic.com/mapfiles/place_api/icons/v2/civic-bldg_pinlet", "international_phone_number": "+34 918 73 31 65", "name": "Guardia Civil de Campo Real", "opening_hours": {"open_now": false}, "photos": [{"height": 2048, "html_attributions": ["<a href=\"https://maps.google.com/maps/contrib/112510396025662518838\">Jose Jalai</a>"], "photo_reference": "AWn5SU4a6wROxm0c4ebHBv0-mCKLLIwDKZOwBCUGB-DnLgqB6jD6HJ2DBsimeAk9zi5aLzjOklwcHcoZdGwMbPRkEaWqbnWqIwXa0b__BmKO7v-MlR1m8hcNgPUtmEhYyiPhFZMScvRyrwPA75paKnjZB0-d8dmuwtuU9BRojdcdrnooz0RGeVLCjU60TEe_JaEKtM6UrSnVBrKiQWguCGyffV3vIzycKOmBmGQmT2zCXpaMk60sYgt3KY0wWsbfWGb-oHBZBvbs-SYNVt2casXt-vtLkcTdP8uy3bcjCjEt1JsOYToOoO5Vyz7KVZnHqw6CNLQCDfuSrATC6CzZnWVTePOTNeUvgv0XBZ4-XpyBKEpk1lk1RiqvypBLCFUi2i73Dc3prdZUtgzukBbvBnzAn9ZBuv8lu1LT11nkghKhJQLA6Kcq5XbVghd7g-YQd9OEt-49Hhv2x3RbqLfbKhB2EeqD87RUV46t34DERFdOux3lNQoy5WQCGC6MGCoad_w60DFn42gH4nyMhGKsrMwPGkLebWNskJFrTxo9oHoAymhP-Va-CI6HwRScT5cuWbJVpFsCXT81__QGg4unLGEXm-nkL4G-kA-a0pafNtT2H_LylFLjKQhj61Jn5w7WWws9", "width": 2029}], "place_id": "ChIJ_xXBuyxBQg0RcRVwqUkCW4U", "plus_code": {"compound_code": "8JRF+2R Campo Real, Spain", "global_code": "8CGR8JRF+2R"}, "rating": 4.6, "reference": "ChIJ_xXBuyxBQg0RcRVwqUkCW4U", "scope": "GOOGLE", "types": ["police", "point_of_interest", "establishment"], "user_ratings_total": 9, "vicinity": "Paseo de Pozuelo, 2, Campo Real"}, {"business_status": "OPERATIONAL", "geometry": {"location": {"lat": 40.3854202, "lng": -3.4138745}, "viewport": {"northeast": {"lat": 40.38679148029149, "lng": -3.412393269708498}, "southwest": {"lat": 40.38409351970849, "lng": -3.415091230291502}}}, "icon": "https://maps.gstatic.com/mapfiles/place_api/icons/v1/png_71/civic_building-71.png", "icon_background_color": "#7B9EB0", "icon_mask_base_uri": "https://maps.gstatic.com/mapfiles/place_api/icons/v2/civic-bldg_pinlet", "international_phone_number": "+34 918 85 16 75", "name": "Policia Local Loeches", "opening_hours": {"open_now": false}, "photos": [{"height": 1463, "html_attributions": ["<a href=\"https://maps.google.com/maps/contrib/103644858766260406648\">Un opinante delirante</a>"], "photo_reference": "AWn5SU7CjDH0aVGRT9mVJajE8l8HYzPsYoxPPEzT9SEKgul--QWyybMlUPAGyQ-H7IYIeaNjJZI2Fkcz2SDTVqPEoesBCvcaX73__HJuxZPnb-91a8ZAHSnbYXx83r9BQrieQuxqAhbkCb9AMpm72sMTrbMVZtrjGZsSDYbuNlr0y1AqebK_-X-ysCC0SxUK17QqnicCt-EBw_a3RFJ0hXRtQEkV1bvVQXj2_yL36RoxeKlxai31BDrLmPMCBo1-1qxXoKxE5-nsKClh6SEJ72Ht5POI8a4rFB9DH41zf-7SwneNAeGYQu2zfqLzLp2cS3jLKOpd7wKOfmtlWpA20gG9QLDSMLphpbL3hUB7cp_gPhdin7MJ-CujaE8VJf3liF9jlbjntYOnoKWhOrhd-SK1YFEjEwXTKWJgFlHKeyFkSpm4-2jMgAaqsVPoaQ4iqd3UmeL2jdKrSGEt4VcnCvvxPNAbBGIXWOZ43nRxnbl8xcd66fGKPHIbs51_tc7Bb7sCeRFogtFxw-VJ866qlvHqWimS_7MnlwN0E5-TRrpBzCy79M4uunkjrsi_gfkeyb-2hae7LJltiYejTr7bTlAmOXXf-e2PfDW6rqp4OfaC4peRYkKKdkakwYjqhJN9csnMcJboFw", "width": 2674}], "place_id": "ChIJffOhhV1HQg0RBc1rKKe76Gk", "plus_code": {"compound_code": "9HPP+5F Loeches, Spain", "global_code": "8CGR9HPP+5F"}, "reference": "ChIJffOhhV1HQg0RBc1rKKe76Gk", "scope": "GOOGLE", "types": ["police", "point_of_interest", "establishment"], "vicinity": "Calle Molino, 29, Loeches"}, {"business_status": "OPERATIONAL", "geometry": {"location": {"lat": 40.4145941, "lng": -3.3804846}, "viewport": {"northeast": {"lat": 40.4159826302915, "lng": -3.379267619708498}, "southwest": {"lat": 40.4132846697085, "lng": -3.381965580291502}}}, "icon": "https://maps.gstatic.com/mapfiles/place_api/icons/v1/png_71/civic_building-71.png", "icon_background_color": "#7B9EB0", "icon_mask_base_uri": "https://maps.gstatic.com/mapfiles/place_api/icons/v2/civic-bldg_pinlet", "name": "ALIBERINOX", "place_id": "ChIJsR5L7xVHQg0RzPYKjp7wkPY", "plus_code": {"compound_code": "CJ79+RR Torres de la Alameda, Spain", "global_code": "8CGRCJ79+RR"}, "reference": "ChIJsR5L7xVHQg0RzPYKjp7wkPY", "scope": "GOOGLE", "types": ["police", "point_of_interest", "establishment"], "vicinity": "Calle Berlín, 12, Torres de la Alameda"}, {"business_status": "OPERATIONAL", "geometry": {"location": {"lat": 40.37174399999999, "lng": -3.480366}, "viewport": {"northeast": {"lat": 40.37316858029149, "lng": -3.479035269708498}, "southwest": {"lat": 40.37047061970849, "lng": -3.481733230291502}}}, "icon": "https://maps.gstatic.com/mapfiles/place_api/icons/v1/png_71/civic_building-71.png", "icon_background_color": "#7B9EB0", "icon_mask_base_uri": "https://maps.gstatic.com/mapfiles/place_api/icons/v2/civic-bldg_pinlet", "international_phone_number": "+34 916 70 53 01", "name": "POLICÍA LOCAL VELILLA DE SAN ANTONIO.", "opening_hours": {"open_now": true}, "photos": [{"height": 901, "html_attributions": ["<a href=\"https://maps.google.com/maps/contrib/114590364265142436796\">Policía Local Velilla de San Antonio</a>"], "photo_reference": "AWn5SU6whgMl7bjMsrS8sUBJkXJJhjosaDzwyiFr7bQoyJDz4_cmJSgXKXWdDJHTQIYtj0IjfLqZNiEgCDM4GABToITbXR8BjOO-A-lzqBbD_BUfh4pXjnwSU3dy0y4p1Wr-da2-fJjZ1qw227ntS42C8bs46gh-kW8lxDaKvB9r5hKESclbgpFycM1K-vpojN0Qq3bG0e2TqAOyd8ylLhaiGUsaMuP01-kj6MPHy-AZ7y5e4DhduXpB-q7d0-edGFC9pZr_TLas9Qb-KXBuwb9AjbJ_Yn1eTiXmP6lkhCo7cJ3KDtPXZZx14tFl4RaWWwREqTEjQzxq", "width": 1600}], "place_id": "ChIJ80mib305Qg0RiBF7fB5okeA", "plus_code": {"compound_code": "9GC9+MV Velilla de San Antonio, Spain", "global_code": "8CGR9GC9+MV"}, "reference": "ChIJ80mib305Qg0RiBF7fB5okeA", "scope": "GOOGLE", "types": ["police", "point_of_interest", "establishment"], "vicinity": "Avenida de la Ilustración, 110, Velilla de San Antonio"}, {"business_status": "OPERATIONAL", "geometry": {"location": {"lat": 40.43665370000001, "lng": -3.366793099999999}, "viewport": {"northeast": {"lat": 40.4378262802915, "lng": -3.365456019708498}, "southwest": {"lat": 40.4351283197085, "lng": -3.368153980291502}}}, "icon": "https://maps.gstatic.com/mapfiles/place_api/icons/v1/png_71/civic_building-71.png", "icon_background_color": "#7B9EB0", "icon_mask_base_uri": "https://maps.gstatic.com/mapfiles/place_api/icons/v2/civic-bldg_pinlet", "international_phone_number": "+34 910 71 84 41", "name": "Guardia Civil de Villalbilla", "opening_hours": {"open_now": false}, "photos": [{"height": 1908, "html_attributions": ["<a href=\"https://maps.google.com/maps/contrib/110277635087755758775\">Juanma Roblas Ayllon</a>"], "photo_reference": "AWn5SU4a-IG6pbMWi5gl3bMIClBhDFhEK8qKsRhfAEXtO5WOph4-yo-9G2sLfVsNL2BMTe0R_taDyiVqc3NGQJtJ3i4kvbIiqWeYxsWYyJgpqTFMeQqx9MQVzCErJyAJAPYdl2l7GuzmfOjBtg24HHtzbn66Ez90XyNpW6tqnXDozi2gmGSM7mEn7u6bsLkldMNj1JUPJpar-T_lKhCSoNqF85YWHZXKox_SabB1gHcONoxTBxTVfTa90hiT4Dj_kqFfqiPdhMGHnkxAs6qmNHymRM7s3swrgS4e4t7Fm0lW2FbbsI3ix5OSODfwB0nULXpo6s8kJzpQcp_oZWx18LCT8SBe47OZSKGjBVbSnOx8t6TCVL02jV-e5LxQsWzHY6lGgyigjCiOyYrkoxVyT_gVoSWH9hNGgon3UjM6-z8IVVzUiRJEiYtrR2CMfG1E04iAiQK2EWhAjSKvvvq5huoR1gMSKwlVNIk7G8aD2iLluoDqAe7d9WxfBHJOOQaqH2epFaA3UM-wPgQFEykXUS6G7y_j3tYweZwfgWGLzJ7fBtRgq73jCS8wv-Ovixta3TXvfxFZv5VZr9fKrGYMWtoAtF7P_cYf16nVbV1v9VnJUVLHF7KPVMJ3QeI1Hdwa-VTq6VS2jA", "width": 4032}], "place_id": "ChIJQw2paI9JQg0RE2W1kRgAUwM", "plus_code": {"compound_code": "CJPM+M7 Villalbilla, Spain", "global_code": "8CGRCJPM+M7"}, "rating": 4.3, "reference": "ChIJQw2paI9JQg0RE2W1kRgAUwM", "scope": "GOOGLE", "types": ["police", "point_of_interest", "establishment"], "user_ratings_total": 6, "vicinity": "Calle Gabriel Miró, 4, Villalbilla"}]