[{"business_status": "OPERATIONAL", "geometry": {"location": {"lat": 40.3364662, "lng": -3.385765}, "viewport": {"northeast": {"lat": 40.3377913802915, "lng": -3.384481269708498}, "southwest": {"lat": 40.3350934197085, "lng": -3.387179230291502}}}, "icon": "https://maps.gstatic.com/mapfiles/place_api/icons/v1/png_71/generic_business-71.png", "icon_background_color": "#7B9EB0", "icon_mask_base_uri": "https://maps.gstatic.com/mapfiles/place_api/icons/v2/generic_pinlet", "international_phone_number": "+34 609 04 17 04", "name": "PROTECCION CIVIL CAMPO REAL", "opening_hours": {"open_now": true}, "photos": [{"height": 1472, "html_attributions": ["<a href=\"https://maps.google.com/maps/contrib/110375641004276402383\">Ambulancia SUREM</a>"], "photo_reference": "AWn5SU7cok7u4AOZPiNtINpmFi5bTe5flGtARKQ1B7S3daVr-ITSueh0z8L5zu_wdJsHLL1v27ePtstVgNN3ra6Q4-Fh6OjFWAmwB9GXEQfe-FcFbT-hzpgWnHKP53W8a7RAn7teAycrmf8R_7AganGwzBe72ZbyqTxSYymRvYvk9EO4cFE0RUL11omsxiSqaqdcy9bZt7AI1QHlTwMJ9q8FvoyOfC3270IEzSlEm17G9SAYxn4axcx9YZ_ycvLjLGy9pYNb5THmXHKDRXVLD84rM70vq8WL5b4JVpdFZNo8ie5ZnW0SjLM7yY3g9rbmAzAh3ve1wtTMPX9p0rJxfVGAofQqRzP8tX3fEJCCVEedk62d4vsL73jF7tBQrHGb8MhPnr93Dqqo03g_84Eyyq7AmvsZt8tzd8NYf6fA5c7w31rqnM8YW4u0b-M3LLa72pMIltxSOrVAPpEg21zC5EsKphsuyUhf-D0wZrkN4ihtU4d4jCP5b4NLmhurXFiri2W5gatTH8eH4PwVKVX2dWr4kn-TDt9o_FkjmBAtR9210iGRD-mIp5n_HgdhqDBFwF_bQ06GNVEBhvhyYL3VmvOSI-1MxrgnKp_AR7cI81_pFI2VnHrMb8GXLnff33-ONN83mU-E7Cyi", "width": 3264}], "place_id": "ChIJecUK3NNAQg0REu0WCS2GA-s", "plus_code": {"compound_code": "8JP7+HM Campo Real, Spain", "global_code": "8CGR8JP7+HM"}, "rating": 5, "reference": "ChIJecUK3NNAQg0REu0WCS2GA-s", "scope": "GOOGLE", "types": ["doctor", "health", "point_of_interest", "establishment"], "user_ratings_total": 1, "vicinity": "Calle Nuestra Señora de los Remedios, 6, Campo Real"}, {"business_status": "OPERATIONAL", "geometry": {"location": {"lat": 40.3819547, "lng": -3.4100923}, "viewport": {"northeast": {"lat": 40.3832954802915, "lng": -3.408758919708498}, "southwest": {"lat": 40.3805975197085, "lng": -3.411456880291502}}}, "icon": "https://maps.gstatic.com/mapfiles/place_api/icons/v1/png_71/generic_business-71.png", "icon_background_color": "#7B9EB0", "icon_mask_base_uri": "https://maps.gstatic.com/mapfiles/place_api/icons/v2/generic_pinlet", "international_phone_number": "+34 918 86 72 12", "name": "Clínica Dental Centro Médico Dr. Yagüe", "opening_hours": {"open_now": false}, "photos": [{"height": 547, "html_attributions": ["<a href=\"https://maps.google.com/maps/contrib/105111615579264515524\">Clínica Dental Centro Médico Dr. Yagüe</a>"], "photo_reference": "AWn5SU6908tfZk-9YSt1C08sX_SdefboXt9lKzajcwxdbTCugG7UimPXUf5PkcivzHIIDf6Sp6d5Ez8-LrECtrnni_TSYtLCcqMWAwNcpGwTcmwJ9mfsXp5mNEPdNmo11KQ45i6tPZyzDqalxjW5qSVisx0lGAtl7nWkeS48G_OPVBvQX99aTfIGJJaNIQp7vgQ9fLw5e5RdP8RM8ibI27ziE_hi2kaVMUM6GRkXf1SwjhDAmCK3mVeZdXZz4ysGTUAWWk44Jd-_sk7JseIfNlBTYb68RZjOKJg_GBEbVMU3471HyyCnWEOQVC_o4NOxqo-zJkolQCnX", "width": 2048}], "place_id": "ChIJmWJiuoJHQg0R8BoYPXQRLTw", "plus_code": {"compound_code": "9HJQ+QX Loeches, Spain", "global_code": "8CGR9HJQ+QX"}, "rating": 4.2, "reference": "ChIJmWJiuoJHQg0R8BoYPXQRLTw", "scope": "GOOGLE", "types": ["dentist", "doctor", "health", "point_of_interest", "establishment"], "user_ratings_total": 10, "vicinity": "Calle Jesús y María, 9, Loeches"}, {"business_status": "OPERATIONAL", "geometry": {"location": {"lat": 40.38254559999999, "lng": -3.4108713}, "viewport": {"northeast": {"lat": 40.3838235802915, "lng": -3.409559069708498}, "southwest": {"lat": 40.3811256197085, "lng": -3.412257030291502}}}, "icon": "https://maps.gstatic.com/mapfiles/place_api/icons/v1/png_71/generic_business-71.png", "icon_background_color": "#7B9EB0", "icon_mask_base_uri": "https://maps.gstatic.com/mapfiles/place_api/icons/v2/generic_pinlet", "name": "Centro Salud", "opening_hours": {"open_now": false}, "place_id": "ChIJIx_-6oJHQg0R10Cgl4QrSu0", "plus_code": {"compound_code": "9HMQ+2M Loeches, Spain", "global_code": "8CGR9HMQ+2M"}, "rating": 3.3, "reference": "ChIJIx_-6oJHQg0R10Cgl4QrSu0", "scope": "GOOGLE", "types": ["doctor", "health", "point_of_interest", "establishment"], "user_ratings_total": 3, "vicinity": "Calle Arganda, 20, Loeches"}, {"business_status": "OPERATIONAL", "geometry": {"location": {"lat": 40.30298200000001, "lng": -3.4407032}, "viewport": {"northeast": {"lat": 40.3042954802915, "lng": -3.439324969708498}, "southwest": {"lat": 40.3015975197085, "lng": -3.442022930291502}}}, "icon": "https://maps.gstatic.com/mapfiles/place_api/icons/v1/png_71/generic_business-71.png", "icon_background_color": "#7B9EB0", "icon_mask_base_uri": "https://maps.gstatic.com/mapfiles/place_api/icons/v2/generic_pinlet", "international_phone_number": "+34 910 40 27 28", "name": "SmileLab Laboratorio Protesis Dental", "opening_hours": {"open_now": false}, "photos": [{"height": 899, "html_attributions": ["<a href=\"https://maps.google.com/maps/contrib/113951330866069115853\">Chencho Fernandez</a>"], "photo_reference": "AWn5SU5Wqf-s6myGDpiCOw6OXTMv1ITaS6MUCm0u601tlzpJcBhkaY1WwDGtasEw3ILIyYW0j4UZYIWkTypBW5gRydldpeY3EbMhcgCa7pgrz0lYQ9wr38ZE15rAlARYubVZHfEWm0gL_xFzzqvua5HcyZYltAfWrTK2I5pVrsCqoGPaKFDHAHBcqWnsgiTfuQ8QnTqUKEpMv1sGpDiqDtIQ4FYEuZ9-QTL7guKpwPDe7_VEPlGeEhbXOhMmKUI77v5h0-mVjjLkohxi3aAu5JQdIF7-V7cYT-2YkTcWJCA1O51fqcuPdVvld9pQ4T2dSCXcBSC1p5itwtrqWFtrngKjWAY54PJ3gID9gfieNvlVbJuY_uAkrhIU8NtU5WhzhH0w-1_5dR5TVotQqPFzjR3t544TbXEu99GGZqyjMFc4b6dbB-F7umhD85gx99xg7E5z5wwu-w03WUdGvYSLnQlfcK9_CEWYgJXnd2W1QKeHpQym8ZegsNfYrYBKQA-L73TzivsTBdnpbk-GYdL4WK6zHpLHgQ4woGKSEzTBZx-Rrrg9GKWtvlXsP84Sq4WH9_SubHOG7Mw_Z77XQg4v215-1h2s3ay1cM8iaNaeASGqfeRNDT43rMvOjwhjo-taiN5RypWwNQ", "width": 1599}], "place_id": "ChIJO0q9Qgs_Qg0RHX7TeCpJNA4", "plus_code": {"compound_code": "8H35+5P Arganda del Rey, Spain", "global_code": "8CGR8H35+5P"}, "rating": 5, "reference": "ChIJO0q9Qgs_Qg0RHX7TeCpJNA4", "scope": "GOOGLE", "types": ["doctor", "health", "point_of_interest", "establishment"], "user_ratings_total": 6, "vicinity": "Calle Ronda de Watres, 30, Arganda del Rey"}, {"business_status": "OPERATIONAL", "geometry": {"location": {"lat": 40.30166860000001, "lng": -3.4410399}, "viewport": {"northeast": {"lat": 40.3030849302915, "lng": -3.439790769708498}, "southwest": {"lat": 40.30038696970851, "lng": -3.442488730291502}}}, "icon": "https://maps.gstatic.com/mapfiles/place_api/icons/v1/png_71/shopping-71.png", "icon_background_color": "#4B96F3", "icon_mask_base_uri": "https://maps.gstatic.com/mapfiles/place_api/icons/v2/shopping_pinlet", "international_phone_number": "+34 918 71 69 43", "name": "Óptica y Audiología OPTILENT Arganda", "opening_hours": {"open_now": false}, "photos": [{"height": 4640, "html_attributions": ["<a href=\"https://maps.google.com/maps/contrib/112331564266295262116\">Óptica y Audiología OPTILENT Arganda</a>"], "photo_reference": "AWn5SU5OpifyLvB_sIMq51tJW2jgB-Ww2XxoZy67fQ_G8Q24rgyr952fjmsPvVXZdmyZlj9kR49aWAvTuf_S5lYPOtGJvBP9suovAszb6ajeiLiacznmaeVcagtXuKY0KCYqH-wz_6DUyk8IQUiF-8axn9RODhCFzCrh9tnI_5P3N5ILDfbRovz38GdOn92N2Hkv5tcxpOLrezW1pg-n9GCIemQ02gJHXoO5d2LhLrOrsD1_K0WOeZaHHb6vWp8kraTJ5o1PVeEkexpUOfb5Z15s73h2fVAjI4HRH1jSD1B7Yfosxyks5FxmnkcZasquXQXyu5e1jXIEths", "width": 3480}], "place_id": "ChIJq957ByE_Qg0R0R1V5G7UFog", "plus_code": {"compound_code": "8H25+MH Arganda del Rey, Spain", "global_code": "8CGR8H25+MH"}, "rating": 4.9, "reference": "ChIJq957ByE_Qg0R0R1V5G7UFog", "scope": "GOOGLE", "types": ["store", "doctor", "health", "point_of_interest", "establishment"], "user_ratings_total": 22, "vicinity": "Calle Carretera de Loeches, 6, Arganda del Rey"}, {"business_status": "OPERATIONAL", "geometry": {"location": {"lat": 40.30065889999999, "lng": -3.43944}, "viewport": {"northeast": {"lat": 40.3019918802915, "lng": -3.438097069708498}, "southwest": {"lat": 40.2992939197085, "lng": -3.440795030291502}}}, "icon": "https://maps.gstatic.com/mapfiles/place_api/icons/v1/png_71/generic_business-71.png", "icon_background_color": "#7B9EB0", "icon_mask_base_uri": "https://maps.gstatic.com/mapfiles/place_api/icons/v2/generic_pinlet", "international_phone_number": "+34 918 70 37 65", "name": "Clínica Podología CM Salud", "opening_hours": {"open_now": false}, "photos": [{"height": 4000, "html_attributions": ["<a href=\"https://maps.google.com/maps/contrib/111217664832747079451\">Clínica Podología CM Salud</a>"], "photo_reference": "AWn5SU7_Tjn0z-f2ngAVhbWoMp4Fmpb5LfGjafF0jryj8qnV-dnhIDtyOOfsaDJXNkE50I9BL8fSfH8OhUBKJHdM5Nk5wzBg3CPGG-KHbwj0sPqaCgDNho4RWJdanpaJ7UnIMpsDTUYb9801pzvoGbzLaa8M4hQcaOZSb4Yy-YwhStaw3km33tqLfCA7Qb3ilKyo_8QrmgfOWr3JjIVp_JnI2G_9xOrP3HWSVvj35gZmrvQsTx2YhneJcdCW-e34Dt2om8niQUAKD-_Mh1F23i38_CYxwEB7VAlQYaZevVtXiJtzu148F0qawEzAFsYrcsDLqh02FZs1r2g", "width": 6000}], "place_id": "ChIJw3rvL3U_Qg0RKAOzKG1jm1M", "plus_code": {"compound_code": "8H26+76 Arganda del Rey, Spain", "global_code": "8CGR8H26+76"}, "rating": 4.9, "reference": "ChIJw3rvL3U_Qg0RKAOzKG1jm1M", "scope": "GOOGLE", "types": ["physiotherapist", "doctor", "health", "point_of_interest", "establishment"], "user_ratings_total": 196, "vicinity": "Calle San Juan, 8, Arganda del Rey"}, {"business_status": "OPERATIONAL", "geometry": {"location": {"lat": 40.2998262, "lng": -3.4380434}, "viewport": {"northeast": {"lat": 40.3011846302915, "lng": -3.436664469708498}, "southwest": {"lat": 40.2984866697085, "lng": -3.439362430291502}}}, "icon": "https://maps.gstatic.com/mapfiles/place_api/icons/v1/png_71/generic_business-71.png", "icon_background_color": "#7B9EB0", "icon_mask_base_uri": "https://maps.gstatic.com/mapfiles/place_api/icons/v2/generic_pinlet", "international_phone_number": "+34 657 90 19 61", "name": "Argapie", "opening_hours": {"open_now": false}, "photos": [{"height": 1152, "html_attributions": ["<a href=\"https://maps.google.com/maps/contrib/116791088168195770999\">Argapie</a>"], "photo_reference": "AWn5SU4b5-zVqrAoNm8vcg985elJqducYuhxipRjmoVGuWBMqFdkuQ2pPwdyVu1hObDQQeoGpOLLaarPuTzvd54sr9BrW0AehrWdO4Km3EPirKD43AEOlwHv7fN9h-LeRRLtGTh7kW--TFsU6ayo1TI-oB1kj5OxPmRYRUCm9w0xMXWjE3HCB1YtRISKDmc_vmZK-CYnQOhrD7-Xtv629fzcOzyi_IWQQKxUTGyketgk1WSNHMDT_0wstml2t-QMFtM4Y5DjzeUa9QoEuuZf-XFbNFRdeS3oP65mhBpDeytUM4hlFOeWMEE759C21kMn61Ol99zpPJVUKqg", "width": 2048}], "place_id": "ChIJQT9LbHU_Qg0RYmuZW_2A4Es", "plus_code": {"compound_code": "7HX6+WQ Arganda del Rey, Spain", "global_code": "8CGR7HX6+WQ"}, "rating": 5, "reference": "ChIJQT9LbHU_Qg0RYmuZW_2A4Es", "scope": "GOOGLE", "types": ["doctor", "health", "point_of_interest", "establishment"], "user_ratings_total": 41, "vicinity": "Calle Juan XXIII, 12, Arganda del Rey"}, {"business_status": "OPERATIONAL", "geometry": {"location": {"lat": 40.30175089999999, "lng": -3.4429506}, "viewport": {"northeast": {"lat": 40.3032101302915, "lng": -3.441499769708498}, "southwest": {"lat": 40.3005121697085, "lng": -3.444197730291501}}}, "icon": "https://maps.gstatic.com/mapfiles/place_api/icons/v1/png_71/generic_business-71.png", "icon_background_color": "#7B9EB0", "icon_mask_base_uri": "https://maps.gstatic.com/mapfiles/place_api/icons/v2/generic_pinlet", "international_phone_number": "+34 918 75 84 00", "name": "Clinica Dental Dentalíus Arganda", "opening_hours": {"open_now": false}, "photos": [{"height": 400, "html_attributions": ["<a href=\"https://maps.google.com/maps/contrib/115105962386614550468\">Clinica Dental Dentalíus Arganda</a>"], "photo_reference": "AWn5SU4sOr41EzUkh63vtMiKSDYP_S_1pUUQgYxAwSenmQWOGRJRNj7NfHKoenFfJc8_rK3uOXv-vDi41kMXcpXbfH2j-G9oYs0dGvaIPYADFGxnaURa5MTzISWtKIqq-x4xJM9So5hD4SLbL6AtMFnvm2DYdNBE3ukTo_VTMoNloeQuPc-r9xK_QhR2Hni9Ig_OiGVi963822e-bsktp2U0rvR7xN75MX6MJgJCDR6qj4ac9sBdfvQmLpSCOAqCVIeegBrrkqL7cbhLjg8VqNwsEfgSIClhMYABBE6tnFg69FxFFaR3BDHnX2s1UCeLCw4pRLlVAwJCjik", "width": 600}], "place_id": "ChIJF-ACsAs_Qg0RB9zP_cdEfNU", "plus_code": {"compound_code": "8H24+PR Arganda del Rey, Spain", "global_code": "8CGR8H24+PR"}, "rating": 4, "reference": "ChIJF-ACsAs_Qg0RB9zP_cdEfNU", "scope": "GOOGLE", "types": ["dentist", "doctor", "health", "point_of_interest", "establishment"], "user_ratings_total": 12, "vicinity": "Calle María Zambrano, 6, Arganda del Rey"}, {"business_status": "OPERATIONAL", "geometry": {"location": {"lat": 40.30164319999999, "lng": -3.443292599999999}, "viewport": {"northeast": {"lat": 40.3028912302915, "lng": -3.441998319708498}, "southwest": {"lat": 40.30019326970851, "lng": -3.444696280291502}}}, "icon": "https://maps.gstatic.com/mapfiles/place_api/icons/v1/png_71/generic_business-71.png", "icon_background_color": "#7B9EB0", "icon_mask_base_uri": "https://maps.gstatic.com/mapfiles/place_api/icons/v2/generic_pinlet", "international_phone_number": "+34 911 99 32 42", "name": "Clínica Dental Acuadental", "opening_hours": {"open_now": false}, "photos": [{"height": 2000, "html_attributions": ["<a href=\"https://maps.google.com/maps/contrib/116345629347497107004\">Clínica Dental Acuadental</a>"], "photo_reference": "AWn5SU4jdvbaLlnLGupjq55LGONzK0c9lSHSD6LDd_UHqF4RPaffjzoGvR7ZaZJJ7UU9ZpXoApZTJw_ec-TcSE2QLov2oIgHUCiFTX18FFRMD9CkrUim84NzHe6hQro0lg0T5Dfs0cuw6GA0V4Hp0uaNHpAJswpPV7eodeh9WUqKhij6slWEj8VmMeM_JQ3kWPXPL030ljGXNRcShZmQ_7gYAjcwXB7WLhL52ZIiE0pMxrjs8dIn8rkXCrj8sDwNTOSKrrPhFnNK3iZp050D6dFGXwWv-1HnM8PuLzn6OKJb_giBIPJ11y5JwIEBx615o8aqwU96_uGPxxc", "width": 2000}], "place_id": "ChIJl-pFtws_Qg0R-mYecy4L7QI", "plus_code": {"compound_code": "8H24+MM Arganda del Rey, Spain", "global_code": "8CGR8H24+MM"}, "rating": 4.6, "reference": "ChIJl-pFtws_Qg0R-mYecy4L7QI", "scope": "GOOGLE", "types": ["dentist", "doctor", "health", "point_of_interest", "establishment"], "user_ratings_total": 67, "vicinity": "Calle María Zayas, 2, Local 17, Arganda del Rey"}, {"business_status": "OPERATIONAL", "geometry": {"location": {"lat": 40.3014915, "lng": -3.4432489}, "viewport": {"northeast": {"lat": 40.3028208802915, "lng": -3.441965269708498}, "southwest": {"lat": 40.3001229197085, "lng": -3.444663230291502}}}, "icon": "https://maps.gstatic.com/mapfiles/place_api/icons/v1/png_71/generic_business-71.png", "icon_background_color": "#7B9EB0", "icon_mask_base_uri": "https://maps.gstatic.com/mapfiles/place_api/icons/v2/generic_pinlet", "international_phone_number": "+34 918 71 41 47", "name": "GAES Arganda Del Rey", "opening_hours": {"open_now": false}, "photos": [{"height": 270, "html_attributions": ["<a href=\"https://maps.google.com/maps/contrib/111501570484183302650\">GAES Arganda Del Rey</a>"], "photo_reference": "AWn5SU4rpAOjnjc2rTws4nq408LinCHpTP3UxEcdqXbXGldEUn8A4YuL95YCtwBd1YfJbcnO_DQ0zxz6u53e0gEeM_rUSOytllufsN-XCLPd01KexBuVR6FE4Qd3WgvYL6zSbBmdN1AjJeKWnSW5Gac1WcaUXBePxkpij8wetofqXXhjZQegPg5HrYIl0BJoj2iuuZ27RIIS_SEjDJaIL4jBjVTfbt5lrwu1k7LHNX7MrCd_Av-UIIHeo1oDX74LHMZ7HH1fxK7tpejxoBEDm-xctUMAmm9Fwfk1aEmmG6mixlv7uls-w01K8WVFF52AFwgKF5UPgA0EpNY", "width": 480}], "place_id": "ChIJv-U5yQs_Qg0RcUBU0WGulgY", "plus_code": {"compound_code": "8H24+HP Arganda del Rey, Spain", "global_code": "8CGR8H24+HP"}, "rating": 3.8, "reference": "ChIJv-U5yQs_Qg0RcUBU0WGulgY", "scope": "GOOGLE", "types": ["store", "doctor", "health", "point_of_interest", "establishment"], "user_ratings_total": 46, "vicinity": "Avenida del Ejército, 22, Arganda del Rey"}, {"business_status": "OPERATIONAL", "geometry": {"location": {"lat": 40.3013418, "lng": -3.443548099999999}, "viewport": {"northeast": {"lat": 40.30275548029151, "lng": -3.442234769708498}, "southwest": {"lat": 40.30005751970851, "lng": -3.444932730291501}}}, "icon": "https://maps.gstatic.com/mapfiles/place_api/icons/v1/png_71/generic_business-71.png", "icon_background_color": "#7B9EB0", "icon_mask_base_uri": "https://maps.gstatic.com/mapfiles/place_api/icons/v2/generic_pinlet", "international_phone_number": "+34 919 93 21 40", "name": "Clínica dental Caredent Arganda del Rey", "opening_hours": {"open_now": false}, "photos": [{"height": 4024, "html_attributions": ["<a href=\"https://maps.google.com/maps/contrib/109509573473749938753\">Caredent Arganda del Rey</a>"], "photo_reference": "AWn5SU5EvlSUttsGoBoH9Y8dfFdVw0lK41nAJj3O-Q88GugEP5TQGKWcN190oj4W3BebIlTfXX-dYvGBo8-5B64pRROexAK5QAnrDVQOGw-iPq8k3VUj2aL2Jl-PTX0w8-TApro10EHAx7IRNiPCFRrHOEoF1Jd6iunSuiIpV2tE_xSWWyU14P4NJCEVuMDHd7EIVRHi2F_s1I8cNCwDyJ0IDHe96oHw1IbArsYFNpMGojZKc_49ssaXnHvIxa005jwZpIiJvryP30yRlSEKjLJI15Qm831WHxfUVbKDs_QaSAoxULhfnuek8EVTeuRXSupwcCpJ0V3wj4g", "width": 6048}], "place_id": "ChIJp4sHvAs_Qg0R-uwun-UlpWY", "plus_code": {"compound_code": "8H24+GH Arganda del Rey, Spain", "global_code": "8CGR8H24+GH"}, "rating": 4.8, "reference": "ChIJp4sHvAs_Qg0R-uwun-UlpWY", "scope": "GOOGLE", "types": ["dentist", "doctor", "health", "point_of_interest", "establishment"], "user_ratings_total": 264, "vicinity": "Avenida del Ejército, 5, Arganda del Rey"}, {"business_status": "OPERATIONAL", "geometry": {"location": {"lat": 40.3014471, "lng": -3.4447884}, "viewport": {"northeast": {"lat": 40.3028346302915, "lng": -3.443440619708499}, "southwest": {"lat": 40.3001366697085, "lng": -3.446138580291502}}}, "icon": "https://maps.gstatic.com/mapfiles/place_api/icons/v1/png_71/shopping-71.png", "icon_background_color": "#4B96F3", "icon_mask_base_uri": "https://maps.gstatic.com/mapfiles/place_api/icons/v2/shopping_pinlet", "international_phone_number": "+34 918 75 72 22", "name": "óptica Arganda", "opening_hours": {"open_now": false}, "place_id": "ChIJJ369sgs_Qg0Rl2s2sUMiX-A", "plus_code": {"compound_code": "8H24+H3 Arganda del Rey, Spain", "global_code": "8CGR8H24+H3"}, "rating": 4.5, "reference": "ChIJJ369sgs_Qg0Rl2s2sUMiX-A", "scope": "GOOGLE", "types": ["store", "doctor", "health", "point_of_interest", "establishment"], "user_ratings_total": 17, "vicinity": "Avenida del Ejército, 9, Arganda del Rey"}, {"business_status": "OPERATIONAL", "geometry": {"location": {"lat": 40.3079892, "lng": -3.445707}, "viewport": {"northeast": {"lat": 40.30943843029149, "lng": -3.444316369708498}, "southwest": {"lat": 40.3067404697085, "lng": -3.447014330291502}}}, "icon": "https://maps.gstatic.com/mapfiles/place_api/icons/v1/png_71/hospital-71.png", "icon_background_color": "#F88181", "icon_mask_base_uri": "https://maps.gstatic.com/mapfiles/place_api/icons/v2/hospital-H_pinlet", "international_phone_number": "+34 918 75 75 66", "name": "Arganda Medical Center (CMA Group)", "opening_hours": {"open_now": false}, "photos": [{"height": 270, "html_attributions": ["<a href=\"https://maps.google.com/maps/contrib/117551691188271195689\">Policlínico HM Arganda</a>"], "photo_reference": "AWn5SU7BLfy-g-PzkQNMkGnlhskSu8cuEf9AAKMQ_jPsOcO-QCIPqUNBqsPXVejtqAk9v4S7XaHH1Cdk0z-lz5U835CwW1_SdNsWDCHKf2SekvS9M4-A9mzPLmCC0Jxrby1RSTWIpEp7DWzgh14CMe9-I2SymcVsHVKhiDahFm8pO6yMK5BalfhywdnKJr43Ra69p1VH6xNH8sKo3fykj8vq7U0FFXB4FTobMTygyG93SW7GAj3H12rXVSHjGNdveS7sUnSZyUTGUw6LlF6wsP7-ZrrBC19KzwduoNDxRPQ65h8T4EmYslWmTkZLb5FQpz3KNSXdgrwaM_s", "width": 480}], "place_id": "ChIJo6LOGA4_Qg0R2tqLpLCv_ZM", "plus_code": {"compound_code": "8H53+5P Arganda del Rey, Spain", "global_code": "8CGR8H53+5P"}, "rating": 2.6, "reference": "ChIJo6LOGA4_Qg0R2tqLpLCv_ZM", "scope": "GOOGLE", "types": ["hospital", "doctor", "health", "point_of_interest", "establishment"], "user_ratings_total": 266, "vicinity": "Avenida de los Derechos Humanos, 12, Arganda del Rey"}, {"business_status": "OPERATIONAL", "geometry": {"location": {"lat": 40.33784829999999, "lng": -3.380786799999999}, "viewport": {"northeast": {"lat": 40.3391860802915, "lng": -3.379484819708498}, "southwest": {"lat": 40.3364881197085, "lng": -3.382182780291501}}}, "icon": "https://maps.gstatic.com/mapfiles/place_api/icons/v1/png_71/civic_building-71.png", "icon_background_color": "#7B9EB0", "icon_mask_base_uri": "https://maps.gstatic.com/mapfiles/place_api/icons/v2/civic-bldg_pinlet", "international_phone_number": "+34 918 73 31 24", "name": "Health center Campo Real", "opening_hours": {"open_now": false}, "photos": [{"height": 1080, "html_attributions": ["<a href=\"https://maps.google.com/maps/contrib/100438128472881104995\">Marco A. Majada</a>"], "photo_reference": "AWn5SU5wInCXl_Glu45QVRRq1XsOwO-qzInu9gFM5-WTcwdrceCB0D_wgOGQv39RN2GHw8Zu47rG7eNxbWYnGC_f9TVES-f3dmzU8ujiWAwvuRMFqAkrpVVGS1xiSDJYi6wmdgKhvhhMg0XQiCksUsJTQ1PjvX7qnmJlZ1SbBmqDq5uHXdwowLcPw_ztkXZoL5zypg6Y58BHKDURu8tyBS9wqVoY2Flg8-rrpC6TOH7YIDFmFexvEPRt2LLTCeXAquAJ0b3dLLD3m1NpgYIdq6xARYIyFMgqSYbI1VacarvlwX7B6W3ZI1ls52LQw2soS8vb91RNq1qL67NVkLKSKBq7aVpsrGVLE35SP-6fbjIZAHVY2CCsveUBZICMWK4okEnKXNcMIhPi17-J-7cUhhiADOR0JbHyu8u2Hl8xg3ftUWo3LZGcUiKOKXzwcZ-xW6kcTZZNTZV9LaQLKvRKbQ8yBKrq7LV9PNQRu1sVzg2OF1Yhj27YgKClJxF4GJd1bM1KsDHMEgCfHhekR5rOa4IETM_p_k4fkB6bbpO8401aTrggp8efoOxZ64j5nExNwL44_dmebbUmdXsSxSyvquHaHIpSzLTr1ICRwRK7kPOEdKNPZSI9s6IlGdJWyrgNm8RFqyHi0Q", "width": 1920}], "place_id": "ChIJPQUSu9VAQg0RIgYC23ns9t8", "plus_code": {"compound_code": "8JQ9+4M Campo Real, Spain", "global_code": "8CGR8JQ9+4M"}, "rating": 2.5, "reference": "ChIJPQUSu9VAQg0RIgYC23ns9t8", "scope": "GOOGLE", "types": ["doctor", "health", "point_of_interest", "establishment"], "user_ratings_total": 72, "vicinity": "Calle Escuelas, 1, Campo Real"}, {"business_status": "OPERATIONAL", "geometry": {"location": {"lat": 40.3399221, "lng": -3.3775097}, "viewport": {"northeast": {"lat": 40.3413001802915, "lng": -3.376172019708498}, "southwest": {"lat": 40.33860221970851, "lng": -3.378869980291502}}}, "icon": "https://maps.gstatic.com/mapfiles/place_api/icons/v1/png_71/generic_business-71.png", "icon_background_color": "#7B9EB0", "icon_mask_base_uri": "https://maps.gstatic.com/mapfiles/place_api/icons/v2/generic_pinlet", "international_phone_number": "+34 633 81 26 58", "name": "Clínica Dental | Salud Campo Real", "opening_hours": {"open_now": false}, "photos": [{"height": 3413, "html_attributions": ["<a href=\"https://maps.google.com/maps/contrib/109087846770225163438\">Clínica Dental | Salud Campo Real</a>"], "photo_reference": "AWn5SU7A5CaX1gHt0OYVUnFaKlSP57Ml_yxIONOgrzZCC_8nrxKTnLDsGm92yqBBq5ltl4x63cymu6wr0kB9-Hn3WQGKAc0PW_pTdjisd2nPvpYcMmMekf7TMB3QRnSeWk9JxgomvG0qdxu6MSIlupJ_rZhTwnMHiDJJllZ7Bdx9ddKdgP_oZbfkNxfCtt2xoRMUUQsF_fBEqTfRZvVRcRkTt0kGSEhCPzPWhFu5ghSW6RQNcx29CgXRIfkQebQNgieQ0cCRrUnlKbqx8VUmeDjh7LsSMp0elowAxI-YO-Mv6FFUt-qe7UT1IK2pyCgVILoWox3-5jOJrmw", "width": 5112}], "place_id": "ChIJya1YHllBQg0R8gveyKq9KU8", "plus_code": {"compound_code": "8JQC+XX Campo Real, Spain", "global_code": "8CGR8JQC+XX"}, "rating": 5, "reference": "ChIJya1YHllBQg0R8gveyKq9KU8", "scope": "GOOGLE", "types": ["dentist", "doctor", "health", "point_of_interest", "establishment"], "user_ratings_total": 14, "vicinity": "Carretera Villar del Olmo, 32, Campo Real"}, {"business_status": "OPERATIONAL", "geometry": {"location": {"lat": 40.3399221, "lng": -3.3775097}, "viewport": {"northeast": {"lat": 40.3413001802915, "lng": -3.376172019708498}, "southwest": {"lat": 40.33860221970851, "lng": -3.378869980291502}}}, "icon": "https://maps.gstatic.com/mapfiles/place_api/icons/v1/png_71/hospital-71.png", "icon_background_color": "#F88181", "icon_mask_base_uri": "https://maps.gstatic.com/mapfiles/place_api/icons/v2/hospital-H_pinlet", "international_phone_number": "+34 910 99 18 22", "name": "Centro Médico Salud Campo Real", "opening_hours": {"open_now": false}, "photos": [{"height": 315, "html_attributions": ["<a href=\"https://maps.google.com/maps/contrib/116166062576785647168\">Centro Médico Salud Campo Real</a>"], "photo_reference": "AWn5SU7iiL8maCHlVExTkDNWoFyQbWCjVgqLNXYWZ8CH6a1pUvfHbT5IbbdzdPM7Bc74DSodqp7ow6rbq6DaQmqY514BAq1Ba0Vj4FOGOSZXd0lbYKXlCLxb3KJSy8oAVj6XH_AcQbaz22WN7ovBGfnPbcKtwEFYhFqT6eHLkryKgTvZ4ItvWgB5fJdtyd9hGSjZO_AhR6d8ikF9jYs2Ngu5-XBpA_rJtF5j975EoJvB64aZ2ZxQoQYNpJ1sYe1_s6EWrZqLTMBVG2v481P214tkQmlgLpmrI9p8Of2bLITrYKiqoFkSetXY3ypKUhnPAp7zpx6odr1X", "width": 753}], "place_id": "ChIJoY1tesRBQg0RQPQX0QKqbds", "plus_code": {"compound_code": "8JQC+XX Campo Real, Spain", "global_code": "8CGR8JQC+XX"}, "rating": 5, "reference": "ChIJoY1tesRBQg0RQPQX0QKqbds", "scope": "GOOGLE", "types": ["hospital", "doctor", "health", "point_of_interest", "establishment"], "user_ratings_total": 2, "vicinity": "Carretera Villar del Olmo, 32, Campo Real"}, {"business_status": "OPERATIONAL", "geometry": {"location": {"lat": 40.382691, "lng": -3.408785}, "viewport": {"northeast": {"lat": 40.3840485302915, "lng": -3.407438919708499}, "southwest": {"lat": 40.3813505697085, "lng": -3.410136880291502}}}, "icon": "https://maps.gstatic.com/mapfiles/place_api/icons/v1/png_71/generic_business-71.png", "icon_background_color": "#7B9EB0", "icon_mask_base_uri": "https://maps.gstatic.com/mapfiles/place_api/icons/v2/generic_pinlet", "international_phone_number": "+34 910 29 05 69", "name": "Centro Medico Estetico Loeches", "opening_hours": {"open_now": false}, "place_id": "ChIJiR5kN51HQg0RI2VqQLu3TEk", "plus_code": {"compound_code": "9HMR+3F Loeches, Spain", "global_code": "8CGR9HMR+3F"}, "rating": 5, "reference": "ChIJiR5kN51HQg0RI2VqQLu3TEk", "scope": "GOOGLE", "types": ["doctor", "health", "point_of_interest", "establishment"], "user_ratings_total": 9, "vicinity": "Calle Atarre, 6, Loeches"}, {"business_status": "OPERATIONAL", "geometry": {"location": {"lat": 40.30301569999999, "lng": -3.4358218}, "viewport": {"northeast": {"lat": 40.30437533029149, "lng": -3.434541119708498}, "southwest": {"lat": 40.30167736970849, "lng": -3.437239080291502}}}, "icon": "https://maps.gstatic.com/mapfiles/place_api/icons/v1/png_71/generic_business-71.png", "icon_background_color": "#7B9EB0", "icon_mask_base_uri": "https://maps.gstatic.com/mapfiles/place_api/icons/v2/generic_pinlet", "international_phone_number": "+34 918 73 22 49", "name": "Zamora Oro Slup", "place_id": "ChIJt717E3Q_Qg0R0pio98uw3rI", "plus_code": {"compound_code": "8H37+6M Arganda del Rey, Spain", "global_code": "8CGR8H37+6M"}, "reference": "ChIJt717E3Q_Qg0R0pio98uw3rI", "scope": "GOOGLE", "types": ["doctor", "health", "point_of_interest", "establishment"], "vicinity": "Calle Miguel de Unamuno, 34, Arganda del Rey"}, {"business_status": "OPERATIONAL", "geometry": {"location": {"lat": 40.3012008, "lng": -3.442765}, "viewport": {"northeast": {"lat": 40.3026094302915, "lng": -3.441478719708498}, "southwest": {"lat": 40.2999114697085, "lng": -3.444176680291502}}}, "icon": "https://maps.gstatic.com/mapfiles/place_api/icons/v1/png_71/generic_business-71.png", "icon_background_color": "#7B9EB0", "icon_mask_base_uri": "https://maps.gstatic.com/mapfiles/place_api/icons/v2/generic_pinlet", "international_phone_number": "+34 918 71 71 44", "name": "Clínica Dental Maydental Arganda", "opening_hours": {"open_now": false}, "photos": [{"height": 1536, "html_attributions": ["<a href=\"https://maps.google.com/maps/contrib/111068485570684719386\">Clínica Dental Maydental Arganda</a>"], "photo_reference": "AWn5SU5-G3XiJ-8zboj2vIeQuCCNg1YwX6_KTJxXoSQN99lhQMW5uvH4TG1Fdvcak3YdaSFWdeHNdfty3P2h8MIgW1mgO4CKr6UqVW7BkxZDwbt70aUXFJPBEjHSVpXK_FfbYSLf7jGS_Tp3_5z-pAPgQghC0uWFvKVhOx8NsPf5p9Bjkt3ziEEIjt6b8BOpIxg-28lJL5WD8Cm7J_KuMBus4M_7zuNg9ESyepwCRhIXLZWaV_qMqyXUZ1aFiV47eoQ6Bo2EzFH8-iMZcDYGuPafQDiEMDLXXbw2qKPvgnj0XxRRiyM90qq36TpwoZUD1EPWN9bwDEw9", "width": 2048}], "place_id": "ChIJ90N3sws_Qg0RREOJXPuu6iY", "plus_code": {"compound_code": "8H24+FV Arganda del Rey, Spain", "global_code": "8CGR8H24+FV"}, "rating": 4.8, "reference": "ChIJ90N3sws_Qg0RREOJXPuu6iY", "scope": "GOOGLE", "types": ["dentist", "doctor", "health", "point_of_interest", "establishment"], "user_ratings_total": 390, "vicinity": "Avenida del Ejército, 3, Arganda del Rey"}, {"business_status": "OPERATIONAL", "geometry": {"location": {"lat": 40.3091571, "lng": -3.4444675}, "viewport": {"northeast": {"lat": 40.3106124802915, "lng": -3.443121169708498}, "southwest": {"lat": 40.3079145197085, "lng": -3.445819130291502}}}, "icon": "https://maps.gstatic.com/mapfiles/place_api/icons/v1/png_71/generic_business-71.png", "icon_background_color": "#7B9EB0", "icon_mask_base_uri": "https://maps.gstatic.com/mapfiles/place_api/icons/v2/generic_pinlet", "international_phone_number": "+34 699 99 88 52", "name": "Centro De Terapias Naturales Rafael Flores", "place_id": "ChIJnSXrBBI_Qg0R4RvlI0bZyxI", "plus_code": {"compound_code": "8H54+M6 Arganda del Rey, Spain", "global_code": "8CGR8H54+M6"}, "reference": "ChIJnSXrBBI_Qg0R4RvlI0bZyxI", "scope": "GOOGLE", "types": ["doctor", "health", "point_of_interest", "establishment"], "vicinity": "Avenida de la Tolerancia, 10, Arganda del Rey"}]