[{"geometry": {"location": {"lat": 40.313936, "lng": -4.463502699999999}, "viewport": {"northeast": {"lat": 40.31901841782063, "lng": -4.451312205150892}, "southwest": {"lat": 40.30918561140114, "lng": -4.476218068232196}}}, "icon": "https://maps.gstatic.com/mapfiles/place_api/icons/v1/png_71/geocode-71.png", "icon_background_color": "#7B9EB0", "icon_mask_base_uri": "https://maps.gstatic.com/mapfiles/place_api/icons/v2/generic_pinlet", "name": "Entrepinos", "photos": [{"height": 1536, "html_attributions": ["<a href=\"https://maps.google.com/maps/contrib/118192022220238457356\">Eva Garcia</a>"], "photo_reference": "AWn5SU4rdmAoGn1xtYay6GGIbwyCPHHPY2kR5K8EflY8lUG56hEs4ateMq1F_MIVX1thGAYDP4G0a56JqLiOIspMCv5Ym0kKu7qtX5bfwPAD19y3aJfsjuuIF5oKbahcXacHDEgsARy0i584Flfe89lQonVcc0DUzDUcnb-XoWjVHzB4fUWklet_5ARXetTzpWN1BiJioR_sGS2VTRUiiwTjbSpk0XIpmK0Puw-Hud3aLXUHAP5In2jFSvENV58ov_cs_hxkqizWeCnFQCVBEEievBM0NNYSk8ZFVO9NtAKNh1nsDAh--9P1HlrTCBLpQNx9BfZzU85-9qvKn6XyZtKbvanMZyaVun7GlfzS2dx5xS8BhcOcqhO0yctpDXJyictj3TzUGeZ7eZqRGif_rGGOuXg-Sb_6pW1iDN52BPuNpzPWAZRRr0fHtPt-kDF9drnP9bPXQLxC2VL0o0tuv_e4Uhv6LMKTOsIybHH2_7PXGKn3IcGEAX46a9Mn2c9lMJQqImkk71FvTHpPMzdtiM5jSR8Ex0-rmScWAjDslYRoFXbyJMx1JKX-PC6_VC5tCo4QB-1l5QL-2iRjOzKNi7rfsvqZhF2jAIkdUHphXnQl6-1lf4BKB_cSlZ6t_WOLve33zOFrH1a7", "width": 2560}], "place_id": "ChIJdSqKQA5MQA0RXcebrVQHkbw", "reference": "ChIJdSqKQA5MQA0RXcebrVQHkbw", "scope": "GOOGLE", "types": ["locality", "political"], "vicinity": "Entrepinos"}, {"business_status": "OPERATIONAL", "geometry": {"location": {"lat": 40.3098661, "lng": -4.491166300000001}, "viewport": {"northeast": {"lat": 40.31124708029149, "lng": -4.489845469708498}, "southwest": {"lat": 40.30854911970849, "lng": -4.492543430291502}}}, "icon": "https://maps.gstatic.com/mapfiles/place_api/icons/v1/png_71/generic_business-71.png", "icon_background_color": "#7B9EB0", "icon_mask_base_uri": "https://maps.gstatic.com/mapfiles/place_api/icons/v2/generic_pinlet", "international_phone_number": "+34 916 40 63 05", "name": "CENTRO DE PSICOLOGIA LAS ROZAS", "place_id": "ChIJ-6HLVWODQQ0RMi6nOCOcEfg", "plus_code": {"compound_code": "8G55+WG Rozas de Puerto Real, Spain", "global_code": "8CGQ8G55+WG"}, "reference": "ChIJ-6HLVWODQQ0RMi6nOCOcEfg", "scope": "GOOGLE", "types": ["doctor", "point_of_interest", "health", "establishment"], "vicinity": "Plaza de España, Las Rozas"}, {"business_status": "OPERATIONAL", "geometry": {"location": {"lat": 40.3106112, "lng": -4.4927324}, "viewport": {"northeast": {"lat": 40.3117831302915, "lng": -4.491350719708499}, "southwest": {"lat": 40.3090851697085, "lng": -4.494048680291503}}}, "icon": "https://maps.gstatic.com/mapfiles/place_api/icons/v1/png_71/school-71.png", "icon_background_color": "#7B9EB0", "icon_mask_base_uri": "https://maps.gstatic.com/mapfiles/place_api/icons/v2/school_pinlet", "international_phone_number": "+34 918 64 86 34", "name": "Colegio Público Carlos Ruiz", "place_id": "ChIJWaW_pLFOQA0RDKjLHli860A", "plus_code": {"compound_code": "8G64+6W Rozas de Puerto Real, Spain", "global_code": "8CGQ8G64+6W"}, "reference": "ChIJWaW_pLFOQA0RDKjLHli860A", "scope": "GOOGLE", "types": ["school", "point_of_interest", "establishment"], "vicinity": "Calle Antonio Machado, 48, Rozas de Puerto Real"}, {"business_status": "OPERATIONAL", "geometry": {"location": {"lat": 40.3258833, "lng": -4.4921358}, "viewport": {"northeast": {"lat": 40.3272938802915, "lng": -4.490922819708497}, "southwest": {"lat": 40.32459591970851, "lng": -4.493620780291502}}}, "icon": "https://maps.gstatic.com/mapfiles/place_api/icons/v1/png_71/school-71.png", "icon_background_color": "#7B9EB0", "icon_mask_base_uri": "https://maps.gstatic.com/mapfiles/place_api/icons/v2/school_pinlet", "international_phone_number": "+34 918 67 65 90", "name": "C R A Alto Tiétar", "photos": [{"height": 488, "html_attributions": ["<a href=\"https://maps.google.com/maps/contrib/105071510714977475110\">AYUNTAMIENTO DE NAVAHONDILLA</a>"], "photo_reference": "AWn5SU6XDRMooOWPpBVS2iBzXDFsYIBrln2RrFgpHLNR6drr4RFKJOoMOm6QnP-Jp8gjZdcm3Mdh6bkCsSinmxDEhXmulHFe57sZbW7w0SLF8nGriosi-IZYoW3VPR4b4dfGxGrOHVlog6Q572UJ_Vt-hYOMyiSCrN9QfTM_Eu7bVdtVvWM84ZIjE1id1HTkrvfRHC9NF9aPNfuPSAzCG4BXnb2Uc0eB8jkJQlj4OB25vXAbGONapLwhA0xZ0GUvoZlHxtpFMerLPzvGLIuym8rXTDiLttUq5EsPkB5cJl_Tt9MUntuHAWBwxmHdKnoF_Y2RXubHZPUtwlXbUlbpbY0QbWFgN4xQgrrywUJipQ5QiFVY9BC5ogPiwCHDmnVVLSIajihExM8j7ZjLZxDrB2aU0DCunzXQ-p55h_byCMkcLNQUDI-7Wua_NAD4hB8zUXGeABk5sHAOf9jIQcm7Zry6oDk-wAdslwKXn8aah8nAamMAETfARbFcs631pSOE4T2ATb6jEu66J7PyIUtWu6Dnn-T122hA2QvmiRb2U2MWNk91WyZAgwgqB1eEBF9GnWYnd4h7ds3eC_yHrxxPPxV-FS8SOg85R7L-k5y-NGS2wLLRu0MbUdmYWA2iobJxnU14Xca1UO102BxhN4PkWEKzkaNvGcg", "width": 650}], "place_id": "ChIJ3RLOdJZOQA0Ruh0xX7M1NYc", "plus_code": {"compound_code": "8GG5+94 Navahondilla, Spain", "global_code": "8CGQ8GG5+94"}, "reference": "ChIJ3RLOdJZOQA0Ruh0xX7M1NYc", "scope": "GOOGLE", "types": ["school", "point_of_interest", "establishment"], "vicinity": "Avenida de Portugal, Navahondilla"}, {"business_status": "OPERATIONAL", "geometry": {"location": {"lat": 40.3256555, "lng": -4.4930572}, "viewport": {"northeast": {"lat": 40.3269083302915, "lng": -4.491752169708497}, "southwest": {"lat": 40.32421036970851, "lng": -4.494450130291502}}}, "icon": "https://maps.gstatic.com/mapfiles/place_api/icons/v1/png_71/civic_building-71.png", "icon_background_color": "#7B9EB0", "icon_mask_base_uri": "https://maps.gstatic.com/mapfiles/place_api/icons/v2/civic-bldg_pinlet", "international_phone_number": "+34 918 61 00 91", "name": "Navahondilla Town Hall", "opening_hours": {"open_now": false}, "photos": [{"height": 3599, "html_attributions": ["<a href=\"https://maps.google.com/maps/contrib/108069582485270015661\">José Antonio Lopez</a>"], "photo_reference": "AWn5SU6PzgUBlvPcF4SwA9Sp-wKP1A9ADxn1Z1x1l_X6EUSv38RQ4yZi09APfF_ga_GZTJO5zlZepfIJKLv6z9Yqw1Adtu3JR18_ijoBP8oufgQ25s_bUyKiS6NA28OZcftekr0gT-t0Qyy-ZM3tu3Uuj1qQSpum5HBu4npdbnJiR5-3IbNb-qxUhIZTdXsrLoYfMlm_FB7Fh4MfnhZYfh32KwlKna_1TS-loLpUZSi6jf-7UTREBakCKQgpx_NZWXdTZd8K2hxE3OURcoiQqb_O4g4iToJvOnenSbsqSlq5KV2BEDj_wmzeMNwphEcFiGz1RlXaCNmSzhis61iawnrVB4GkexVSZCLEpoPWEnBbWJZbBHARrtqlDfmVzaruGieu4SH4dt-TInAJXv_qKj1wSwOBZ3yIQUSUylQGXCLXsWILkAwoBdL7k41ts8lcgsp9PSujVevjupSBHE8JVlNTuZ5eXRCERJqsmbh4L3XMGCv9zfC-vwYaELJnaF9vU7E44X81XIf7WIInQqGsXzXQIe_w6fdIILmWwNnffEB61UEupu9VIBpad0LaGhecmivXrDwkuw2U9zSgaf6v3LyWvG_AAx-riZcV-PzwySZmBTW3dRH-aJqprFQsDrByuwu8TObWeAYy", "width": 5528}], "place_id": "ChIJXcpx4olOQA0RlJk0D6sQ_Gw", "plus_code": {"compound_code": "8GG4+7Q Navahondilla, Spain", "global_code": "8CGQ8GG4+7Q"}, "rating": 4.3, "reference": "ChIJXcpx4olOQA0RlJk0D6sQ_Gw", "scope": "GOOGLE", "types": ["city_hall", "local_government_office", "point_of_interest", "establishment"], "user_ratings_total": 23, "vicinity": "Plaza de las Erillas, 1, Navahondilla"}, {"business_status": "OPERATIONAL", "geometry": {"location": {"lat": 40.3101853, "lng": -4.4919842}, "viewport": {"northeast": {"lat": 40.31157548029149, "lng": -4.490608019708498}, "southwest": {"lat": 40.3088775197085, "lng": -4.493305980291503}}}, "icon": "https://maps.gstatic.com/mapfiles/place_api/icons/v1/png_71/generic_business-71.png", "icon_background_color": "#7B9EB0", "icon_mask_base_uri": "https://maps.gstatic.com/mapfiles/place_api/icons/v2/generic_pinlet", "international_phone_number": "+34 918 64 86 01", "name": "Consultorio Local Rozas De Puerto Real", "place_id": "ChIJi0k_p7FOQA0RNp2QFXBwkfc", "plus_code": {"compound_code": "8G65+36 Rozas de Puerto Real, Spain", "global_code": "8CGQ8G65+36"}, "rating": 5, "reference": "ChIJi0k_p7FOQA0RNp2QFXBwkfc", "scope": "GOOGLE", "types": ["point_of_interest", "health", "establishment"], "user_ratings_total": 1, "vicinity": "Calle Antonio Machado, 41, Rozas de Puerto Real"}, {"business_status": "OPERATIONAL", "geometry": {"location": {"lat": 40.3261972, "lng": -4.492491100000001}, "viewport": {"northeast": {"lat": 40.3274853802915, "lng": -4.491073569708498}, "southwest": {"lat": 40.3247874197085, "lng": -4.493771530291503}}}, "icon": "https://maps.gstatic.com/mapfiles/place_api/icons/v1/png_71/generic_business-71.png", "icon_background_color": "#7B9EB0", "icon_mask_base_uri": "https://maps.gstatic.com/mapfiles/place_api/icons/v2/generic_pinlet", "international_phone_number": "+34 918 61 06 28", "name": "Residencia De Ancianos", "place_id": "ChIJG53-qJdOQA0R-UrSbaFwLXY", "plus_code": {"compound_code": "8GG5+F2 Navahondilla, Spain", "global_code": "8CGQ8GG5+F2"}, "rating": 3.1, "reference": "ChIJG53-qJdOQA0R-UrSbaFwLXY", "scope": "GOOGLE", "types": ["point_of_interest", "health", "establishment"], "user_ratings_total": 25, "vicinity": "Calle Camino de la Dehesa, 1, Navahondilla"}, {"business_status": "OPERATIONAL", "geometry": {"location": {"lat": 40.31300169999999, "lng": -4.5136347}, "viewport": {"northeast": {"lat": 40.3143576302915, "lng": -4.512204669708498}, "southwest": {"lat": 40.3116596697085, "lng": -4.514902630291503}}}, "icon": "https://maps.gstatic.com/mapfiles/place_api/icons/v1/png_71/school-71.png", "icon_background_color": "#7B9EB0", "icon_mask_base_uri": "https://maps.gstatic.com/mapfiles/place_api/icons/v2/school_pinlet", "international_phone_number": "+34 918 61 13 56", "name": "Seminario Menor Santa Maria", "photos": [{"height": 427, "html_attributions": ["<a href=\"https://maps.google.com/maps/contrib/100965258295187018006\">Seminario Menor Santa Maria</a>"], "photo_reference": "AWn5SU6aTFP7xedgzJ9y82oRBeDefg4FGz0qgD5YzcMljkzpVBjLeYTOhdSMjGDnp0Ycw5otxjxJIRcSRpUWLzGS2PLbO-Rt8guSf12VEobwIyRNrNb7t3NDa3Gzo6tC9QXiPokf9KMZoOS2vJzGi_0hnhn-Uo7EVanuamMANm_kcEsx5hI3NpywAXfbqEtpbRJSBC_sxL1b815KLxxOXPurgiarwf8HFj8V0vYDqoJE4n20yD4r9a4CKkDQ_SZehGwo5aWiO0q7gNQZXqIu1rS_Ikj0PGJ0QcUtEjcU0qCIvP8H59IpbxpgN2yiWyjhKljBgypZF3NoQrA", "width": 640}], "place_id": "ChIJmWYyh9pOQA0RHDwT8PH_zsI", "plus_code": {"compound_code": "8F7P+6G Rozas de Puerto Real, Spain", "global_code": "8CGQ8F7P+6G"}, "rating": 4, "reference": "ChIJmWYyh9pOQA0RHDwT8PH_zsI", "scope": "GOOGLE", "types": ["point_of_interest", "establishment"], "user_ratings_total": 32, "vicinity": "M-501, km. 69, 5, Rozas de Puerto Real"}, {"business_status": "OPERATIONAL", "geometry": {"location": {"lat": 40.3127507, "lng": -4.5138161}, "viewport": {"northeast": {"lat": 40.31410333029149, "lng": -4.512282919708498}, "southwest": {"lat": 40.3114053697085, "lng": -4.514980880291502}}}, "icon": "https://maps.gstatic.com/mapfiles/place_api/icons/v1/png_71/school-71.png", "icon_background_color": "#7B9EB0", "icon_mask_base_uri": "https://maps.gstatic.com/mapfiles/place_api/icons/v2/school_pinlet", "international_phone_number": "+34 918 61 02 00", "name": "Colegio Inmaculada Y San Dámaso", "place_id": "ChIJ75XK8rFOQA0RvnyAp0q0I98", "plus_code": {"compound_code": "8F7P+4F Rozas de Puerto Real, Spain", "global_code": "8CGQ8F7P+4F"}, "reference": "ChIJ75XK8rFOQA0RvnyAp0q0I98", "scope": "GOOGLE", "types": ["school", "point_of_interest", "establishment"], "vicinity": "Carretera Alcorcón-Plasencia, 0, Km 69 3, Rozas de Puerto Real"}, {"business_status": "OPERATIONAL", "geometry": {"location": {"lat": 40.3163099, "lng": -4.467887999999999}, "viewport": {"northeast": {"lat": 40.3176954802915, "lng": -4.466531719708498}, "southwest": {"lat": 40.3149975197085, "lng": -4.469229680291503}}}, "icon": "https://maps.gstatic.com/mapfiles/place_api/icons/v1/png_71/generic_business-71.png", "icon_background_color": "#7B9EB0", "icon_mask_base_uri": "https://maps.gstatic.com/mapfiles/place_api/icons/v2/generic_pinlet", "name": "Entrepinos", "photos": [{"height": 4160, "html_attributions": ["<a href=\"https://maps.google.com/maps/contrib/105589396321847434697\">Félix Cardona</a>"], "photo_reference": "AWn5SU4sHu0Ie_Y56EgPGTAl_M0Tmk171ZttMpZSyTclKc2wHMOzpc_73_Fci1cvR9gmLZ7CUh2BOajhqivE0BmGqQsmq4Ebck1xaw0wPMbBztddvQGyPheOKJep87Id-Z-vD53BsLGR390ahzmIkMh_3sc6-NejO-dTeXu4Ga8A8iOjk0crSb3qItrOBKnGlBBXAwA1OtOds3odrxWayqM9CzHO1YdnQsRZRThGSowSU1bAJpkc_rueYIzx9ltxi6wIOvwXQSE2zMG0g_8tVobFIBAfg5kFrk3eLOR8vdZ4mwLz8h0avdcLXRL7rRAJheZ9VJk08hB4neuHS5OZ-xSw2L6Tcmc0qQSwhPzkabsID4MyrdfP8C4jv-I9N9eIXMgZ5Z_prKxT1fDYNpjwKP1cEnw8Kcj4CGg0AY3kZpkud53vSULEqHR25EKXSTm8kfKjWOqVBEaPcwel3t7NuP5FZQT7ubZ-LP-TLKW3NK8_q3uBMYwoou8m1-AAPRr6vps-xqB7W9mSYRRfl-k5nb1sVKITpnexPDpw_66fQMyCVBzpDzr0ovTVCOboY-UHIjlT1gzXn_pWPx-Z97RovTK7ON2LBvGjA2BIkzrJtXKwZv_KqGDX5YUmxAdf0K8SRXKtLCq8HmvP", "width": 3120}], "place_id": "ChIJjW-U9RBMQA0RkGaBriDAwfI", "plus_code": {"compound_code": "8G8J+GR Entrepinos, Spain", "global_code": "8CGQ8G8J+GR"}, "rating": 4.4, "reference": "ChIJjW-U9RBMQA0RkGaBriDAwfI", "scope": "GOOGLE", "types": ["point_of_interest", "establishment"], "user_ratings_total": 40, "vicinity": "Calle Soria, 337, Entrepinos"}, {"business_status": "OPERATIONAL", "geometry": {"location": {"lat": 40.3118657, "lng": -4.465783600000001}, "viewport": {"northeast": {"lat": 40.31318333029149, "lng": -4.464430969708499}, "southwest": {"lat": 40.3104853697085, "lng": -4.467128930291503}}}, "icon": "https://maps.gstatic.com/mapfiles/place_api/icons/v1/png_71/generic_business-71.png", "icon_background_color": "#7B9EB0", "icon_mask_base_uri": "https://maps.gstatic.com/mapfiles/place_api/icons/v2/generic_pinlet", "international_phone_number": "+34 656 62 75 76", "name": "Shambala Trip", "place_id": "ChIJwR5Xiw5MQA0RbPgjVNCY5mw", "plus_code": {"compound_code": "8G6M+PM Cadalso de los Vidrios, Spain", "global_code": "8CGQ8G6M+PM"}, "rating": 4, "reference": "ChIJwR5Xiw5MQA0RbPgjVNCY5mw", "scope": "GOOGLE", "types": ["travel_agency", "point_of_interest", "establishment"], "user_ratings_total": 1, "vicinity": "Calle Mallorca, 348, Cadalso de los Vidrios"}, {"business_status": "OPERATIONAL", "geometry": {"location": {"lat": 40.3142436, "lng": -4.4625647}, "viewport": {"northeast": {"lat": 40.31541488029151, "lng": -4.461221919708498}, "southwest": {"lat": 40.31271691970851, "lng": -4.463919880291502}}}, "icon": "https://maps.gstatic.com/mapfiles/place_api/icons/v1/png_71/generic_business-71.png", "icon_background_color": "#7B9EB0", "icon_mask_base_uri": "https://maps.gstatic.com/mapfiles/place_api/icons/v2/generic_pinlet", "name": "Urbanizacion entrepinos", "opening_hours": {"open_now": true}, "photos": [{"height": 1920, "html_attributions": ["<a href=\"https://maps.google.com/maps/contrib/118192022220238457356\">Eva Garcia</a>"], "photo_reference": "AWn5SU7B8Qu0NbR7c7kUk_cn-ilsoNvnluyQ8NXCx3lBuVWT29KXrUw47cOQ7BXQURDVfBtyT4JCOWKWgSkKQZg0fcEjGPxAgF65sDEvRbkioOWDFKrBdxwKU9ugF0Jh9S2LAwt1Xo7xy-vWK4akwy9G5cAu2OCvyHndHRIiffw3ztGUlE_hogjZL2Qq1c13Mg-TVb0MNlpWnEGYKT00JMo1IWY9L6j5G5M0Zi4gmeMl8Xf4W0QKsoJVJcBWzXwaFNBjhq7xJDgdbnjwXBMLnpO5T6mWRG32cAaWlNzF831aL64aEzqGyGtJvjk31TMIf0Lj3lHVAtabxZb5uTNqcQhF-4bx5JxvvqDRkTWzMYG6lfsx8dz4AVGNBxmm0CNXJ7DHHzRYQoy_JvQmrk64aHGIXWuQE9wiYGC3ZcgBca5I8nOcmBc9N4c1ICcNss4JIsSAPaSd-6pZKV-FwPo9B2e74dGw1JCgg0E1sDvgdsVVxaav98i9TS1ej8aiBYeTM6jLSOx3zph__f7SaLsZt78eb31aLV5d4DvTqUrl7MqDc_XOhBai6K5QHQQDzOnfHkSy0GYyXeAAbaxX8DwofgiWancY95Gx1Lgxbq_IAkBLzVTbCQdxEYIJ0hwDMo1iLL7n5WpsJtep", "width": 1080}], "place_id": "ChIJx-nZxGxMQA0RcAqcQJhW76I", "plus_code": {"compound_code": "8G7P+MX Cadalso de los Vidrios, Spain", "global_code": "8CGQ8G7P+MX"}, "rating": 4.4, "reference": "ChIJx-nZxGxMQA0RcAqcQJhW76I", "scope": "GOOGLE", "types": ["point_of_interest", "establishment"], "user_ratings_total": 224, "vicinity": "Avenida San Sebastián, 579, Cadalso de los Vidrios"}, {"business_status": "OPERATIONAL", "geometry": {"location": {"lat": 40.31627840000001, "lng": -4.4627908}, "viewport": {"northeast": {"lat": 40.3176397302915, "lng": -4.461488819708498}, "southwest": {"lat": 40.31494176970851, "lng": -4.464186780291502}}}, "icon": "https://maps.gstatic.com/mapfiles/place_api/icons/v1/png_71/generic_business-71.png", "icon_background_color": "#7B9EB0", "icon_mask_base_uri": "https://maps.gstatic.com/mapfiles/place_api/icons/v2/generic_pinlet", "name": "Piscina Urbanizacion Entrepinos", "photos": [{"height": 2322, "html_attributions": ["<a href=\"https://maps.google.com/maps/contrib/112089067673125790359\">Maxim Georgiev</a>"], "photo_reference": "AWn5SU4aXJ2jqy-HqO3Pw1eZQ121YK99pfF7y4ID5Ma5azInJL6Qrir1xLyY6fVuE7POilP_S2Ea22zBZA-8XzZB3vCdtiPTIyjIcfni7Ph4l0OVAswZIU305PXcLlSw71YtJj5HDgN_O5wIy07TBVhuZSoDB1KtTWlPIlcvlSqAejSVRulvZKtL0hhR0d3AoRE6nLm-SyoDkxravGJ2u9Qb1Q262p2mCfIGfSYK8IUQ-yooip0Q60muxIeqbmLxvwZ_iYBGUjc-ccTZA6pzop7LmaInAhjOg19cSzdlLDB9IiwSbqal43kvD6VM_VicdxO2-0zO8lbtv37a5peQ5FuLttLFY3ynPV47f9X2S7S7yo_wy3686vczFThFH3xCq22i3QjLO16lFQCaAck4sa4l7jKS9JWcyr0ps1iJIR7_auSAIGIhGme8ssPyStb6eIMPi2v45KVLdjyos80Bnm3w-cZW9uKOlQlarNjuGfr0AdWobTc5EgXEXoz2vN0bbMoMVcheOiW05IiUQrWiYGmJ2ZXrJbXGHMGCV1GqEyXJlmy2kGRN1uG5pflON46iZfc3SGQCkCIfJNrGqZ-E32PqZAOI43iACd4A4bZ-wrgmnKtsH54GxKbT1rep6dRD9RjC5ipM2Q", "width": 4128}], "place_id": "ChIJ2zyOXRJMQA0RNa5yTNyUZGg", "plus_code": {"compound_code": "8G8P+GV Cadalso de los Vidrios, Spain", "global_code": "8CGQ8G8P+GV"}, "rating": 4.1, "reference": "ChIJ2zyOXRJMQA0RNa5yTNyUZGg", "scope": "GOOGLE", "types": ["point_of_interest", "establishment"], "user_ratings_total": 74, "vicinity": "Avenida de La Coruña, 924, Cadalso de los Vidrios"}, {"business_status": "OPERATIONAL", "geometry": {"location": {"lat": 40.31056580000001, "lng": -4.490207799999999}, "viewport": {"northeast": {"lat": 40.31189913029149, "lng": -4.488821519708498}, "southwest": {"lat": 40.30920116970849, "lng": -4.491519480291503}}}, "icon": "https://maps.gstatic.com/mapfiles/place_api/icons/v1/png_71/lodging-71.png", "icon_background_color": "#909CE1", "icon_mask_base_uri": "https://maps.gstatic.com/mapfiles/place_api/icons/v2/hotel_pinlet", "international_phone_number": "+34 618 23 39 17", "name": "La Casita de Rozas", "opening_hours": {"open_now": false}, "photos": [{"height": 4032, "html_attributions": ["<a href=\"https://maps.google.com/maps/contrib/115305340403849633523\">Victor Zamora Jimenez</a>"], "photo_reference": "AWn5SU69CIU_h0nfU0z_I2Ys4dwUTKZIAaUv6LRKA117rScnsud-XAEXdh20LXGNv2s6qaI24f1elvmK-cHT1cw3cu9G6eP5DoSFDP2uu4c6wTpjjTbqnnsl-TT8jU4t2MdPb24K-1MSCP3Zsw_g3mTyv7-IbFJSbqR28rBYG-pF1gIQqGSBLgQDcOtzpoZj2btQGHmivfxV7l-iEq6YmqcqRmmmzTDbllihvUgrO29AwSQXqzwVdgF4Axp8yPVynNLxWVlrt2N-S7bkrVar7JI6d0_BxmxfbMK2ObBUcILT6r1mhtanVfVj3TakMwPgd9M6pdHf9HSOQlf2_i9ShZHK0BPu1hFMOaiTD5djPGcoOa8CcDhc8ZbydJQEWoPNqjbqIU5Bez02QdQmwaUtq3iRpUpbOK6FlV5HlKBDwlAE98ujGbczgDuiDCvz38ZrDSdO4AOaQNYxTi5-ouHavOImEcdA6hZfeH1gXblEEboZ7ZmINJA2RiHwawTD8UOolHQCDj1C9uWh05onbTcPUOUFGAAfBe1-JoJnHGy86cy-yEc2CtMU_yUgTnCSV28Vz26Q8Eb4Odu9xmugju-v9XaBNSrLLEwnCGVqVsUn88NL8K8C-1agyXPpBbgMh7hTUHBEiMKUxfZd", "width": 3024}], "place_id": "ChIJ5bEA3bFOQA0RGZ26Zp-HRc0", "plus_code": {"compound_code": "8G65+6W Rozas de Puerto Real, Spain", "global_code": "8CGQ8G65+6W"}, "rating": 4.8, "reference": "ChIJ5bEA3bFOQA0RGZ26Zp-HRc0", "scope": "GOOGLE", "types": ["lodging", "point_of_interest", "establishment"], "user_ratings_total": 46, "vicinity": "Calle Doctor Fleming, 29, Rozas de Puerto Real"}, {"business_status": "OPERATIONAL", "geometry": {"location": {"lat": 40.3100398, "lng": -4.490688100000001}, "viewport": {"northeast": {"lat": 40.3114063802915, "lng": -4.489339419708497}, "southwest": {"lat": 40.3087084197085, "lng": -4.492037380291502}}}, "icon": "https://maps.gstatic.com/mapfiles/place_api/icons/v1/png_71/generic_business-71.png", "icon_background_color": "#7B9EB0", "icon_mask_base_uri": "https://maps.gstatic.com/mapfiles/place_api/icons/v2/generic_pinlet", "international_phone_number": "+34 918 64 86 47", "name": "Rozas de Puerto Real Town Hall", "photos": [{"height": 4000, "html_attributions": ["<a href=\"https://maps.google.com/maps/contrib/104089933018920657333\">Kevin Aquino</a>"], "photo_reference": "AWn5SU7Cn166gx1tBECd3GhAfwetfi1N149Ik85vnOIxTfKVTu5fT6SkDFudpmrWRBp8vRUI7CgwLd3N8OWjO44VDXxVJCZylI6cskPzM7-T0Q8AIa__iv8eRNCjFBYUljEhoYOG5Y-OhOb_MiZTHZ3nu93M6Wn5FddFnm6bo8YzVGRiI_Sx6LU50wQ3B_iUDmW9TfMpA87IEYt_jmxhp86XgNxHPwoBSx6NaNlI1JGJi4-6Wz5f8fdQwt2Xu07wSfECKkWrLY3RoQ_YgGejUCTs_DD8ErCCvpGlXzC32Tlk25oPyAGynktLzcM6Pp_HkD9uASgJxEXVAx9UwplNmd3-nspTv7txmgJe68lgzWqfyEBKLzw-L-M0-9v6lO_2rK5fDHCU9Xu8TKppLewC4_drpvSe6gXAsgOS21bVppneoQo9rF1SmwBxEYYONSMOOHWr8uXjz8K-Ya9ZfpW5z76gm9Sq14t7oYskEk1QO7A7WsxZqY3VTuXemw5ePjp47fGbjWXrf7-VZqM6jW8s7E6Rr9P6USOglUU-dd1VPuGMmpfsiGlSAszR6it7QFxA5Q4W-D_11AC3mjUjRyztBzAPfuxwzoTqCXATmQaxcAmNn6uvJUqLvks_xoVPvPoVjYSz3U708XlOuNNAH2YAPih4LA", "width": 1800}], "place_id": "ChIJRSMf3bFOQA0RgRsqidMZ2Fc", "plus_code": {"compound_code": "8G65+2P Rozas de Puerto Real, Spain", "global_code": "8CGQ8G65+2P"}, "rating": 3.9, "reference": "ChIJRSMf3bFOQA0RgRsqidMZ2Fc", "scope": "GOOGLE", "types": ["point_of_interest", "establishment"], "user_ratings_total": 31, "vicinity": "Calle de la Villa, 3, Rozas de Puerto Real"}, {"business_status": "OPERATIONAL", "geometry": {"location": {"lat": 40.30982329999999, "lng": -4.4902072}, "viewport": {"northeast": {"lat": 40.31124088029149, "lng": -4.489009019708498}, "southwest": {"lat": 40.30854291970849, "lng": -4.491706980291502}}}, "icon": "https://maps.gstatic.com/mapfiles/place_api/icons/v1/png_71/worship_general-71.png", "icon_background_color": "#7B9EB0", "icon_mask_base_uri": "https://maps.gstatic.com/mapfiles/place_api/icons/v2/worship_christian_pinlet", "name": "Iglesia de San Juan Bautista", "photos": [{"height": 2160, "html_attributions": ["<a href=\"https://maps.google.com/maps/contrib/111989762053751452822\">Parroquia San Juan Bautista</a>"], "photo_reference": "AWn5SU5_T2fmhy_NsHBJgE68bRO04J9QtxhqADhmYu2cF8nLwccKIECfFS1GL9-cvoEI5nxtTRv1LzGt6OZT5tyAPMK2olbXs7xsay9l8ETfYCRMUqfNqVWPvGdQlU4t5d65043HLfQ9hfhoVI9KqyrMPzA-elq9XF_4FoJy8nTC9T7JE0v75LdtW56sz-GOzzskAHm2b8B6pKIERgV_2_aG_l491uMQGsimAlOOOxC4kYZA-bLX5nyMwkBlPOYxqR7VH7Sf62UM2aExtwdVWjG3bQjlfQRWfMQRO3S9-PJwC8ZrIo4bgK8sTrcOqfa1iOyI_YEIOVD6", "width": 3840}], "place_id": "ChIJq0UrubFOQA0RqoCQZdTYBRc", "plus_code": {"compound_code": "8G55+WW Rozas de Puerto Real, Spain", "global_code": "8CGQ8G55+WW"}, "rating": 4.4, "reference": "ChIJq0UrubFOQA0RqoCQZdTYBRc", "scope": "GOOGLE", "types": ["church", "place_of_worship", "point_of_interest", "establishment"], "user_ratings_total": 28, "vicinity": "Calle Doctor Fleming, 1, Rozas de Puerto Real"}, {"business_status": "OPERATIONAL", "geometry": {"location": {"lat": 40.30946439999999, "lng": -4.490872499999999}, "viewport": {"northeast": {"lat": 40.3108231302915, "lng": -4.489527419708497}, "southwest": {"lat": 40.3081251697085, "lng": -4.492225380291502}}}, "icon": "https://maps.gstatic.com/mapfiles/place_api/icons/v1/png_71/bar-71.png", "icon_background_color": "#FF9E67", "icon_mask_base_uri": "https://maps.gstatic.com/mapfiles/place_api/icons/v2/bar_pinlet", "name": "Bar De Moe", "opening_hours": {"open_now": false}, "photos": [{"height": 768, "html_attributions": ["<a href=\"https://maps.google.com/maps/contrib/111207719949132030091\">Jesus Garcia G</a>"], "photo_reference": "AWn5SU7SA9tsSxLt5TsVcadtdxwGmwafS2VEY0tDHNvdW2ctj7gE9-_GnN8_7sc7HTTS84sJVfoACBtSteZidhyUCRgjczaDYxbHzsAYCBwxzwMQINFFSgzSR8Vt00iCV36kuWO1ydrf8AX7OoJcmEEQo2K2irAqLWUfQjkdrc85OTpQ5bHOGgY_B0Mg-117jYxvfwsPdRp_coq2nUeZHuemBWaCAT639jWyd_qWviyF9SCMFWvYnmTTIOhnd78Usx4fk5hUQZUdk9zQDUdrz8wP-fYZghWF0lecu2x3z6N3CIUmREHheKpZsl1ltFyK_3mbv8_16IyqKRx8j63NMK2Civ5QVDV11eWvlWVeVotXrlX_gznhvwzHMqaamdP2HMG8wuJS1G_zI2ixPH9aJgOHIgRzsFk7N-zOD3xzN1KLAen2O6xSD1IPZsrC0U-waz_asSv53c40kqXbuPpceMkF34SbauKoqxlcDTch1kjyOw39xJ_9a3U4lNm2aV7mz9jymgdxuwr67isDnnEb9Q7axfwGEosnfL8HiCeFaAZpEewTOtzKz7gSdoGqTv4uFXimgWdFK8VoaMGi3vrZSw8g60j886OJhB01RbOUcCRG9TZe2HIN1H46JvgHJfPnHs1neRawTFrE", "width": 1024}], "place_id": "ChIJLZK_77FOQA0R5Fof7Kh3heE", "plus_code": {"compound_code": "8G55+QM Rozas de Puerto Real, Spain", "global_code": "8CGQ8G55+QM"}, "price_level": 1, "rating": 4.3, "reference": "ChIJLZK_77FOQA0R5Fof7Kh3heE", "scope": "GOOGLE", "types": ["bar", "point_of_interest", "establishment"], "user_ratings_total": 136, "vicinity": "Calle Doctor Fleming, 1, Rozas de Puerto Real"}, {"business_status": "OPERATIONAL", "geometry": {"location": {"lat": 40.3093476, "lng": -4.4909057}, "viewport": {"northeast": {"lat": 40.31072198029149, "lng": -4.489527419708498}, "southwest": {"lat": 40.3080240197085, "lng": -4.492225380291503}}}, "icon": "https://maps.gstatic.com/mapfiles/place_api/icons/v1/png_71/restaurant-71.png", "icon_background_color": "#FF9E67", "icon_mask_base_uri": "https://maps.gstatic.com/mapfiles/place_api/icons/v2/restaurant_pinlet", "name": "Pink's!!", "opening_hours": {"open_now": false}, "photos": [{"height": 812, "html_attributions": ["<a href=\"https://maps.google.com/maps/contrib/116649761229066231668\">Pink&#39;s!!</a>"], "photo_reference": "AWn5SU73AeipMC9ANAtfxrBOVO82J6kIcjPA1BGRdX6xSZu14xM-HLtp301Lx9r1FBzdGep4hWFqGARib-09gvfage22CoQvdu-pNBbQBnpMHGNZPq-_jTwuSOv3YC8mxMTznymbyzFAUS3rDHeFIjKnjoeZRwwOCMqlHqIK1TkUsKJFXz1pbCVln0zQpwnGAWxaDfXJmN4uNEbKvXRiw9MnhyZovx9-WXvMnYvArgnLg4b1et29LViC9HWNhG1ngb_d59ax99ayK-_pRsw2hlNSvuv2a3Jfs1JfumC_BQzzDW3DhXM726AGmR6yWmUe8FG6IZ_tuSWtqo8", "width": 1200}], "place_id": "ChIJZTadsJFPQA0RNusEjXsiUBY", "plus_code": {"compound_code": "8G55+PJ Rozas de Puerto Real, Spain", "global_code": "8CGQ8G55+PJ"}, "rating": 4.9, "reference": "ChIJZTadsJFPQA0RNusEjXsiUBY", "scope": "GOOGLE", "types": ["restaurant", "food", "point_of_interest", "establishment"], "user_ratings_total": 43, "vicinity": "Calle Antonio Machado, 9, Rozas de Puerto Real"}, {"business_status": "OPERATIONAL", "geometry": {"location": {"lat": 40.3094711, "lng": -4.491703}, "viewport": {"northeast": {"lat": 40.3108058802915, "lng": -4.490362019708497}, "southwest": {"lat": 40.3081079197085, "lng": -4.493059980291502}}}, "icon": "https://maps.gstatic.com/mapfiles/place_api/icons/v1/png_71/generic_business-71.png", "icon_background_color": "#7B9EB0", "icon_mask_base_uri": "https://maps.gstatic.com/mapfiles/place_api/icons/v2/generic_pinlet", "name": "Ctra.M507-Doctor Fleming", "photos": [{"height": 2988, "html_attributions": ["<a href=\"https://maps.google.com/maps/contrib/102314771075757599483\">Manuel Mayo Ortega</a>"], "photo_reference": "AWn5SU5IbeupkEi6XnZSEk9cL_q641dIjsKVl4gUi5Dp9EXcJT9avCkSERZ2-ZADm7jnhAIRE27HL9zFE9mW-WOStxxxVdAyzhE1nGRm2YmT7to03wCMf_AdAxM9g7KVn0x0ZdAKd3MqobSJujTUJ_4r7OEShZPsxwGjq7VOSPG-9SVLSEMzQukg2L8uwtcebyHvKnHxXU47t9zngzUNnluBmTcsIkjB2LUc7w9bKsjjyhz4iMKDNklHu1pQCev0jfjVEVo90GiOVrmZo9ie9Oh9vbpOGnpdEVgQyOpjVdNg7_Bhp4KDTqDrnkL79jFLliIGcxiOk2RJ7Y-BeYkvGX56d9H8dJhWdcQQNGTPo8XxTDzpkvYEI264qM7AJNNCoehtMTe2edjV6v_M4V3TG2Rc7lsDf9cekalJ55D3BTheuakcEz7l3JTaIslZYSqvW9H8sBwEJ0tmZJ88mHnlhYxfBFGqjrIMZ7AKBNhzNFOp3pV4CLi23tx1Fg7sRrlQcJq7M0L0zkdHAJ4uwfiF0rAPbSm9eFttDHJTmij1VI56atXFMXK7NDtnwk96aCNg-KrNygdLYyHK4Y9i3bRMvnZajZ2EvVUbf1uVN9Pnd4bZeGceW9O5m2PxXRCbZBLMdLuDjs7ftg", "width": 5312}], "place_id": "ChIJFb4Fk7FOQA0RvETESzYDfwE", "plus_code": {"compound_code": "8G55+Q8 Rozas de Puerto Real, Spain", "global_code": "8CGQ8G55+Q8"}, "reference": "ChIJFb4Fk7FOQA0RvETESzYDfwE", "scope": "GOOGLE", "types": ["transit_station", "point_of_interest", "establishment"], "vicinity": "Spain"}, {"geometry": {"location": {"lat": 40.3092383, "lng": -4.4922092}, "viewport": {"northeast": {"lat": 40.31357004234385, "lng": -4.483259040574981}, "southwest": {"lat": 40.30383254870023, "lng": -4.497320323625621}}}, "icon": "https://maps.gstatic.com/mapfiles/place_api/icons/v1/png_71/geocode-71.png", "icon_background_color": "#7B9EB0", "icon_mask_base_uri": "https://maps.gstatic.com/mapfiles/place_api/icons/v2/generic_pinlet", "name": "Rozas de Puerto Real", "photos": [{"height": 4000, "html_attributions": ["<a href=\"https://maps.google.com/maps/contrib/115682080548685590443\">X Xx</a>"], "photo_reference": "AWn5SU4kAxb-BHp7eo7PzdxsKtXz3bbm5qnmxJcAL3KZd-7Hsw8vXQ7fGpODNK4Fa2FUQsUn5_BUa2G2aeLqAHHabdEZQwRfppeFSW7iCgPDDT6HSmxKUFIBgUnxWNaO0ZTwDa6t6F_FhG7buj6nFHDp4LDLZBLc0WCL3LYa9TAEmmBfwV449ZupNzprKyiK2gftUF_3R9MT2d0EPf_k__ObtK0Qqn2j3r34WXxi575hbK1Ct3TLuaSnGINoEasi068qCXJdrGP8Vn1-tbTR0MAyNpAeHgh9cdwkzQdGi_eAFs7scRvDUQFxm4v6cifw2VlABN-cxzMjCl3s7kQQfnqViPTP4jGiu4dIkyWspg-NdfNH1piQ9l1pGgWzZpKRkpb2OKAFcLeNodY3wOpdMW1db8GW7rK_NmVdsTmUCu21iGtBPCm8p0em65HT9NqNC0z9nup9sBHu7DijYDFzF-FqUr5Wu_xkLtDbV_HGRkXyTGgXmIdAVp9O58UsPj6PVAdODdT1n6AM_gGZCp_6DZk88WDw3m5-lpVgj5YYN7ojIXZplddfwSAWnr8_bLBiVGp0g_4JN3A7lTCFmHVyzWq6nECSDwaW0lZ8vM69qOlssTH5YLmxUb_BQ17MJAwUWXbwsFeaVEI9", "width": 3000}], "place_id": "ChIJP-evkbFOQA0RAAsavKbIsTQ", "reference": "ChIJP-evkbFOQA0RAAsavKbIsTQ", "scope": "GOOGLE", "types": ["locality", "political"], "vicinity": "Rozas de Puerto Real"}]