[{"business_status": "OPERATIONAL", "geometry": {"location": {"lat": 40.3670842, "lng": -3.487260099999999}, "viewport": {"northeast": {"lat": 40.3684583802915, "lng": -3.485866769708498}, "southwest": {"lat": 40.3657604197085, "lng": -3.488564730291502}}}, "icon": "https://maps.gstatic.com/mapfiles/place_api/icons/v1/png_71/bank-71.png", "icon_background_color": "#909CE1", "icon_mask_base_uri": "https://maps.gstatic.com/mapfiles/place_api/icons/v2/bank-intl_pinlet", "international_phone_number": "+34 916 68 12 34", "name": "Banco Santander Agentes", "opening_hours": {"open_now": false}, "photos": [{"height": 720, "html_attributions": ["<a href=\"https://maps.google.com/maps/contrib/105204857222356763973\">Banco Santander Agentes</a>"], "photo_reference": "AWn5SU5zATqpxq43LwiawtvWhcj4NWHkyD0sW1STEWrtjIWpbNEYLY8f9W_3-NUJ3-WmFSsGdyRsphKlGiQVzAUOWtu-U9-G41BvQi3i7vZK5NM5hQSgkfCxzB51XL_YNxWS_oektjKpSDILdLdTYRj-l0TXcHYBsbeMheDwwx4k-bnLIUSZ7DQhWU5AuVDojf52fJ585Q9-IxFFbfi6NhQsbx0o80xujk--JW4lVJ3nZb3BEeoSzh1_VRqemO7l9KesxfPJatbIDR9NxB-RvtxX1nRPFz7yqk0SgKozYIHHfvfn3Q7AtFqnfqtEwVx6yJQPzEsznUAvpHw", "width": 1280}], "place_id": "ChIJHbncSW45Qg0Rzjv4DiMz6N8", "plus_code": {"compound_code": "9G87+R3 Velilla de San Antonio, Spain", "global_code": "8CGR9G87+R3"}, "rating": 2.4, "reference": "ChIJHbncSW45Qg0Rzjv4DiMz6N8", "scope": "GOOGLE", "types": ["bank", "atm", "finance", "point_of_interest", "establishment"], "user_ratings_total": 17, "vicinity": "Plaza de la Constitución, 11, Velilla de San Antonio"}, {"business_status": "OPERATIONAL", "geometry": {"location": {"lat": 40.36707820000001, "lng": -3.487255599999999}, "viewport": {"northeast": {"lat": 40.36843013029151, "lng": -3.485915319708498}, "southwest": {"lat": 40.36573216970851, "lng": -3.488613280291502}}}, "icon": "https://maps.gstatic.com/mapfiles/place_api/icons/v1/png_71/bank-71.png", "icon_background_color": "#909CE1", "icon_mask_base_uri": "https://maps.gstatic.com/mapfiles/place_api/icons/v2/bank-intl_pinlet", "international_phone_number": "+34 620 52 95 91", "name": "BBVA - Agente Autorizado", "opening_hours": {"open_now": false}, "photos": [{"height": 720, "html_attributions": ["<a href=\"https://maps.google.com/maps/contrib/110175905000848292710\">BBVA - Agente Autorizado</a>"], "photo_reference": "AWn5SU5FgX7YmtGWGfp9s5vov3tpO_1hkghzXKm2SG-EH576TPZ8BvyrQ6cw-_sHCReBdkLzbB9--q3HJPG8AJ6MdpQwFoHET_F9XS6KjH3nA7CrueEeJtqvmIdpo-xvSFFFW0GCRG1FZVXV3ardqyuCxCPy-Fm8Npff6TGOh5SJIa8bVLF_TXN8nsipiwz2ASxcuBSkJUJrS52m9amVg8JepjXKBhgLxXS5-WExtCESJuE7gGlpyWqTR_dOIyUgtRZRsAw79JJWCs2CFL_B65_4K716trEiNeW_BQvC_BoJTiPiG-O2VveEuJiUkuW-4bFJY0Gvu-TU0sE", "width": 1280}], "place_id": "ChIJZQQ-rpA5Qg0RGVWmn_Fv840", "plus_code": {"compound_code": "9G87+R3 Velilla de San Antonio, Spain", "global_code": "8CGR9G87+R3"}, "rating": 4.4, "reference": "ChIJZQQ-rpA5Qg0RGVWmn_Fv840", "scope": "GOOGLE", "types": ["bank", "atm", "finance", "point_of_interest", "establishment"], "user_ratings_total": 25, "vicinity": "Plaza de la Constitución, 11, Velilla de San Antonio"}, {"business_status": "OPERATIONAL", "geometry": {"location": {"lat": 40.367428, "lng": -3.486801}, "viewport": {"northeast": {"lat": 40.36867248029149, "lng": -3.485409169708498}, "southwest": {"lat": 40.3659745197085, "lng": -3.488107130291502}}}, "icon": "https://maps.gstatic.com/mapfiles/place_api/icons/v1/png_71/bank-71.png", "icon_background_color": "#909CE1", "icon_mask_base_uri": "https://maps.gstatic.com/mapfiles/place_api/icons/v2/bank-intl_pinlet", "international_phone_number": "+34 600 40 40 90", "name": "CaixaBank", "opening_hours": {"open_now": false}, "photos": [{"height": 1192, "html_attributions": ["<a href=\"https://maps.google.com/maps/contrib/101628776156184108636\">CaixaBank</a>"], "photo_reference": "AWn5SU6X3Fwxf2bZwNmKLf0hShB4Gg8H2jU6bEXr7GmatWz1cL_rM2dINy8Uy78GW-jqMoORVkj2ZWyNxsg2vKknZT378b29I2Q6j_YGozE1iMwJwSni7TLL2NBWMFkkBjY4HOmdHBAj72VH8HOnhLYCOU031hGXVs3KmXoy1-PtHfetGbn3yYwNW3QDsiYkvaJ5R--12abftkP1aClVhEETPpI45M7ZrHCo1CFABjbQx8ZVn1WdGuHPCP19431qGGhstkZDgeoM8Zij1lvb4y5ZkcmmR87EfuO87QsU09KffFP8td6VxuKTO0syepWbp5S_nvCJMg34xPo", "width": 2120}], "place_id": "ChIJ0__f9WQ5Qg0RxORH9VOECLI", "plus_code": {"compound_code": "9G87+X7 Velilla de San Antonio, Spain", "global_code": "8CGR9G87+X7"}, "rating": 1.6, "reference": "ChIJ0__f9WQ5Qg0RxORH9VOECLI", "scope": "GOOGLE", "types": ["bank", "finance", "point_of_interest", "establishment"], "user_ratings_total": 14, "vicinity": "Calle Mayor, 2, Velilla de San Antonio"}, {"business_status": "OPERATIONAL", "geometry": {"location": {"lat": 40.36744059999999, "lng": -3.4864565}, "viewport": {"northeast": {"lat": 40.36877878029151, "lng": -3.485101819708498}, "southwest": {"lat": 40.36608081970851, "lng": -3.487799780291502}}}, "icon": "https://maps.gstatic.com/mapfiles/place_api/icons/v1/png_71/atm-71.png", "icon_background_color": "#909CE1", "icon_mask_base_uri": "https://maps.gstatic.com/mapfiles/place_api/icons/v2/atm_pinlet", "name": "Punto Nickel", "place_id": "ChIJb-3R6LQ5Qg0RHhT6wAhUK5o", "plus_code": {"compound_code": "9G87+XC Velilla de San Antonio, Spain", "global_code": "8CGR9G87+XC"}, "reference": "ChIJb-3R6LQ5Qg0RHhT6wAhUK5o", "scope": "GOOGLE", "types": ["atm", "bank", "finance", "point_of_interest", "establishment"], "vicinity": "Calle Mayor, 7, Velilla de San Antonio"}, {"business_status": "OPERATIONAL", "geometry": {"location": {"lat": 40.3699557, "lng": -3.4864498}, "viewport": {"northeast": {"lat": 40.3714431802915, "lng": -3.485226819708498}, "southwest": {"lat": 40.3687452197085, "lng": -3.487924780291502}}}, "icon": "https://maps.gstatic.com/mapfiles/place_api/icons/v1/png_71/atm-71.png", "icon_background_color": "#909CE1", "icon_mask_base_uri": "https://maps.gstatic.com/mapfiles/place_api/icons/v2/atm_pinlet", "name": "Punto Nickel - ESTANCO VELILLA 001", "place_id": "ChIJD85S2e05Qg0R3ugRmwo5s10", "plus_code": {"compound_code": "9G97+XC Velilla de San Antonio, Spain", "global_code": "8CGR9G97+XC"}, "reference": "ChIJD85S2e05Qg0R3ugRmwo5s10", "scope": "GOOGLE", "types": ["atm", "bank", "finance", "point_of_interest", "establishment"], "vicinity": "Calle Mayor, 1, LOCAL 3, Velilla de San Antonio"}]