[{"business_status": "OPERATIONAL", "geometry": {"location": {"lat": 40.16186, "lng": -3.36655}, "viewport": {"northeast": {"lat": 40.16320163029151, "lng": -3.365194719708498}, "southwest": {"lat": 40.16050366970851, "lng": -3.367892680291502}}}, "icon": "https://maps.gstatic.com/mapfiles/place_api/icons/v1/png_71/generic_business-71.png", "icon_background_color": "#7B9EB0", "icon_mask_base_uri": "https://maps.gstatic.com/mapfiles/place_api/icons/v2/generic_pinlet", "name": "Nicolas Arespacochaga-Ayuntamiento", "place_id": "ChIJ0WxkIGlsQg0RbU-UOfF12bQ", "plus_code": {"compound_code": "5J6M+P9 Valdelaguna, Spain", "global_code": "8CGR5J6M+P9"}, "reference": "ChIJ0WxkIGlsQg0RbU-UOfF12bQ", "scope": "GOOGLE", "types": ["transit_station", "point_of_interest", "establishment"], "vicinity": "Spain"}, {"business_status": "OPERATIONAL", "geometry": {"location": {"lat": 40.1615, "lng": -3.36666}, "viewport": {"northeast": {"lat": 40.16282938029151, "lng": -3.365338019708498}, "southwest": {"lat": 40.16013141970851, "lng": -3.368035980291502}}}, "icon": "https://maps.gstatic.com/mapfiles/place_api/icons/v1/png_71/generic_business-71.png", "icon_background_color": "#7B9EB0", "icon_mask_base_uri": "https://maps.gstatic.com/mapfiles/place_api/icons/v2/generic_pinlet", "name": "Carretera M137 Numero 2 Ayuntamiento", "photos": [{"height": 4000, "html_attributions": ["<a href=\"https://maps.google.com/maps/contrib/105709629572454636129\">Abraham Atenza</a>"], "photo_reference": "AWn5SU7NCpjQJ6El_S8Ygbr2s8STLEaVxP88loEvvLO5mH_S4lUAaGLs19fiSr0m5tzxsTU3u65A-toML4_5J5B6FnSQuEhZrJqJMf_qCPG1Pk_2M2q4zMS6CdMFAgz4s4deNLIWA5t0WJOJRK1CxN8EjdVFRO18CLb_LOBlTefFltUImLtwG3pOfnbH29FYbDfN0gLX4bOiwVkAERmsB7_xHu22EPCNBWb6raxS9fz5iI3wlmuQKNv2rrWm2hLtnVZlzVLctvTMF-4PlFH04UsKCmT8BrhozVP4K7t8IESQRowd0QQVJiJQ13N-E891kXpvBRXcJacgufT_DxhRAsDW7DBjmOkG8ADX7RQNsjdizcN11kd1DAw3qwR08sPw84-8AuW85hzlg6uPSBbf9aOZ2akg8KFobEijZqK94yrtNbJgrRsRDj5NgtcDE_Gs-iCXFpluT8AibESt45z5N85kqv0n0ycvD_9IHTQiJiikuxttH81Ba4w8lb8cibTtV87ufjCZR5BWMG5iX2sA8mJEW-zK6g77qgJqF-1_b-exk66dUrY_vRMW1FNboSF_wa2clyuoSjWhf_msj_56ldFMRoBaiOjQFTVC9_9MtwNIeurvz3b5ownfBemjx_iFFpIEUeMR6u9J9VS_Mwde5LajFGMc-hs", "width": 3000}], "place_id": "ChIJVfbD4WhsQg0RHQsdyY239u4", "plus_code": {"compound_code": "5J6M+H8 Valdelaguna, Spain", "global_code": "8CGR5J6M+H8"}, "reference": "ChIJVfbD4WhsQg0RHQsdyY239u4", "scope": "GOOGLE", "types": ["transit_station", "point_of_interest", "establishment"], "vicinity": "Spain"}, {"business_status": "OPERATIONAL", "geometry": {"location": {"lat": 40.1615, "lng": -3.36663}, "viewport": {"northeast": {"lat": 40.1628613802915, "lng": -3.365264019708498}, "southwest": {"lat": 40.1601634197085, "lng": -3.367961980291501}}}, "icon": "https://maps.gstatic.com/mapfiles/place_api/icons/v1/png_71/generic_business-71.png", "icon_background_color": "#7B9EB0", "icon_mask_base_uri": "https://maps.gstatic.com/mapfiles/place_api/icons/v2/generic_pinlet", "name": "Nicolas Arespacochaga-Ayuntamiento", "place_id": "ChIJW3Hc4WhsQg0RJw0HyKXaP_Q", "plus_code": {"compound_code": "5J6M+H8 Valdelaguna, Spain", "global_code": "8CGR5J6M+H8"}, "reference": "ChIJW3Hc4WhsQg0RJw0HyKXaP_Q", "scope": "GOOGLE", "types": ["transit_station", "point_of_interest", "establishment"], "vicinity": "Spain"}, {"business_status": "OPERATIONAL", "geometry": {"location": {"lat": 40.1616, "lng": -3.36652}, "viewport": {"northeast": {"lat": 40.1628996302915, "lng": -3.365239069708498}, "southwest": {"lat": 40.1602016697085, "lng": -3.367937030291502}}}, "icon": "https://maps.gstatic.com/mapfiles/place_api/icons/v1/png_71/generic_business-71.png", "icon_background_color": "#7B9EB0", "icon_mask_base_uri": "https://maps.gstatic.com/mapfiles/place_api/icons/v2/generic_pinlet", "name": "Ctra.M317-Ayuntamiento", "place_id": "ChIJGZW3H2lsQg0R-dCpvEdEGhE", "plus_code": {"compound_code": "5J6M+J9 Valdelaguna, Spain", "global_code": "8CGR5J6M+J9"}, "reference": "ChIJGZW3H2lsQg0R-dCpvEdEGhE", "scope": "GOOGLE", "types": ["transit_station", "point_of_interest", "establishment"], "vicinity": "Spain"}, {"business_status": "OPERATIONAL", "geometry": {"location": {"lat": 40.16155440000001, "lng": -3.3665451}, "viewport": {"northeast": {"lat": 40.1628696302915, "lng": -3.365242669708498}, "southwest": {"lat": 40.1601716697085, "lng": -3.367940630291502}}}, "icon": "https://maps.gstatic.com/mapfiles/place_api/icons/v1/png_71/generic_business-71.png", "icon_background_color": "#7B9EB0", "icon_mask_base_uri": "https://maps.gstatic.com/mapfiles/place_api/icons/v2/generic_pinlet", "name": "Ctra.M317-Ayuntamiento", "place_id": "ChIJZxd-HmlsQg0RviKYBlqDhls", "plus_code": {"compound_code": "5J6M+J9 Valdelaguna, Spain", "global_code": "8CGR5J6M+J9"}, "reference": "ChIJZxd-HmlsQg0RviKYBlqDhls", "scope": "GOOGLE", "types": ["transit_station", "point_of_interest", "establishment"], "vicinity": "Spain"}, {"business_status": "OPERATIONAL", "geometry": {"location": {"lat": 40.16143, "lng": -3.36652}, "viewport": {"northeast": {"lat": 40.1627790302915, "lng": -3.365170769708498}, "southwest": {"lat": 40.1600810697085, "lng": -3.367868730291502}}}, "icon": "https://maps.gstatic.com/mapfiles/place_api/icons/v1/png_71/generic_business-71.png", "icon_background_color": "#7B9EB0", "icon_mask_base_uri": "https://maps.gstatic.com/mapfiles/place_api/icons/v2/generic_pinlet", "name": "Ctra.M317-Ayuntamiento", "place_id": "ChIJsatpHmlsQg0RXUByHISuBZQ", "plus_code": {"compound_code": "5J6M+H9 Valdelaguna, Spain", "global_code": "8CGR5J6M+H9"}, "reference": "ChIJsatpHmlsQg0RXUByHISuBZQ", "scope": "GOOGLE", "types": ["transit_station", "point_of_interest", "establishment"], "vicinity": "Spain"}, {"business_status": "OPERATIONAL", "geometry": {"location": {"lat": 40.1604156, "lng": -3.3705859}, "viewport": {"northeast": {"lat": 40.16175168029149, "lng": -3.369245469708498}, "southwest": {"lat": 40.1590537197085, "lng": -3.371943430291501}}}, "icon": "https://maps.gstatic.com/mapfiles/place_api/icons/v1/png_71/generic_business-71.png", "icon_background_color": "#7B9EB0", "icon_mask_base_uri": "https://maps.gstatic.com/mapfiles/place_api/icons/v2/generic_pinlet", "name": "José Antonio-Trva.de la Fuente", "place_id": "ChIJvbQ8S2ZsQg0RwG7fVXi7tMs", "plus_code": {"compound_code": "5J6H+5Q Valdelaguna, Spain", "global_code": "8CGR5J6H+5Q"}, "reference": "ChIJvbQ8S2ZsQg0RwG7fVXi7tMs", "scope": "GOOGLE", "types": ["transit_station", "point_of_interest", "establishment"], "vicinity": "Spain"}, {"business_status": "OPERATIONAL", "geometry": {"location": {"lat": 40.1606, "lng": -3.37072}, "viewport": {"northeast": {"lat": 40.1619423802915, "lng": -3.369378769708498}, "southwest": {"lat": 40.1592444197085, "lng": -3.372076730291502}}}, "icon": "https://maps.gstatic.com/mapfiles/place_api/icons/v1/png_71/generic_business-71.png", "icon_background_color": "#7B9EB0", "icon_mask_base_uri": "https://maps.gstatic.com/mapfiles/place_api/icons/v2/generic_pinlet", "name": "José Antonio-Trva.De La Fuente", "place_id": "ChIJ6UsPTGZsQg0R-cL_IzURUfQ", "plus_code": {"compound_code": "5J6H+6P Valdelaguna, Spain", "global_code": "8CGR5J6H+6P"}, "reference": "ChIJ6UsPTGZsQg0R-cL_IzURUfQ", "scope": "GOOGLE", "types": ["transit_station", "point_of_interest", "establishment"], "vicinity": "Spain"}, {"business_status": "OPERATIONAL", "geometry": {"location": {"lat": 40.1605797, "lng": -3.3707161}, "viewport": {"northeast": {"lat": 40.16193188029149, "lng": -3.369363369708498}, "southwest": {"lat": 40.1592339197085, "lng": -3.372061330291502}}}, "icon": "https://maps.gstatic.com/mapfiles/place_api/icons/v1/png_71/generic_business-71.png", "icon_background_color": "#7B9EB0", "icon_mask_base_uri": "https://maps.gstatic.com/mapfiles/place_api/icons/v2/generic_pinlet", "name": "José Antonio-Trva.de la Fuente", "place_id": "ChIJ81d0TGZsQg0RMCNYL9C_27Y", "plus_code": {"compound_code": "5J6H+6P Valdelaguna, Spain", "global_code": "8CGR5J6H+6P"}, "reference": "ChIJ81d0TGZsQg0RMCNYL9C_27Y", "scope": "GOOGLE", "types": ["transit_station", "point_of_interest", "establishment"], "vicinity": "Spain"}, {"business_status": "OPERATIONAL", "geometry": {"location": {"lat": 40.1604, "lng": -3.37059}, "viewport": {"northeast": {"lat": 40.1617497802915, "lng": -3.369240469708498}, "southwest": {"lat": 40.1590518197085, "lng": -3.371938430291502}}}, "icon": "https://maps.gstatic.com/mapfiles/place_api/icons/v1/png_71/generic_business-71.png", "icon_background_color": "#7B9EB0", "icon_mask_base_uri": "https://maps.gstatic.com/mapfiles/place_api/icons/v2/generic_pinlet", "name": "José Antonio-Trva.De La Fuente", "place_id": "ChIJYQY9S2ZsQg0RFW4KAUI1xQQ", "plus_code": {"compound_code": "5J6H+5Q Valdelaguna, Spain", "global_code": "8CGR5J6H+5Q"}, "reference": "ChIJYQY9S2ZsQg0RFW4KAUI1xQQ", "scope": "GOOGLE", "types": ["transit_station", "point_of_interest", "establishment"], "vicinity": "Spain"}, {"business_status": "OPERATIONAL", "geometry": {"location": {"lat": 40.1606, "lng": -3.36346}, "viewport": {"northeast": {"lat": 40.1619431802915, "lng": -3.362111669708498}, "southwest": {"lat": 40.15924521970851, "lng": -3.364809630291502}}}, "icon": "https://maps.gstatic.com/mapfiles/place_api/icons/v1/png_71/generic_business-71.png", "icon_background_color": "#7B9EB0", "icon_mask_base_uri": "https://maps.gstatic.com/mapfiles/place_api/icons/v2/generic_pinlet", "name": "Valdelaguna-Ctra.Villarejo", "place_id": "ChIJDeqg0mtsQg0RYg99uhvCU7g", "plus_code": {"compound_code": "5J6P+6J Valdelaguna, Spain", "global_code": "8CGR5J6P+6J"}, "reference": "ChIJDeqg0mtsQg0RYg99uhvCU7g", "scope": "GOOGLE", "types": ["transit_station", "point_of_interest", "establishment"], "vicinity": "Spain"}, {"business_status": "OPERATIONAL", "geometry": {"location": {"lat": 40.16058, "lng": -3.36332}, "viewport": {"northeast": {"lat": 40.1619345802915, "lng": -3.361970469708498}, "southwest": {"lat": 40.1592366197085, "lng": -3.364668430291502}}}, "icon": "https://maps.gstatic.com/mapfiles/place_api/icons/v1/png_71/generic_business-71.png", "icon_background_color": "#7B9EB0", "icon_mask_base_uri": "https://maps.gstatic.com/mapfiles/place_api/icons/v2/generic_pinlet", "name": "Valdelaguna-Ctra.Villarejo", "photos": [{"height": 4032, "html_attributions": ["<a href=\"https://maps.google.com/maps/contrib/105110083640296244136\">Ana herraiz</a>"], "photo_reference": "AWn5SU6kmEHvHDQtPghP6Vunn6PpU_cBIL6tYZhA1WQCPrTTIGU0RjjqYyLOVtKEhF20vQKQl0T_IrHC6Bqh2wgONYjnjlieszrxDAV-HXMY9014F42H1un-GIBl91VViu3XmB7O-feE8yFGqdYu6tceHWFPW5NS48xkaYeAP39W7BR4bqVyHFKvj2yPg46F_mSP-2BXkD_gfdOgtiXicTskOngQAYg1ni8J9TaToQ4mHOYMkKOfzcl37kN9a13qqpYHqe9Mmh3zcTrr7krUhpP1RcEHqAaqm2MlUtfly-SeMQRNtF10TEK7jgE5Nhna9oltWt5pTHlsS1KOgSbT1N4B84BkCTUaYSob6iH07y9blYlE7LY1q_JhVEhmU3aEaLD7mOZZ36U3drvj9eZ8-OnPzZJie69sQT6Pc74dPz-ylecOR4ncNposNRsif-T3vfd7X9NCNMZYY99JrAPKNsfoueVKMfdt_7JH8YRsSjuAzcxIrzKkMVlPz-7zNuCHoH6PPdnWPTemnkgldApgPqWxIKA98clugNJ2Cx9TYhg23AqpxGXyQRcAJlfny8ZHz7KjQhSrRST2MiwB-yhR5oIfZ-zypbIdyQNgC6afKcpvLP6zD9ruMmpCdGdAqDnG68W_dJ6-4g", "width": 3024}], "place_id": "ChIJUwag0mtsQg0REhHLT2s0ONY", "plus_code": {"compound_code": "5J6P+6M Valdelaguna, Spain", "global_code": "8CGR5J6P+6M"}, "reference": "ChIJUwag0mtsQg0REhHLT2s0ONY", "scope": "GOOGLE", "types": ["transit_station", "point_of_interest", "establishment"], "vicinity": "Spain"}, {"business_status": "OPERATIONAL", "geometry": {"location": {"lat": 40.1605, "lng": -3.36289}, "viewport": {"northeast": {"lat": 40.1618821302915, "lng": -3.361527719708498}, "southwest": {"lat": 40.1591841697085, "lng": -3.364225680291502}}}, "icon": "https://maps.gstatic.com/mapfiles/place_api/icons/v1/png_71/generic_business-71.png", "icon_background_color": "#7B9EB0", "icon_mask_base_uri": "https://maps.gstatic.com/mapfiles/place_api/icons/v2/generic_pinlet", "name": "Valdelaguna-Ctra.Villarejo", "place_id": "ChIJ3_BGNWpsQg0Rzl_gpsKsV6s", "plus_code": {"compound_code": "5J6P+6R Valdelaguna, Spain", "global_code": "8CGR5J6P+6R"}, "reference": "ChIJ3_BGNWpsQg0Rzl_gpsKsV6s", "scope": "GOOGLE", "types": ["transit_station", "point_of_interest", "establishment"], "vicinity": "Spain"}, {"business_status": "OPERATIONAL", "geometry": {"location": {"lat": 40.16041999999999, "lng": -3.362759999999999}, "viewport": {"northeast": {"lat": 40.1617901802915, "lng": -3.361402519708498}, "southwest": {"lat": 40.1590922197085, "lng": -3.364100480291501}}}, "icon": "https://maps.gstatic.com/mapfiles/place_api/icons/v1/png_71/generic_business-71.png", "icon_background_color": "#7B9EB0", "icon_mask_base_uri": "https://maps.gstatic.com/mapfiles/place_api/icons/v2/generic_pinlet", "name": "Valdelaguna-Ctra.Villarejo", "place_id": "ChIJv4hrNWpsQg0RQ09YPf6Mp4c", "plus_code": {"compound_code": "5J6P+5V Valdelaguna, Spain", "global_code": "8CGR5J6P+5V"}, "reference": "ChIJv4hrNWpsQg0RQ09YPf6Mp4c", "scope": "GOOGLE", "types": ["transit_station", "point_of_interest", "establishment"], "vicinity": "Spain"}]