[{"business_status": "OPERATIONAL", "geometry": {"location": {"lat": 40.82515969999999, "lng": -3.5371215}, "viewport": {"northeast": {"lat": 40.8265073802915, "lng": -3.535819219708499}, "southwest": {"lat": 40.8238094197085, "lng": -3.538517180291503}}}, "icon": "https://maps.gstatic.com/mapfiles/place_api/icons/v1/png_71/school-71.png", "icon_background_color": "#7B9EB0", "icon_mask_base_uri": "https://maps.gstatic.com/mapfiles/place_api/icons/v2/school_pinlet", "international_phone_number": "+34 918 43 04 43", "name": "Colegio Público Cardenal Cisneros", "photos": [{"height": 2592, "html_attributions": ["<a href=\"https://maps.google.com/maps/contrib/102804404598671278295\">Jesús Lastra Martínez</a>"], "photo_reference": "AWn5SU64qSZaS_DgiLOnKl3NNpxfRzrrVw0p9VmENBiO_cgIcijXWAvj3pQ56gL2FfAxHAPXi-w6WqHEV_TVb5r3Z-vqYldOnJmpHJv0rkPL4oNrsPUgEZwWajpQXcRzpLBs-bI7FnLlofhTHowfaDIObrS-ebRZbEMBdd_MpAJbx1g4a9UseWqFvkUGP4QgQjq85O8oz8RYGNGqMI9KtkaUq2H06rhENuooxJ_w-9QO_1Y9VDZRkZghREe3YP92GaJrFa3FV2b3WiR0PqqmiAJlnWpbVRXQRVHuA6m-dk1g1RBmWAd4vRV4qKcSniLEx4G8VABBbqq0qZpTu9Aej54-B2KSkD_POPtIHgUiM4tO1VuVC13PdArd2HreOEBXZA0VQsd7iTyZUP2Q8BExeJg4bRoBrI20G5bHpAbt_J8kKnKKdD2z1MpIB0orci5vtGSsR8kIhybhhqMvHCMYBg4MuNqW6YQqDeLaW-slsBn1GkgSeskV3tfJNp01GFrKvSDElTPIr75w9zprcYTE400dp4o_VrRoxzPGbS9ktCIjnvt1aAxAl1lezPyJQhdwsHgSE96dF4szYphken5PK3EWCxCF9pBxf4i-Ip4-h-5H6pqqPqqf2f2xL-vcT4KcJHRH27nPOg", "width": 4608}], "place_id": "ChIJbf_9aX_EQw0RTE4MsPp65Ww", "plus_code": {"compound_code": "RFG7+35 Torrelaguna, Spain", "global_code": "8CGRRFG7+35"}, "reference": "ChIJbf_9aX_EQw0RTE4MsPp65Ww", "scope": "GOOGLE", "types": ["school", "point_of_interest", "establishment"], "vicinity": "Calle de Fray José de Almonacid, 13, Torrelaguna"}, {"business_status": "OPERATIONAL", "geometry": {"location": {"lat": 40.8227832, "lng": -3.5381023}, "viewport": {"northeast": {"lat": 40.82417433029151, "lng": -3.536659019708498}, "southwest": {"lat": 40.82147636970851, "lng": -3.539356980291502}}}, "icon": "https://maps.gstatic.com/mapfiles/place_api/icons/v1/png_71/school-71.png", "icon_background_color": "#7B9EB0", "icon_mask_base_uri": "https://maps.gstatic.com/mapfiles/place_api/icons/v2/school_pinlet", "international_phone_number": "+34 918 43 06 08", "name": "Ilustre Colegio Procuradores de Madrid", "place_id": "ChIJJSHOdn_EQw0RzQqMfef0iak", "plus_code": {"compound_code": "RFF6+4Q Torrelaguna, Spain", "global_code": "8CGRRFF6+4Q"}, "reference": "ChIJJSHOdn_EQw0RzQqMfef0iak", "scope": "GOOGLE", "types": ["school", "point_of_interest", "establishment"], "vicinity": "Calle Malacuera, 36, Torrelaguna"}, {"business_status": "OPERATIONAL", "geometry": {"location": {"lat": 40.8345716, "lng": -3.4957567}, "viewport": {"northeast": {"lat": 40.8359436302915, "lng": -3.494370369708498}, "southwest": {"lat": 40.8332456697085, "lng": -3.497068330291502}}}, "icon": "https://maps.gstatic.com/mapfiles/place_api/icons/v1/png_71/school-71.png", "icon_background_color": "#7B9EB0", "icon_mask_base_uri": "https://maps.gstatic.com/mapfiles/place_api/icons/v2/school_pinlet", "international_phone_number": "+34 918 43 09 69", "name": "Escuela de Educación Infantil Torremocha de Jarama", "place_id": "ChIJ888CTlfBQw0R5srVNqNDf8U", "plus_code": {"compound_code": "RGM3+RM Torremocha de Jarama, Spain", "global_code": "8CGRRGM3+RM"}, "reference": "ChIJ888CTlfBQw0R5srVNqNDf8U", "scope": "GOOGLE", "types": ["school", "point_of_interest", "establishment"], "vicinity": "Calle Río Jarama, 18, Torremocha de Jarama"}, {"business_status": "OPERATIONAL", "geometry": {"location": {"lat": 40.8252006, "lng": -3.5371476}, "viewport": {"northeast": {"lat": 40.82653133029149, "lng": -3.535836519708498}, "southwest": {"lat": 40.8238333697085, "lng": -3.538534480291502}}}, "icon": "https://maps.gstatic.com/mapfiles/place_api/icons/v1/png_71/school-71.png", "icon_background_color": "#7B9EB0", "icon_mask_base_uri": "https://maps.gstatic.com/mapfiles/place_api/icons/v2/school_pinlet", "international_phone_number": "+34 918 43 09 04", "name": "Escuela de Educación Infantil Torrelaguna", "place_id": "ChIJbf_9aX_EQw0RyCrUM96i_Zg", "plus_code": {"compound_code": "RFG7+34 Torrelaguna, Spain", "global_code": "8CGRRFG7+34"}, "rating": 5, "reference": "ChIJbf_9aX_EQw0RyCrUM96i_Zg", "scope": "GOOGLE", "types": ["school", "point_of_interest", "establishment"], "user_ratings_total": 2, "vicinity": "Calle de Fray José de Almonacid, 13, Torrelaguna"}, {"business_status": "OPERATIONAL", "geometry": {"location": {"lat": 40.8375878, "lng": -3.4975305}, "viewport": {"northeast": {"lat": 40.8387146802915, "lng": -3.496169469708498}, "southwest": {"lat": 40.8360167197085, "lng": -3.498867430291502}}}, "icon": "https://maps.gstatic.com/mapfiles/place_api/icons/v1/png_71/school-71.png", "icon_background_color": "#7B9EB0", "icon_mask_base_uri": "https://maps.gstatic.com/mapfiles/place_api/icons/v2/school_pinlet", "international_phone_number": "+34 918 43 13 14", "name": "CRA El Jarama, escuela de Torremocha de Jarama", "opening_hours": {"open_now": false}, "photos": [{"height": 1080, "html_attributions": ["<a href=\"https://maps.google.com/maps/contrib/118147898703671122904\">Eduardo Carralero</a>"], "photo_reference": "AWn5SU5YfHY5y16DC1ntinZPB7t9KIoBdqd6v97SggHfsMVB8XXUhzOBhqu0cYafg_HWAIg1A-JhC-xRWofYH5QTkLoMSYghqQlRdLdAtk357mFkw5QxKF4aUWJ3-2Oqp9WDhg02e6Y_cjQ-xZmQTCDopDKUWFguz4z_aeprBLeUn8qM2orbQX4jnY2ySnQq39mKmnTapFhgzD5cjqLIbESo1VH2Lgm7P-kjWiHZUTHXNFUJllgUGvHHZWkocqJhFf90akMMp37Qz5wcT_65BXQaqafKSjQttaNwWn9Dd_fRJ8mknNwr3u6XKDNcreSvF6gV8q88z2uobmPKnCikX-nPDzXYSBK1ndJFzS4wytVGW2BB_l4pNGoitdSwUAvjnkL0bgLTqwmYtfZrL1CpeyWqRok3e0wSRPXFqKUnM1WUIp2mNGKMnZtnvsBcI5zXKA0O8tflnxuNMQ9U5IfC-yD5w_vpAyL9SIVTnNBko1U8SUHw1kavpSPapzN2yLudExgm8I8CsIKfJIpT1k5Bn4zsO5PedAjDN-Yl7FOeBKU7dIHfAdOwOgYF9p4VkGNYXkELrAAFVDQiBxwW-k63QbjCxoTHTbNVzxvXAJ04MxXZr6Fwj1xxouA9n5JIodwydlxDUtx8pQ", "width": 1920}], "place_id": "ChIJkYkCrFnBQw0RIKRzgBWzfiA", "plus_code": {"compound_code": "RGQ2+2X Torremocha de Jarama, Spain", "global_code": "8CGRRGQ2+2X"}, "reference": "ChIJkYkCrFnBQw0RIKRzgBWzfiA", "scope": "GOOGLE", "types": ["school", "point_of_interest", "establishment"], "vicinity": "C. de San Pedro, 3, Torremocha de Jarama"}, {"business_status": "OPERATIONAL", "geometry": {"location": {"lat": 40.7881813, "lng": -3.5058658}, "viewport": {"northeast": {"lat": 40.7896842802915, "lng": -3.504409019708498}, "southwest": {"lat": 40.7869863197085, "lng": -3.507106980291502}}}, "icon": "https://maps.gstatic.com/mapfiles/place_api/icons/v1/png_71/school-71.png", "icon_background_color": "#7B9EB0", "icon_mask_base_uri": "https://maps.gstatic.com/mapfiles/place_api/icons/v2/school_pinlet", "international_phone_number": "+34 918 41 75 40", "name": "International Educational Center Jarama", "opening_hours": {"open_now": true}, "photos": [{"height": 1080, "html_attributions": ["<a href=\"https://maps.google.com/maps/contrib/115533750741988636421\">Centro Educativo Internacional El Jarama</a>"], "photo_reference": "AWn5SU5lGCfmlHS7HQPus89ZchlgMoC7ZyhNQnOFzKD3Y-FIdpGeWQnUd_lwKSeVWxiXrR5KfRlJaC03fHEuDbFaPU-mjdt5QMw6HYVUupz1INClOeq0N_HPSV-71SQP08NvJzBKFQLMjZnclUBD1Vz28QlYtd87MtJY-zEuCT1Lx_bLFwNiyOSeB0bEOEy6UiJyXtawVOTVCVRduzLkR192v42zef_b9cAx4fCsjJZVq6kenUP6QMGzVvN0m-Af2kTCZnm5bw-BgsFmfVUjehLE10Qja-tv2zZqffDx8xPwtCJE824FFDjo5bwrrtYPYTm4IXHT3jRTstg", "width": 1920}], "place_id": "ChIJJZvZDvfFQw0R2os2uGdaJno", "plus_code": {"compound_code": "QFQV+7M Talamanca de Jarama, Spain", "global_code": "8CGRQFQV+7M"}, "rating": 4.8, "reference": "ChIJJZvZDvfFQw0R2os2uGdaJno", "scope": "GOOGLE", "types": ["lodging", "school", "point_of_interest", "establishment"], "user_ratings_total": 442, "vicinity": "Crtra. de Caraquiz, km. 2,200, Talamanca de Jarama"}, {"business_status": "OPERATIONAL", "geometry": {"location": {"lat": 40.8282547, "lng": -3.5415179}, "viewport": {"northeast": {"lat": 40.8296617802915, "lng": -3.540231569708499}, "southwest": {"lat": 40.8269638197085, "lng": -3.542929530291502}}}, "icon": "https://maps.gstatic.com/mapfiles/place_api/icons/v1/png_71/school-71.png", "icon_background_color": "#7B9EB0", "icon_mask_base_uri": "https://maps.gstatic.com/mapfiles/place_api/icons/v2/school_pinlet", "international_phone_number": "+34 918 48 56 54", "name": "I.E.S. Alto Jarama", "opening_hours": {"open_now": false}, "photos": [{"height": 2592, "html_attributions": ["<a href=\"https://maps.google.com/maps/contrib/102804404598671278295\">Jesús Lastra Martínez</a>"], "photo_reference": "AWn5SU6jSeyW7iHB4BCl6kvfPO5ni95Xl697NiAzBa0_BVLwtfWO-VHdIQvl6lYARhQlYQGEn1qnX41x5rWjOxdhVeh-INIWlRGfSsDNqgsYCB6dAz8ZspPXlhmYfYnW-oSQBPw-lEWETcPWO6HMQFVn5Xa5mL0jV6XQnkvrIpPoWmOTC_8FUOJ4YWeoEFlDQZSYvHqh_-NWIHRspPm9CZotV1j_kag1snYwu3qe6vHD7AvMjN2NEy6ouvgvOnAfBHjpNJbYlstnfAR3jsbQRZhnC-VCqka_lgegXgwrRgj-8CDD0gxwQWwsL2uM11UMBvZh7u7CFx33WRrNbmNXLmKfQNCBvO0OG8N0KaHa7ZANzfn3NdKbCWZf81Z6-0MO01TU8iqoHj3TTZhlHlU7rAImDcztyMJC8BoMRpQ5BButDTWc8O2hghSEF6TjpxgJbae4X8icIniN1L4x2Dm9-RBy8gILVOA6Hcw7tj3xSj9PyIb0KtpXQUyHRy19aLy1GSXQTLv5rtww6HtohvTVaOBjfUJSobCdBsOcZnBcIFRFgxsT9vFynbbqsQTJwbp1p8eoT6nhLcniYNmlmr_lDKs0PgS1XCfRUDlQT3ID0Aa-jnZzNp7sHrRIswGkn79Vh-8UrqkYrq7_", "width": 4608}], "place_id": "ChIJf9-vWH_DQw0Rsf3icBEPtlk", "plus_code": {"compound_code": "RFH5+89 Torrelaguna, Spain", "global_code": "8CGRRFH5+89"}, "reference": "ChIJf9-vWH_DQw0Rsf3icBEPtlk", "scope": "GOOGLE", "types": ["school", "point_of_interest", "establishment"], "vicinity": "Calle de la Caja de Ahorros y Monte de Piedad, 13, Torrelaguna"}, {"business_status": "OPERATIONAL", "geometry": {"location": {"lat": 40.8513793, "lng": -3.487421899999999}, "viewport": {"northeast": {"lat": 40.85279063029149, "lng": -3.485989119708498}, "southwest": {"lat": 40.85009266970849, "lng": -3.488687080291502}}}, "icon": "https://maps.gstatic.com/mapfiles/place_api/icons/v1/png_71/school-71.png", "icon_background_color": "#7B9EB0", "icon_mask_base_uri": "https://maps.gstatic.com/mapfiles/place_api/icons/v2/school_pinlet", "international_phone_number": "+34 918 43 21 35", "name": "C.R.A. El Jarama, escuela de Patones.", "opening_hours": {"open_now": false}, "place_id": "ChIJs_3OAoLBQw0RhHmLL_I35U4", "plus_code": {"compound_code": "VG27+H2 Patones, Spain", "global_code": "8CGRVG27+H2"}, "reference": "ChIJs_3OAoLBQw0RhHmLL_I35U4", "scope": "GOOGLE", "types": ["primary_school", "school", "point_of_interest", "establishment"], "vicinity": "Calle Canal de Isabel II, 6, Patones"}, {"business_status": "OPERATIONAL", "geometry": {"location": {"lat": 40.8517412, "lng": -3.4874206}, "viewport": {"northeast": {"lat": 40.8530633302915, "lng": -3.486103819708498}, "southwest": {"lat": 40.8503653697085, "lng": -3.488801780291502}}}, "icon": "https://maps.gstatic.com/mapfiles/place_api/icons/v1/png_71/school-71.png", "icon_background_color": "#7B9EB0", "icon_mask_base_uri": "https://maps.gstatic.com/mapfiles/place_api/icons/v2/school_pinlet", "name": "Cole PATONES", "photos": [{"height": 3008, "html_attributions": ["<a href=\"https://maps.google.com/maps/contrib/117482855401222253799\">JL TC</a>"], "photo_reference": "AWn5SU7Fq4qPlcp2K1GjzRM5lS8VDbDhmqGGUjmkDEK9wCGvi5ckDwLzET1hVdbamYW2t7m29sHMvevUG-7Qh6edXZwkHVvgzd-cpJWZ34ScI3vFRGYDU11pzhLATjhr-q64THlvWKvvtUj-fMQeN1fL8SoEELguqh065s9u1XHw717-z2Dlb-cGqb2U6mTn4i9EDATOe5nFnL1sjQFPVjF6iTE8mFi5D9RmWIEwVOkAPMyatu-wfYwUHKk-ZFHvk7OqsbAAntO-rSeDHcZFzhfCkKEB8GJrUWz9iFz9IhsWqu5VJTwg3G2UNKGz2Hrtgy-JE9lamD1wDAnogj6iG2cvwFA1iXvUiD4-fGoxkiIMBQNVmpzjbPx8qI8n5svXve9NffVEqQiMRBJ8X8quzdUTYMmOMeo2lp21BGKBflNGO8zCdT1FVQkSS-JL2KdmTiKq83Hlr2KO39MSh_iBeTCdKXA2WdPPdkOd5Ptoca_lnCKNmqCcGiW5xIuwis2E861-mPqxRlLXEZVWTlRKZLFsrwEJNPLEqqjukGVzXRVbvM2X0Wd6YhrHjl2KrxZCttprNvm4LVbhoJ1kltt5pxkLbmnwFlWHI8Y5Ec95JvaAiRvps5zPDtYM6jY4qTfCcMqL", "width": 5344}], "place_id": "ChIJceAbFFrBQw0Rmi566fwaCs0", "plus_code": {"compound_code": "VG27+M2 Patones, Spain", "global_code": "8CGRVG27+M2"}, "reference": "ChIJceAbFFrBQw0Rmi566fwaCs0", "scope": "GOOGLE", "types": ["school", "point_of_interest", "establishment"], "vicinity": "Calle Canal de Isabel II, Patones"}, {"business_status": "OPERATIONAL", "geometry": {"location": {"lat": 40.85588119999999, "lng": -3.4833958}, "viewport": {"northeast": {"lat": 40.85729268029149, "lng": -3.482132869708499}, "southwest": {"lat": 40.85459471970849, "lng": -3.484830830291502}}}, "icon": "https://maps.gstatic.com/mapfiles/place_api/icons/v1/png_71/school-71.png", "icon_background_color": "#7B9EB0", "icon_mask_base_uri": "https://maps.gstatic.com/mapfiles/place_api/icons/v2/school_pinlet", "international_phone_number": "+34 918 43 22 14", "name": "Escuela De Educación Infantil Casa De Niños Patones", "place_id": "ChIJK7DceXLBQw0R-BHF7iYtafY", "plus_code": {"compound_code": "VG48+9J Patones, Spain", "global_code": "8CGRVG48+9J"}, "reference": "ChIJK7DceXLBQw0R-BHF7iYtafY", "scope": "GOOGLE", "types": ["school", "point_of_interest", "establishment"], "vicinity": "Avenida de Madrid, 82, Patones"}, {"business_status": "OPERATIONAL", "geometry": {"location": {"lat": 40.8408279, "lng": -3.4628562}, "viewport": {"northeast": {"lat": 40.84214113029149, "lng": -3.461678269708498}, "southwest": {"lat": 40.8394431697085, "lng": -3.464376230291502}}}, "icon": "https://maps.gstatic.com/mapfiles/place_api/icons/v1/png_71/school-71.png", "icon_background_color": "#7B9EB0", "icon_mask_base_uri": "https://maps.gstatic.com/mapfiles/place_api/icons/v2/school_pinlet", "international_phone_number": "+34 949 85 64 84", "name": "CEIP García Lorca", "opening_hours": {"open_now": false}, "place_id": "ChIJUSEKQrzBQw0Rn0F6WXz982Y", "plus_code": {"compound_code": "RGRP+8V Uceda, Spain", "global_code": "8CGRRGRP+8V"}, "reference": "ChIJUSEKQrzBQw0Rn0F6WXz982Y", "scope": "GOOGLE", "types": ["school", "point_of_interest", "establishment"], "vicinity": "Calle las Cercas, s/n, Uceda"}, {"business_status": "OPERATIONAL", "geometry": {"location": {"lat": 40.8246175, "lng": -3.5378104}, "viewport": {"northeast": {"lat": 40.82597223029151, "lng": -3.536424119708498}, "southwest": {"lat": 40.82327426970851, "lng": -3.539122080291502}}}, "icon": "https://maps.gstatic.com/mapfiles/place_api/icons/v1/png_71/school-71.png", "icon_background_color": "#7B9EB0", "icon_mask_base_uri": "https://maps.gstatic.com/mapfiles/place_api/icons/v2/school_pinlet", "international_phone_number": "+34 914 48 13 81", "name": "Cip San Cristóbal", "place_id": "ChIJfYzzpKzDQw0Rv-z6Hk16CnY", "plus_code": {"compound_code": "RFF6+RV Torrelaguna, Spain", "global_code": "8CGRRFF6+RV"}, "reference": "ChIJfYzzpKzDQw0Rv-z6Hk16CnY", "scope": "GOOGLE", "types": ["school", "point_of_interest", "establishment"], "vicinity": "Travesía de Bravo Murillo, 39, Torrelaguna"}, {"business_status": "OPERATIONAL", "geometry": {"location": {"lat": 40.856758, "lng": -3.4498346}, "viewport": {"northeast": {"lat": 40.8586285302915, "lng": -3.448823369708498}, "southwest": {"lat": 40.85593056970851, "lng": -3.451521330291502}}}, "icon": "https://maps.gstatic.com/mapfiles/place_api/icons/v1/png_71/school-71.png", "icon_background_color": "#7B9EB0", "icon_mask_base_uri": "https://maps.gstatic.com/mapfiles/place_api/icons/v2/school_pinlet", "international_phone_number": "+34 949 85 79 64", "name": "Escuela infantil sueños", "place_id": "ChIJq6qqqvrAQw0RlRxCC-kvOZU", "reference": "ChIJq6qqqvrAQw0RlRxCC-kvOZU", "scope": "GOOGLE", "types": ["school", "point_of_interest", "establishment"], "vicinity": "C/ Niza Urbanización, s/n, Caraquiz"}, {"business_status": "OPERATIONAL", "geometry": {"location": {"lat": 40.79534539999999, "lng": -3.485358299999999}, "viewport": {"northeast": {"lat": 40.7966962302915, "lng": -3.484040519708498}, "southwest": {"lat": 40.7939982697085, "lng": -3.486738480291502}}}, "icon": "https://maps.gstatic.com/mapfiles/place_api/icons/v1/png_71/school-71.png", "icon_background_color": "#7B9EB0", "icon_mask_base_uri": "https://maps.gstatic.com/mapfiles/place_api/icons/v2/school_pinlet", "international_phone_number": "+34 949 85 79 64", "name": "Escuela Infantil \"Sueños\". Caraquiz. Uceda", "opening_hours": {"open_now": false}, "photos": [{"height": 2736, "html_attributions": ["<a href=\"https://maps.google.com/maps/contrib/115085428164456002220\">Juan Carlos Marcos</a>"], "photo_reference": "AWn5SU6Hab4G61gpTyOzwYtt7e1AFzOm5shy6r4NlTP_xwemntjO_sUBmusKNX-NK3UqAq4AumCWw33ogwrq3UV3WmKWiUYV-ayHnG-iDd6xIHJ2qLu42kBK5K8Yj_vOp5R2_QbeA_GvMsx7Nkcx9oIwovfzbPUbAim_m17EswMIwiAmIvOd5ZPB3oQAuNwS1-HIJq7cihu91RBoOfPNbks7rBO69V0MSoA-1pxsaI0GGhomtqY0JpmLPrDuSk2SXt9qQOO0bQR0qWA3wSu7v4XdNEUEoRCJTn-8gbqyXB7oac-WkHefke_sfdQXZ4q_iQY9J5OLD3uf_onGuuzR7q3irEecEowga26_2Uh9Gyas5pg54zbRIhw7OoINmJJ7B7mznmFZSF-k3xCOV5g_5d8tXqD5RX68xAy0pe0C41kTTUCuaQ8l8ASB7eueWQWvdoq4kSdV-MUUXOvcClys5_szX8X4sP6oOK7sucs25PcnheOkjs1c4v9RnxRf3Y0T7rO6EUjvfKNRASSPgEMtEB-YuzAKPfozlC37PxROaCByBqkD-3hQsBtvwKAsLLaX6dQ07lefo72kxTC34YXIDaBeWJnP16XE12TQY3GknHCY0KEvTHnzVuHNX-BWrkIuxwkKEbozvQ", "width": 3648}], "place_id": "ChIJncjS_pHGQw0REA6uLfjGRoo", "plus_code": {"compound_code": "QGW7+4V Uceda, Spain", "global_code": "8CGRQGW7+4V"}, "rating": 4.9, "reference": "ChIJncjS_pHGQw0REA6uLfjGRoo", "scope": "GOOGLE", "types": ["school", "point_of_interest", "establishment"], "user_ratings_total": 17, "vicinity": "Calle Valladolid, 10, Uceda"}]