[{"business_status": "OPERATIONAL", "geometry": {"location": {"lat": 40.4265474, "lng": -3.537405399999999}, "viewport": {"northeast": {"lat": 40.4278922302915, "lng": -3.536107819708498}, "southwest": {"lat": 40.4251942697085, "lng": -3.538805780291501}}}, "icon": "https://maps.gstatic.com/mapfiles/place_api/icons/v1/png_71/bank-71.png", "icon_background_color": "#909CE1", "icon_mask_base_uri": "https://maps.gstatic.com/mapfiles/place_api/icons/v2/bank-intl_pinlet", "international_phone_number": "+34 916 71 70 14", "name": "BBVA", "opening_hours": {"open_now": false}, "photos": [{"height": 720, "html_attributions": ["<a href=\"https://maps.google.com/maps/contrib/113118885142098305413\">BBVA</a>"], "photo_reference": "AWn5SU7qk5cg3xSXkcFBHF1AiDvj0wxrCQbqz2jNLfuGLgeiBU93STtLTRsUBSC96eIq01tfmeZrOgrpAuVdVHgwCFob422MWjrZa52Vto7Y7RqcgMyiya1j2OfJC2OCiB7zJqH4rZhOQ5MxhiohFVht61JKBRS7gL6sCJdLs7qywWxEC8mKRlJ27lQ_rpUhOY4g9YZoQlEoRbGGA8CMn7iagyp9Avfa8odOUZSx70Lk4r9JPQDcG6MBRFt4JiYm-Zz8VizB9LvWBQISFOJ51zwDe2ttKpaYd680yFfuy5NGl6kQWDiuhKsCq3sEUw5xun4XECa6ZiLi93A", "width": 1280}], "place_id": "ChIJmeiDc4owQg0RPdOatT1Cvbk", "plus_code": {"compound_code": "CFG7+J2 San Fernando de Henares, Spain", "global_code": "8CGRCFG7+J2"}, "rating": 2.2, "reference": "ChIJmeiDc4owQg0RPdOatT1Cvbk", "scope": "GOOGLE", "types": ["bank", "atm", "accounting", "finance", "point_of_interest", "establishment"], "user_ratings_total": 63, "vicinity": "Avenida de la Cañada, 14, San Fernando de Henares"}, {"business_status": "OPERATIONAL", "geometry": {"location": {"lat": 40.4258018, "lng": -3.5456719}, "viewport": {"northeast": {"lat": 40.42719553029149, "lng": -3.544456719708498}, "southwest": {"lat": 40.42449756970849, "lng": -3.547154680291502}}}, "icon": "https://maps.gstatic.com/mapfiles/place_api/icons/v1/png_71/bank-71.png", "icon_background_color": "#909CE1", "icon_mask_base_uri": "https://maps.gstatic.com/mapfiles/place_api/icons/v2/bank-intl_pinlet", "international_phone_number": "+34 916 73 27 21", "name": "BBVA", "opening_hours": {"open_now": false}, "photos": [{"height": 720, "html_attributions": ["<a href=\"https://maps.google.com/maps/contrib/109728747240176389244\">BBVA</a>"], "photo_reference": "AWn5SU7w8iy8NoqwXl7w4llcYpDMixrUV1T3_JMzAImffA5CY_0AxLTHn_8wmDSI87lhYCryV_RtPvic3tsHItOZh0ORGtyj9cl1D9SRKJ5KrfnuKYYJ0Nb3JT0bBcWTxzuM0auKI6PkcJcGCqyUoBYOlSkixLgabqX8TsZdLx138KQGF922rly9rX6uZeyn2AV6yy3DlNUOP-NraLTKaZ0aqniWZc-Vp5MKaEi6O0vIzwgcNudb9Shagu9AhvQLdOuaNqLrHRRcCz0rtEXV_aBGxF_tit8x91JMTq95OVJhm4qM3o1jKpOsSqPSGkn42-60UNlxhyI3IKE", "width": 1280}], "place_id": "ChIJB0MFgnwwQg0RYUs-vlA7gpY", "plus_code": {"compound_code": "CFG3+8P Coslada, Spain", "global_code": "8CGRCFG3+8P"}, "rating": 2.5, "reference": "ChIJB0MFgnwwQg0RYUs-vlA7gpY", "scope": "GOOGLE", "types": ["bank", "atm", "accounting", "finance", "point_of_interest", "establishment"], "user_ratings_total": 50, "vicinity": "Calle de Méjico, 12, Coslada"}, {"business_status": "OPERATIONAL", "geometry": {"location": {"lat": 40.44453000000001, "lng": -3.482151}, "viewport": {"northeast": {"lat": 40.4459100802915, "lng": -3.480885669708499}, "southwest": {"lat": 40.44321211970851, "lng": -3.483583630291502}}}, "icon": "https://maps.gstatic.com/mapfiles/place_api/icons/v1/png_71/bank-71.png", "icon_background_color": "#909CE1", "icon_mask_base_uri": "https://maps.gstatic.com/mapfiles/place_api/icons/v2/bank-intl_pinlet", "international_phone_number": "+34 916 48 71 13", "name": "cesce", "opening_hours": {"open_now": false}, "place_id": "ChIJSUItZT43Qg0RDl8ff3eleLU", "plus_code": {"compound_code": "CGV9+R4 Torrejón de Ardoz, Spain", "global_code": "8CGRCGV9+R4"}, "reference": "ChIJSUItZT43Qg0RDl8ff3eleLU", "scope": "GOOGLE", "types": ["bank", "finance", "point_of_interest", "establishment"], "vicinity": "Calle Trópico, 6, Torrejón de Ardoz"}, {"business_status": "OPERATIONAL", "geometry": {"location": {"lat": 40.4576558, "lng": -3.4793969}, "viewport": {"northeast": {"lat": 40.45923373029149, "lng": -3.478034719708498}, "southwest": {"lat": 40.45653576970849, "lng": -3.480732680291502}}}, "icon": "https://maps.gstatic.com/mapfiles/place_api/icons/v1/png_71/bank-71.png", "icon_background_color": "#909CE1", "icon_mask_base_uri": "https://maps.gstatic.com/mapfiles/place_api/icons/v2/bank-intl_pinlet", "international_phone_number": "+34 916 75 09 94", "name": "BBVA", "opening_hours": {"open_now": false}, "photos": [{"height": 720, "html_attributions": ["<a href=\"https://maps.google.com/maps/contrib/111097377896975254111\">BBVA</a>"], "photo_reference": "AWn5SU5z49pBgNCJhcfCdbgixK5Mg647uWdLlMxMntz47YvnXWxVQv0gBUbuNsxxlEiSq4Mdss_nYLJ1BQ9nKUpdt7tIIsJZgRqXKZ49BDTVKF3cs2vd6-PEJuERmmoUfcwp1DLTaNyLE2X75L5MBgRntWuk_JO9B7htBovRUrwRjENKHGNDEBNGXX0KB8jU8omHVSGk2iz4dyFXM-0veg-6ISXyt50o5SDQCFcB6Cg9j7ALq4dI_iMz1NSU9yCp0PPcdbs5TojYwxf_wag3ZujuNUJ0Skhcbt61AmOmDyOOsDX6-Alkksc8v51sqgq2NC-0AaRz0Db9koo", "width": 1280}], "place_id": "ChIJnfQ_oR83Qg0RAUA0yOuq7Bg", "plus_code": {"compound_code": "FG5C+36 Torrejón de Ardoz, Spain", "global_code": "8CGRFG5C+36"}, "rating": 1.5, "reference": "ChIJnfQ_oR83Qg0RAUA0yOuq7Bg", "scope": "GOOGLE", "types": ["bank", "atm", "accounting", "finance", "point_of_interest", "establishment"], "user_ratings_total": 98, "vicinity": "Calle Enmedio, 8, Torrejón de Ardoz"}, {"business_status": "OPERATIONAL", "geometry": {"location": {"lat": 40.3419625, "lng": -3.5213334}, "viewport": {"northeast": {"lat": 40.3433014802915, "lng": -3.520004269708498}, "southwest": {"lat": 40.3406035197085, "lng": -3.522702230291502}}}, "icon": "https://maps.gstatic.com/mapfiles/place_api/icons/v1/png_71/bank-71.png", "icon_background_color": "#909CE1", "icon_mask_base_uri": "https://maps.gstatic.com/mapfiles/place_api/icons/v2/bank-intl_pinlet", "international_phone_number": "+34 914 99 06 02", "name": "BBVA", "opening_hours": {"open_now": false}, "photos": [{"height": 720, "html_attributions": ["<a href=\"https://maps.google.com/maps/contrib/107245539166545045245\">BBVA</a>"], "photo_reference": "AWn5SU5OHwiRN7pBwHWRPcx32rdJgeUXH5CiXGP7ERRDGeIkfcaapMf_2NMY2L6uyWVo3-Gqy-o2L2LdjSCmyuu8fRFt_LC4-3pj4HJqcOppLXuzmOQpFx1yGu4fYA8YueAIj7w68IHVH1Zh3Q2KEEsv7xxcGniBKGK2sz7KVL4n_GRm9NFS1J2U8wlxewU9s0vPwzMbZsK9YRq6kUFN-x2mQTEuTcw19vE6mNg6wxq2Tipf1TEp4KwM5EURKo3RWPCUh1iWusKYwWpzIM9zE-m7ju6w_tHOvZu1DP-VcsbD8eO4ctIUabYu8tT5QUzq59QoAsxT0prKFBY", "width": 1280}], "place_id": "ChIJ6adSVr45Qg0R1Lkwo0akj3U", "plus_code": {"compound_code": "8FRH+QF Rivas-Vaciamadrid, Spain", "global_code": "8CGR8FRH+QF"}, "rating": 1.5, "reference": "ChIJ6adSVr45Qg0R1Lkwo0akj3U", "scope": "GOOGLE", "types": ["bank", "atm", "accounting", "finance", "point_of_interest", "establishment"], "user_ratings_total": 109, "vicinity": "Avenida Aurelio Álvarez, 4, Rivas-Vaciamadrid"}, {"business_status": "OPERATIONAL", "geometry": {"location": {"lat": 40.3841077, "lng": -3.4086156}, "viewport": {"northeast": {"lat": 40.3854565302915, "lng": -3.407320319708497}, "southwest": {"lat": 40.3827585697085, "lng": -3.410018280291501}}}, "icon": "https://maps.gstatic.com/mapfiles/place_api/icons/v1/png_71/bank-71.png", "icon_background_color": "#909CE1", "icon_mask_base_uri": "https://maps.gstatic.com/mapfiles/place_api/icons/v2/bank-intl_pinlet", "international_phone_number": "+34 918 86 22 02", "name": "BBVA", "opening_hours": {"open_now": false}, "photos": [{"height": 720, "html_attributions": ["<a href=\"https://maps.google.com/maps/contrib/107346531487481304707\">BBVA</a>"], "photo_reference": "AWn5SU4Gfac5ZXqxjHZ_BQ0rMoY0OiT-72Ewx1-X14VbaSNoIKiJfy7BfxceO6jesemQm5ujM8oYcGLyOs1QeYkdwv5iNLkwelkK7FcR1oPZWY4hc7w-LvyyU_cNmSr5LNAR8OBgHrUigB53q9egYoeDODgWP8rfTXbjqnLUpu5n6kXIrbRoEv644ibdau3ztUw9DwKQ8gnKJPAcXvIelasIB8EHBQrVFpNLcCDEcrCyGD2YFUvpmiKZq0kqu284AbXZdzGAklBykBVs_1Rh6xW0TbWkklGrbkc5T32pPVyzLZNYm-6uhuvxWiOp5wL-TpJFrdy6XGiKmc4", "width": 1280}], "place_id": "ChIJ4fIy2pxHQg0RTCV0FehsGBU", "plus_code": {"compound_code": "9HMR+JH Loeches, Spain", "global_code": "8CGR9HMR+JH"}, "rating": 1.7, "reference": "ChIJ4fIy2pxHQg0RTCV0FehsGBU", "scope": "GOOGLE", "types": ["bank", "atm", "accounting", "finance", "point_of_interest", "establishment"], "user_ratings_total": 25, "vicinity": "Calle la Chorrera, 4, Loeches"}, {"business_status": "OPERATIONAL", "geometry": {"location": {"lat": 40.3534055, "lng": -3.5342097}, "viewport": {"northeast": {"lat": 40.3549727802915, "lng": -3.532703019708498}, "southwest": {"lat": 40.3522748197085, "lng": -3.535400980291502}}}, "icon": "https://maps.gstatic.com/mapfiles/place_api/icons/v1/png_71/bank-71.png", "icon_background_color": "#909CE1", "icon_mask_base_uri": "https://maps.gstatic.com/mapfiles/place_api/icons/v2/bank-intl_pinlet", "international_phone_number": "+34 914 99 98 30", "name": "Banco Santander", "opening_hours": {"open_now": false}, "photos": [{"height": 720, "html_attributions": ["<a href=\"https://maps.google.com/maps/contrib/115183990587062270959\">Banco Santander</a>"], "photo_reference": "AWn5SU7HPk9cNRu0f2h3EXiDkZ5PKa-r0nWe1a-NOqnCCtYkbWwX9Y0ctgj6WeL79nLOoOChSqtvDri7GDh75z48ivC6sRzlB6GsTexUElN-yAcuGkUmGOTNT6M_5dK2PivIsafTbB0ldUYLetGQsB5LusdtUYbzKs17njhZ-rKP7cecVGxfobIMpiR06e4b6UJSFwqfDW5lkfJoY55YzBmV_csEfmJWbC6VV7igjL8DIwVDlNeIP_26feGk7sREeum7rOgSZ--LIxQiJ0EER3Ejw1DbRJbODuL-6hA5DNBSk_-W6OjN_g5ugXnsIszoz86EHy4Yu-57mPU", "width": 1280}], "place_id": "ChIJZzVPiZk7Qg0RIFQlfCrSCw4", "plus_code": {"compound_code": "9F38+98 Rivas-Vaciamadrid, Spain", "global_code": "8CGR9F38+98"}, "rating": 3.1, "reference": "ChIJZzVPiZk7Qg0RIFQlfCrSCw4", "scope": "GOOGLE", "types": ["bank", "atm", "finance", "point_of_interest", "establishment"], "user_ratings_total": 18, "vicinity": "Calle María Zambrano, 3, Rivas-Vaciamadrid"}, {"business_status": "OPERATIONAL", "geometry": {"location": {"lat": 40.3647679, "lng": -3.5490063}, "viewport": {"northeast": {"lat": 40.3661437302915, "lng": -3.547599719708498}, "southwest": {"lat": 40.3634457697085, "lng": -3.550297680291501}}}, "icon": "https://maps.gstatic.com/mapfiles/place_api/icons/v1/png_71/bank-71.png", "icon_background_color": "#909CE1", "icon_mask_base_uri": "https://maps.gstatic.com/mapfiles/place_api/icons/v2/bank-intl_pinlet", "international_phone_number": "+34 913 01 11 91", "name": "BBVA", "opening_hours": {"open_now": false}, "photos": [{"height": 720, "html_attributions": ["<a href=\"https://maps.google.com/maps/contrib/111793895417120062913\">BBVA</a>"], "photo_reference": "AWn5SU53mbedraArhFJy1k_gvPGzWc0LAPRYOA4iXvQkeL_NSQiRV0nfsUZuq4BQatG2OdEGHCB4ACvE0AWQQMWX8g79GAkNnJljsQ3S83x4vi4yngWD1KWKbtxZGjQfcMKI0IKUreeZzgqYK7PadaWYwqnJXWzYVh9Bh5qutRYuldeA3TBkaOyaDoD-LfV2LdNeffgJwazAHzmH3YPeGd897Bjz6NIC_WUqW4EM2uIUB0XJi0UsjUtUii81Ds5q-1XkRYjMwSI5TGx_iHH-at54Y4BdoktH8luBdyeOu_-ROzUnZUrrakjP0O7W64za_c0bwamq5bN8AUs", "width": 1280}], "place_id": "ChIJgeBemQ87Qg0RMZh5flo6ouA", "plus_code": {"compound_code": "9F72+W9 Rivas-Vaciamadrid, Spain", "global_code": "8CGR9F72+W9"}, "rating": 1.8, "reference": "ChIJgeBemQ87Qg0RMZh5flo6ouA", "scope": "GOOGLE", "types": ["bank", "atm", "accounting", "finance", "point_of_interest", "establishment"], "user_ratings_total": 51, "vicinity": "Avenida de Covibar, 10, Edif Azul, Rivas-Vaciamadrid"}, {"business_status": "OPERATIONAL", "geometry": {"location": {"lat": 40.3972145, "lng": -3.4845657}, "viewport": {"northeast": {"lat": 40.39857413029149, "lng": -3.483243919708498}, "southwest": {"lat": 40.3958761697085, "lng": -3.485941880291501}}}, "icon": "https://maps.gstatic.com/mapfiles/place_api/icons/v1/png_71/bank-71.png", "icon_background_color": "#909CE1", "icon_mask_base_uri": "https://maps.gstatic.com/mapfiles/place_api/icons/v2/bank-intl_pinlet", "international_phone_number": "+34 916 79 43 70", "name": "Banco Sabadell", "opening_hours": {"open_now": false}, "photos": [{"height": 1080, "html_attributions": ["<a href=\"https://maps.google.com/maps/contrib/112305435690963084643\">Banco Sabadell</a>"], "photo_reference": "AWn5SU5GeyFaHmK-GXU_YFIV4cgMdt2L0U_Z45Y5UbqbFNWeEWEUA3QgP5_zRmvUlNdD7eDLC3FueA0ZbN7P9WE5kmHm67qt9_ICNCYYt6Im4i5g9p4Y45BlMZkEKiYDCCOEF1DbJxqmz_4eG4w3DoLM1xnpVkPK7PXeyGa4Fg7dV_4AIXbJf6UASqNACR-9rKmfS3mEL-RZv-99nOL1Hi_7CPEkvHTZOL1iSCGLmRSNHgA8oFweQU8h3W0qUizpr6cQ1525KWVGt3POrBTPxUa-WHoTzK03VtHVskX1FCzcsNTckO-JcJ3OJ4k4UcnKRlCtrXqY84hzXk8", "width": 1920}], "place_id": "ChIJi4CtaLRLSQ0R7QU0EZCb1Ic", "plus_code": {"compound_code": "9GW8+V5 Mejorada del Campo, Spain", "global_code": "8CGR9GW8+V5"}, "rating": 2.9, "reference": "ChIJi4CtaLRLSQ0R7QU0EZCb1Ic", "scope": "GOOGLE", "types": ["bank", "atm", "accounting", "finance", "point_of_interest", "establishment"], "user_ratings_total": 14, "vicinity": "Calle de la Comunidad de Madrid, 1, Mejorada del Campo"}, {"business_status": "OPERATIONAL", "geometry": {"location": {"lat": 40.3974778, "lng": -3.4845963}, "viewport": {"northeast": {"lat": 40.3987732802915, "lng": -3.483275269708498}, "southwest": {"lat": 40.3960753197085, "lng": -3.485973230291501}}}, "icon": "https://maps.gstatic.com/mapfiles/place_api/icons/v1/png_71/bank-71.png", "icon_background_color": "#909CE1", "icon_mask_base_uri": "https://maps.gstatic.com/mapfiles/place_api/icons/v2/bank-intl_pinlet", "international_phone_number": "+34 916 79 05 90", "name": "BBVA", "opening_hours": {"open_now": false}, "photos": [{"height": 720, "html_attributions": ["<a href=\"https://maps.google.com/maps/contrib/100623769660522165198\">BBVA</a>"], "photo_reference": "AWn5SU4bUcADdh9K4B5NNHl2sfVp_a8jGJlp9xvzVpiV9NtRtbIEFe_nJnXS9Fgi46pHRCY0OM44lT6XzscvvTGT98lDaO9qWMoJLp2WmN4jOqT18KHuscnNWvhdQnATFtOXa6p9Vr8jy8V_od7LsfTl9deCFL5kqiWzrHmr7C-IECN_KSfvSxqk7A1WyP4QTnaVnm5zHWbMtfUAIygl4eWLWRggurb0WcDLaOvRPHTj-ra_YebaS0RXerSSYbO19KFbC1iluAbAwEJUo94_4QE03ukX7vz4rTELgHUM7gh1PN1EjYu75zR6ncB3u33IL7iJr48Dhr_GHeM", "width": 1280}], "place_id": "ChIJA7V3kJQ5Qg0RiWAF8ithjfE", "plus_code": {"compound_code": "9GW8+X5 Mejorada del Campo, Spain", "global_code": "8CGR9GW8+X5"}, "rating": 1.7, "reference": "ChIJA7V3kJQ5Qg0RiWAF8ithjfE", "scope": "GOOGLE", "types": ["bank", "atm", "accounting", "finance", "point_of_interest", "establishment"], "user_ratings_total": 47, "vicinity": "Calle Mayor, 20, Mejorada del Campo"}, {"business_status": "OPERATIONAL", "geometry": {"location": {"lat": 40.4294651, "lng": -3.5330019}, "viewport": {"northeast": {"lat": 40.4309353302915, "lng": -3.531759069708498}, "southwest": {"lat": 40.4282373697085, "lng": -3.534457030291502}}}, "icon": "https://maps.gstatic.com/mapfiles/place_api/icons/v1/png_71/bank-71.png", "icon_background_color": "#909CE1", "icon_mask_base_uri": "https://maps.gstatic.com/mapfiles/place_api/icons/v2/bank-intl_pinlet", "international_phone_number": "+34 916 73 98 12", "name": "Banco Sabadell", "opening_hours": {"open_now": false}, "photos": [{"height": 1080, "html_attributions": ["<a href=\"https://maps.google.com/maps/contrib/100857424894786589435\">Banco Sabadell</a>"], "photo_reference": "AWn5SU5jJSXEQcdcTwxYCQ3icK5uCeiHdqfBqOdMkpTgS3TWA6_xdFzswvWkx-8W3ps8cgSJVXNiJINlbyDPlXK5EmnY8OHpzqpoBlgjUbwTzpv3kLltzk5rtV_HGBE77vYhX3ESI0Lf61O6nRgSLtcURJwqNiBRcR6yCzmKvMGacbX2e_Bk4aLSzsGLPzd95NwG3L_uTyylynpz799d7gTNhkcmTu4qVRf_jNA04GzqN9GVoAH03TO3m4F10EwXN1_3vkeZYYnEl2cW3qFuTRRFlDPFavbYZ29xxkkueguU1j6WywK0fVzWyy5DthLkyzxWW3DMR6Hwsvc", "width": 1920}], "place_id": "ChIJ2WWyOsd7pRIRlKk41QnpgVA", "plus_code": {"compound_code": "CFH8+QQ San Fernando de Henares, Spain", "global_code": "8CGRCFH8+QQ"}, "rating": 2.1, "reference": "ChIJ2WWyOsd7pRIRlKk41QnpgVA", "scope": "GOOGLE", "types": ["bank", "atm", "accounting", "finance", "point_of_interest", "establishment"], "user_ratings_total": 29, "vicinity": "Calle de José Alix Alix, 18, San Fernando de Henares"}, {"business_status": "OPERATIONAL", "geometry": {"location": {"lat": 40.42531859999999, "lng": -3.533264199999999}, "viewport": {"northeast": {"lat": 40.4266598802915, "lng": -3.531501519708498}, "southwest": {"lat": 40.4239619197085, "lng": -3.534199480291501}}}, "icon": "https://maps.gstatic.com/mapfiles/place_api/icons/v1/png_71/bank-71.png", "icon_background_color": "#909CE1", "icon_mask_base_uri": "https://maps.gstatic.com/mapfiles/place_api/icons/v2/bank-intl_pinlet", "international_phone_number": "+34 600 40 40 90", "name": "CaixaBank Store", "opening_hours": {"open_now": false}, "photos": [{"height": 1192, "html_attributions": ["<a href=\"https://maps.google.com/maps/contrib/101813661670220165485\">CaixaBank Store</a>"], "photo_reference": "AWn5SU77EP4MVRIQAdpZaN1sb0_V36qviA31BGtJhe60HQgutjVw0lmp-QyWgTd-glyoVN1RWypCMoDE0Zosp_ch3PYJTHMNbvZKRt7rG0XfEkl54_TnpeQEMmdoeXy0ZifwgFiwvgS_h97bjmwEsGCAxCpL_ZYvmPO6-5DlWngMECVvLoeDoHR32-_xkAQj4YeDyowkHX2OkfO2wzdwu9bgzZAwJ5P7YaZiqjxV8s9Yb8I6BGR5_IQSMWOgG9mf_vQcwL5VbnGJ_uS8JaTAwqh4FLEHjJfoFqD0s6pu5GjHG6Hs8KRmvjADE7T_sPL7UjnD-FUJz0XFSk8", "width": 2120}], "place_id": "ChIJX7NM6n8wQg0Rrfhr_YTOZLo", "plus_code": {"compound_code": "CFG8+4M San Fernando de Henares, Spain", "global_code": "8CGRCFG8+4M"}, "rating": 2, "reference": "ChIJX7NM6n8wQg0Rrfhr_YTOZLo", "scope": "GOOGLE", "types": ["bank", "finance", "point_of_interest", "establishment"], "user_ratings_total": 58, "vicinity": "Calle de la Libertad, 3, San Fernando de Henares"}, {"business_status": "OPERATIONAL", "geometry": {"location": {"lat": 40.4260439, "lng": -3.533502599999999}, "viewport": {"northeast": {"lat": 40.4274266802915, "lng": -3.532094269708498}, "southwest": {"lat": 40.4247287197085, "lng": -3.534792230291502}}}, "icon": "https://maps.gstatic.com/mapfiles/place_api/icons/v1/png_71/bank-71.png", "icon_background_color": "#909CE1", "icon_mask_base_uri": "https://maps.gstatic.com/mapfiles/place_api/icons/v2/bank-intl_pinlet", "international_phone_number": "+34 916 74 86 50", "name": "Cajamar Caja Rural", "opening_hours": {"open_now": false}, "photos": [{"height": 608, "html_attributions": ["<a href=\"https://maps.google.com/maps/contrib/106027029740820588748\">Cajamar Caja Rural</a>"], "photo_reference": "AWn5SU6LVYNCmzpjoPuRAFjy9rbq_QYCgWHz4HdWw7O1lcIaLVwmfDirhzrI4xzZVqRi_F_eEg5StNATjqZKTZynFXfmRxA1sxzs_V-948VnP2RHvbM9p2oFqesFCCL4tEebb1eNikP8BZjwtLTq0pDArpj6FnT6fK0v-neWs09Tng1UpoUjBDqkWzeXwRMQcDq78cJbhiYPlPFz0bjSr98dP5tgxgb8Jr_GhPDVh42lkgBdkvHHa5LJql8L7feCVUpSinaxAD1tAnbNNzK9CmwqFOwCq68lvYrOplxiQd5OCT_P5IeAsvK2R-ZUZ_FGuozcz_HXIEMuqm4", "width": 1080}], "place_id": "ChIJgRkJq4UwQg0RYloC-___3mQ", "plus_code": {"compound_code": "CFG8+CH San Fernando de Henares, Spain", "global_code": "8CGRCFG8+CH"}, "rating": 3.3, "reference": "ChIJgRkJq4UwQg0RYloC-___3mQ", "scope": "GOOGLE", "types": ["bank", "atm", "insurance_agency", "finance", "point_of_interest", "establishment"], "user_ratings_total": 7, "vicinity": "Avenida de la Constitución, 2-4-6, San Fernando de Henares"}, {"business_status": "OPERATIONAL", "geometry": {"location": {"lat": 40.4192765, "lng": -3.5416027}, "viewport": {"northeast": {"lat": 40.4207166802915, "lng": -3.540305969708498}, "southwest": {"lat": 40.4180187197085, "lng": -3.543003930291502}}}, "icon": "https://maps.gstatic.com/mapfiles/place_api/icons/v1/png_71/bank-71.png", "icon_background_color": "#909CE1", "icon_mask_base_uri": "https://maps.gstatic.com/mapfiles/place_api/icons/v2/bank-intl_pinlet", "international_phone_number": "+34 916 74 34 85", "name": "BBVA", "opening_hours": {"open_now": false}, "photos": [{"height": 720, "html_attributions": ["<a href=\"https://maps.google.com/maps/contrib/113257804197060889084\">BBVA</a>"], "photo_reference": "AWn5SU68dp1w8Iu-DhuDqoGOOO9C4bUhL48TJn7jzQN4kE2JotrsDePVM_V4zPRIAwVJwXK1hqd_X8k92MourureYLcFa4JaejpktMdaK9yUampi0Bj3275r18hFeMOrhwlbN38V-2euZhMqLX7vnnnnyWkUTXMTzLkwwWzA_PSo8J8_RZoJ9h5zWfByYry_lWDeNmwB-HE9DJf3kNqy6JM6wYmY_Fj-zW6EQu_r_MPb3eDV0l4sMoHGeHyXAhDm1F0naYtKAYuG7osTjXdiRi6L2Ln_ri9VVSbixDeunqDZbNUNUPi3f2w_-5yLRDf7pgELINiiTX5TfCo", "width": 1280}], "place_id": "ChIJmx2D4H0wQg0Rb5G6iTroLmQ", "plus_code": {"compound_code": "CF95+P9 Coslada, Spain", "global_code": "8CGRCF95+P9"}, "rating": 3.6, "reference": "ChIJmx2D4H0wQg0Rb5G6iTroLmQ", "scope": "GOOGLE", "types": ["bank", "atm", "accounting", "finance", "point_of_interest", "establishment"], "user_ratings_total": 14, "vicinity": "Avenida de Madrid, Coslada"}, {"business_status": "OPERATIONAL", "geometry": {"location": {"lat": 40.419247, "lng": -3.541803}, "viewport": {"northeast": {"lat": 40.4206040802915, "lng": -3.540538419708498}, "southwest": {"lat": 40.4179061197085, "lng": -3.543236380291502}}}, "icon": "https://maps.gstatic.com/mapfiles/place_api/icons/v1/png_71/bank-71.png", "icon_background_color": "#909CE1", "icon_mask_base_uri": "https://maps.gstatic.com/mapfiles/place_api/icons/v2/bank-intl_pinlet", "international_phone_number": "+34 600 40 40 90", "name": "CaixaBank", "opening_hours": {"open_now": false}, "photos": [{"height": 1192, "html_attributions": ["<a href=\"https://maps.google.com/maps/contrib/112936857279536927648\">CaixaBank</a>"], "photo_reference": "AWn5SU5zW_j1ZNzha1TBoRlWFqZFtZFnX7I3hgodWmGi6zMySSusdURjj1YMnf3SqIgdtKHFTKy7iE2ZryOMzgUumD9NjBJ9CDeOdDzZUWfJTaxxkXgzpTJgmZmk6c0civn52ccIq9g2TaMnfXRp5RhwQJNFQSLEynX5Q_9QNdNU6-O4FuQcE_GiaCSSC2d0UWKpCLzgB1_DZaqjIuOpqp2dOjzNicyyjddy1nHSSkjZpo7KdOs4nZokHoLNO1lqmW26zLYHdSra0UHgm8m3WmveyC-sbPtRnMNtFeJp0lWdz7S6O5GJtbZ_6lLBJ90RXKekF692Z0eGY10", "width": 2120}], "place_id": "ChIJX7NM6n8wQg0RQK1qIqzC0zQ", "plus_code": {"compound_code": "CF95+M7 Coslada, Spain", "global_code": "8CGRCF95+M7"}, "rating": 2.8, "reference": "ChIJX7NM6n8wQg0RQK1qIqzC0zQ", "scope": "GOOGLE", "types": ["bank", "finance", "point_of_interest", "establishment"], "user_ratings_total": 23, "vicinity": "Avenida de Madrid, 13, Coslada"}, {"business_status": "OPERATIONAL", "geometry": {"location": {"lat": 40.4455975, "lng": -3.4717134}, "viewport": {"northeast": {"lat": 40.4469721802915, "lng": -3.470346969708498}, "southwest": {"lat": 40.4442742197085, "lng": -3.473044930291502}}}, "icon": "https://maps.gstatic.com/mapfiles/place_api/icons/v1/png_71/bank-71.png", "icon_background_color": "#909CE1", "icon_mask_base_uri": "https://maps.gstatic.com/mapfiles/place_api/icons/v2/bank-intl_pinlet", "international_phone_number": "+34 600 40 40 90", "name": "CaixaBank", "opening_hours": {"open_now": false}, "photos": [{"height": 900, "html_attributions": ["<a href=\"https://maps.google.com/maps/contrib/117363572475256574747\">CaixaBank</a>"], "photo_reference": "AWn5SU4RdZBIE3VvhET_RsjNgymsNLbhI_mnEUfyNHT6rLRvQ_ZBMpj-QObmIC4oVBO_X6FTEitZPpErFm3qgx_jBFl84fCNqAhwGIzYxfJdwaYooqL_IsQIWm3EGDPjxOkU8_sVlR5AKoFnr89-qwGcIuYL5t5sLbCevLJrGAhIOmAqHbiyvqYskPS87KoTMmTpjOxXihNWKFQjtl6bfc_S_YhnvsiTcvx2W0k2Dq9_LuOmnzZqxx3Lh8XmXxQbK3cjur-kks0DHiHT_j0OKi0UfEst_cpRfysYqodiVCXLtmQnLkmDsknYAyIc7mBh3PdsEbZX1uAmF4o", "width": 1600}], "place_id": "ChIJWV6-cBE3Qg0RMXiwhUVToUI", "plus_code": {"compound_code": "CGWH+68 Torrejón de Ardoz, Spain", "global_code": "8CGRCGWH+68"}, "rating": 2.3, "reference": "ChIJWV6-cBE3Qg0RMXiwhUVToUI", "scope": "GOOGLE", "types": ["bank", "finance", "point_of_interest", "establishment"], "user_ratings_total": 22, "vicinity": "Calle Poseidón, S/n, Torrejón de Ardoz"}, {"business_status": "OPERATIONAL", "geometry": {"location": {"lat": 40.4422617, "lng": -3.4625433}, "viewport": {"northeast": {"lat": 40.4435614302915, "lng": -3.461238219708498}, "southwest": {"lat": 40.4408634697085, "lng": -3.463936180291502}}}, "icon": "https://maps.gstatic.com/mapfiles/place_api/icons/v1/png_71/bank-71.png", "icon_background_color": "#909CE1", "icon_mask_base_uri": "https://maps.gstatic.com/mapfiles/place_api/icons/v2/bank-intl_pinlet", "international_phone_number": "+34 916 55 58 64", "name": "Banco Santander Agentes", "opening_hours": {"open_now": false}, "photos": [{"height": 720, "html_attributions": ["<a href=\"https://maps.google.com/maps/contrib/101014205188643546630\">Banco Santander Agentes</a>"], "photo_reference": "AWn5SU5U-pN1DfTnNjcolwC4w4XmBGyNvZwF8Ha4uQURmxMHoghY3-HoYKbUHlNh1buOIVPg6sM6kbYXu3he4Jv_t1-04Ivb1xEQNIlne4OfSyfq1lcCdPrhmR-s59gXOKLl2UYf0Y4NvD1yTfB13P5TdP9SRlvjEiSCeVoJyNBYMh7fIdETpvm_wFHF5PqvZ5xYu4Lf7v28b4I7Tuvg1kISxV5GZhxoZPomoHL8Cw7Cw9AzCIqD_1TCtjvBMazYs7woWuM4wn4jn_SML9UZq0-kDAK-2qbeq8OIWyKmZ9ZBU3Jn2ik7apNjPuG7CvkH9bD3AZ4QuZkvL-g", "width": 1280}], "place_id": "ChIJI4_fHQs3Qg0RvgNmy0YXNEU", "plus_code": {"compound_code": "CGRP+WX Torrejón de Ardoz, Spain", "global_code": "8CGRCGRP+WX"}, "rating": 3.3, "reference": "ChIJI4_fHQs3Qg0RvgNmy0YXNEU", "scope": "GOOGLE", "types": ["bank", "atm", "finance", "point_of_interest", "establishment"], "user_ratings_total": 16, "vicinity": "Calle Garabay, 3, Torrejón de Ardoz"}, {"business_status": "OPERATIONAL", "geometry": {"location": {"lat": 40.4252575, "lng": -3.54362}, "viewport": {"northeast": {"lat": 40.4265365302915, "lng": -3.542265419708498}, "southwest": {"lat": 40.4238385697085, "lng": -3.544963380291502}}}, "icon": "https://maps.gstatic.com/mapfiles/place_api/icons/v1/png_71/bank-71.png", "icon_background_color": "#909CE1", "icon_mask_base_uri": "https://maps.gstatic.com/mapfiles/place_api/icons/v2/bank-intl_pinlet", "international_phone_number": "+34 916 69 25 47", "name": "Santander", "opening_hours": {"open_now": false}, "photos": [{"height": 720, "html_attributions": ["<a href=\"https://maps.google.com/maps/contrib/101312442101832433335\">Banco Santander</a>"], "photo_reference": "AWn5SU7DCz8VTi0cabnMKKDHWe0DpP8IXY4WAc5e47Mr9PI6zhoYpOvOM6Q35v3FhnOiOdB_uOXtAMHSicZoCP-FCEEEE-LhzWq0cNybNi4KSjJHmdzxy1FbfVvvIQSND1XQs6mL06s3t0g6RfVMu7aptA3sqVCatKWJhzlsI8yq7Uec2zSmx5K-cHu-aOK0wPEgi0FL4sLH9u8opkUnOkStjZDF9MxbRZhv5tdWk8Nis3BVuJe9jJ0LFPH9tIMrcNZOBa1rFfDBC_JV32Y9SYnXDmmEU5dnnqLgAamjbgpR0kCwM2WK2fnkHFiHEsbqQJYiSu3ZhgupJyw", "width": 1280}], "place_id": "ChIJi0MfVHwwQg0Rb3MQ-ii8zP8", "plus_code": {"compound_code": "CFG4+4H Coslada, Spain", "global_code": "8CGRCFG4+4H"}, "rating": 1.8, "reference": "ChIJi0MfVHwwQg0Rb3MQ-ii8zP8", "scope": "GOOGLE", "types": ["bank", "atm", "finance", "point_of_interest", "establishment"], "user_ratings_total": 28, "vicinity": "Avenida de los Príncipes de España, 45, Coslada"}, {"business_status": "OPERATIONAL", "geometry": {"location": {"lat": 40.4282371, "lng": -3.5420976}, "viewport": {"northeast": {"lat": 40.4294979302915, "lng": -3.540713069708498}, "southwest": {"lat": 40.4267999697085, "lng": -3.543411030291502}}}, "icon": "https://maps.gstatic.com/mapfiles/place_api/icons/v1/png_71/bank-71.png", "icon_background_color": "#909CE1", "icon_mask_base_uri": "https://maps.gstatic.com/mapfiles/place_api/icons/v2/bank-intl_pinlet", "international_phone_number": "+34 916 69 73 20", "name": "Ibercaja Savings Bank", "opening_hours": {"open_now": false}, "photos": [{"height": 900, "html_attributions": ["<a href=\"https://maps.google.com/maps/contrib/117548630617959153576\">Ibercaja Banco</a>"], "photo_reference": "AWn5SU7Z8NpTbVjRdpkidY63eiOPW5EvLVdB7EwYuRiihMm08YbXhto1ob2ftJCrRRFEruyJ6rTZw0nx5_gHY2ZRbViaVS6NIsJrOckG3dljcux64S3GheJEV3KXd3iM0DjW0ZGFS1MFhn5CemZQ-mVfEj1BjXpKB6cHkYCrIKYZRyU4FCl0yzh5GS3YGesSRRBPESbFT5p3kaBqAn4UjW-U9P8GKvb1X813tAWDOM210fQubPYNX5JuO8rhTyVEgMhjPlI_Vay4uqxQyVcxNHe-QxLRZelAdE3QhVLhljfu8MtPqsrz0CdDo6SsQdc3XGoC9ka5cOuH0_M", "width": 1600}], "place_id": "ChIJKTvPsmIwQg0RihV8SYiJank", "plus_code": {"compound_code": "CFH5+75 Coslada, Spain", "global_code": "8CGRCFH5+75"}, "rating": 2.6, "reference": "ChIJKTvPsmIwQg0RihV8SYiJank", "scope": "GOOGLE", "types": ["bank", "atm", "accounting", "finance", "point_of_interest", "establishment"], "user_ratings_total": 16, "vicinity": "Calle de Méjico, 29, Coslada"}, {"business_status": "OPERATIONAL", "geometry": {"location": {"lat": 40.45045139999999, "lng": -3.4649946}, "viewport": {"northeast": {"lat": 40.4519454302915, "lng": -3.463618719708498}, "southwest": {"lat": 40.4492474697085, "lng": -3.466316680291502}}}, "icon": "https://maps.gstatic.com/mapfiles/place_api/icons/v1/png_71/bank-71.png", "icon_background_color": "#909CE1", "icon_mask_base_uri": "https://maps.gstatic.com/mapfiles/place_api/icons/v2/bank-intl_pinlet", "international_phone_number": "+34 914 95 40 40", "name": "Banco Santander", "opening_hours": {"open_now": false}, "photos": [{"height": 720, "html_attributions": ["<a href=\"https://maps.google.com/maps/contrib/108492015733686118536\">Banco Santander</a>"], "photo_reference": "AWn5SU5zMY8e-IMTcT7rmgaLy_9Y167hfn2WrWP18lEKgBEjyCNw5UJllxSXVcJrG1EBJ36H63HncG7nZPwv9GwpHTImDAh0LanqqHUrHTk4aYqYGNMH9pPnIbUNuWc_tT4n-74kzdcpWj060m2_-85VpFMh0eO1WuCI2X2BluQp8ddTGFJ67wNK_Lqvx9n0ZJGf4ONTn4dU1CGG9cwL_oGZ-3AZI1CBr6FAGiFOjRA46eN6DcVY7CcWbk_UG7NN4sluIA-ZdYfOkzS4qlpL7RrHasebRG5znW1N7SqZx2YOTrl2J8HULsyAITjrxcnNxTM-WDIRLJHQxuA", "width": 1280}], "place_id": "ChIJMeZ-JgY3Qg0RfK-25z2ixvE", "plus_code": {"compound_code": "FG2P+52 Torrejón de Ardoz, Spain", "global_code": "8CGRFG2P+52"}, "rating": 2.4, "reference": "ChIJMeZ-JgY3Qg0RfK-25z2ixvE", "scope": "GOOGLE", "types": ["bank", "atm", "finance", "point_of_interest", "establishment"], "user_ratings_total": 31, "vicinity": "CALLE PLATINO, URBANIZACION NUEVO PARQUE, 2, LOCALES 7 Y 8, Torrejón de Ardoz"}]