[{"business_status": "OPERATIONAL", "geometry": {"location": {"lat": 40.54888640000001, "lng": -3.377987499999999}, "viewport": {"northeast": {"lat": 40.5502073802915, "lng": -3.376647919708498}, "southwest": {"lat": 40.5475094197085, "lng": -3.379345880291502}}}, "icon": "https://maps.gstatic.com/mapfiles/place_api/icons/v1/png_71/cafe-71.png", "icon_background_color": "#FF9E67", "icon_mask_base_uri": "https://maps.gstatic.com/mapfiles/place_api/icons/v2/cafe_pinlet", "international_phone_number": "+34 910 54 46 95", "name": "Churrería Antaño", "photos": [{"height": 2127, "html_attributions": ["<a href=\"https://maps.google.com/maps/contrib/110970937138475491749\">Churrería Bar Antaño</a>"], "photo_reference": "AWn5SU68br7YQhqdSU1bOUEObsN1Hw_B-HM4y4WuHqQJfyYeswkBjMDg8lMaftraPCx1IoHBEkF_Ir8n215o40t019lV-4E8p9nrJnrXQD-Ijg3QwtQoZvu3Adv5QZRaQyocZQXnioTiTr9g90S6fLRUsx9VzbhiVb8tALyZgPaqS8X8A7T5q2Zc-Z1d7AWCSPGcOf_bEt9Bxqw-Iq5p_AB7f6_LifaIqzgRDpQUUrfATRAq9gyH4vU2w4ojza17p8CwspnW_kckPvZ6lzIMls9gpDBiUbIPRpdWETYKEcjJGgSGLTfmiQY7T7aUJa15hLTot-2XkGbbCr8", "width": 3365}], "place_id": "ChIJFfNTSABLQg0RXDuV1QNWT-Q", "plus_code": {"compound_code": "GJXC+HR Camarma de Esteruelas, Spain", "global_code": "8CGRGJXC+HR"}, "rating": 3.1, "reference": "ChIJFfNTSABLQg0RXDuV1QNWT-Q", "scope": "GOOGLE", "types": ["cafe", "point_of_interest", "food", "store", "establishment"], "user_ratings_total": 28, "vicinity": "Plaza del Paseo, 10, Camarma de Esteruelas"}, {"business_status": "OPERATIONAL", "geometry": {"location": {"lat": 40.54888220000001, "lng": -3.3786412}, "viewport": {"northeast": {"lat": 40.5502536802915, "lng": -3.377339069708499}, "southwest": {"lat": 40.5475557197085, "lng": -3.380037030291502}}}, "icon": "https://maps.gstatic.com/mapfiles/place_api/icons/v1/png_71/cafe-71.png", "icon_background_color": "#FF9E67", "icon_mask_base_uri": "https://maps.gstatic.com/mapfiles/place_api/icons/v2/cafe_pinlet", "international_phone_number": "+34 615 15 03 30", "name": "Bar Cafetería LAS CIMAS", "opening_hours": {"open_now": false}, "photos": [{"height": 1746, "html_attributions": ["<a href=\"https://maps.google.com/maps/contrib/102953696231300678868\">Igor Brim</a>"], "photo_reference": "AWn5SU5gRHjjW_U7DMuIbrvGaJbcQkvcd7WMEYTzCi-XwqwZgXQq-UD8Siu-3_KTssgUbaYHcbRNG0NIsswlLAW-2ep1ds4nT2GhvyViUxibP4k-dRTqHV4-40p2ns2pKy_p3P9pXS7x9hMtyVxCBvF3wdcLowicatmYwJC1qllYUwLJbEabUQOHsl3GzUuqwFD1CCuKANcgtnI-QxejKlhr_OjZWjy5gALKdKUMmxKMQYpjoWCNp2xnHrq436-MgeZCIpfuSWHpEytEvDuMbEAUEwOou7Nmc_mfJcXXVEMYFLROw9ujbYVZJa0r6YQnhqoh_OrGJvTF440G8fH7K7P_pdOYA4uDLO6AIUdmgt9PDS6-CMfQN8GI7d6MepuCybdT5CTnkN_erafFn3RgEqEh4YIINVlH4uAHJbJRMDCtpf259Q3AOWbip_zuUroLOhlbXSanbBEILi9UGm-bujSarXWpjikAxmsB1t0OeZOHTwPfM3yuJX3yPz6DLpsEhEOHWsNXRScHanwfvyhUtiV75PYS7kD547qUaabXcPOEOMlEuYnq1X2eK7rMB6GLrxueUyt4SaDSfuLEPrieqAkNm5_MBtwIaESL8QxVBoXQUg0S4411-pF_YkAi_5BIUQcR3oEMhQ", "width": 3104}], "place_id": "ChIJATUO5gFLQg0Ry12Q9Rg5lc0", "plus_code": {"compound_code": "GJXC+HG Camarma de Esteruelas, Spain", "global_code": "8CGRGJXC+HG"}, "price_level": 1, "rating": 4.5, "reference": "ChIJATUO5gFLQg0Ry12Q9Rg5lc0", "scope": "GOOGLE", "types": ["cafe", "restaurant", "point_of_interest", "food", "store", "establishment"], "user_ratings_total": 430, "vicinity": "5,, Calle Daganzo, 3, Camarma de Esteruelas"}, {"business_status": "OPERATIONAL", "geometry": {"location": {"lat": 40.5520691, "lng": -3.3768942}, "viewport": {"northeast": {"lat": 40.5534778802915, "lng": -3.375530319708498}, "southwest": {"lat": 40.5507799197085, "lng": -3.378228280291502}}}, "icon": "https://maps.gstatic.com/mapfiles/place_api/icons/v1/png_71/cafe-71.png", "icon_background_color": "#FF9E67", "icon_mask_base_uri": "https://maps.gstatic.com/mapfiles/place_api/icons/v2/cafe_pinlet", "name": "Cafetería Hostal Viches", "place_id": "ChIJUWW8UwJLQg0Rg-4xKAxUPHI", "plus_code": {"compound_code": "HJ2F+R6 Camarma de Esteruelas, Spain", "global_code": "8CGRHJ2F+R6"}, "rating": 5, "reference": "ChIJUWW8UwJLQg0Rg-4xKAxUPHI", "scope": "GOOGLE", "types": ["cafe", "point_of_interest", "food", "establishment"], "user_ratings_total": 8, "vicinity": "Spain"}]