[{"business_status": "OPERATIONAL", "geometry": {"location": {"lat": 40.35531, "lng": -3.90298}, "viewport": {"northeast": {"lat": 40.3566452802915, "lng": -3.901632419708498}, "southwest": {"lat": 40.3539473197085, "lng": -3.904330380291503}}}, "icon": "https://maps.gstatic.com/mapfiles/place_api/icons/v1/png_71/bus-71.png", "icon_background_color": "#10BDFF", "icon_mask_base_uri": "https://maps.gstatic.com/mapfiles/place_api/icons/v2/bus_share_taxi_pinlet", "name": "Av.Calatalifa-San Antonio", "place_id": "ChIJoXu6JyaOQQ0Rk6KO2v5ayQk", "plus_code": {"compound_code": "934W+4R Villaviciosa de Odón, Spain", "global_code": "8CGR934W+4R"}, "rating": 4, "reference": "ChIJoXu6JyaOQQ0Rk6KO2v5ayQk", "scope": "GOOGLE", "types": ["bus_station", "transit_station", "point_of_interest", "establishment"], "user_ratings_total": 1, "vicinity": "Spain"}, {"business_status": "OPERATIONAL", "geometry": {"location": {"lat": 40.338379, "lng": -3.8666077}, "viewport": {"northeast": {"lat": 40.3397431802915, "lng": -3.865246569708497}, "southwest": {"lat": 40.3370452197085, "lng": -3.867944530291502}}}, "icon": "https://maps.gstatic.com/mapfiles/place_api/icons/v1/png_71/bus-71.png", "icon_background_color": "#10BDFF", "icon_mask_base_uri": "https://maps.gstatic.com/mapfiles/place_api/icons/v2/bus_share_taxi_pinlet", "name": "Dalia-Violeta", "place_id": "ChIJ_epTjGKOQQ0RFtSBvWYenfA", "plus_code": {"compound_code": "84QM+99 Móstoles, Spain", "global_code": "8CGR84QM+99"}, "rating": 2, "reference": "ChIJ_epTjGKOQQ0RFtSBvWYenfA", "scope": "GOOGLE", "types": ["bus_station", "transit_station", "point_of_interest", "establishment"], "user_ratings_total": 1, "vicinity": "Spain"}, {"business_status": "OPERATIONAL", "geometry": {"location": {"lat": 40.32717510000001, "lng": -3.882504}, "viewport": {"northeast": {"lat": 40.32844968029151, "lng": -3.881109969708498}, "southwest": {"lat": 40.32575171970851, "lng": -3.883807930291503}}}, "icon": "https://maps.gstatic.com/mapfiles/place_api/icons/v1/png_71/bus-71.png", "icon_background_color": "#10BDFF", "icon_mask_base_uri": "https://maps.gstatic.com/mapfiles/place_api/icons/v2/bus_share_taxi_pinlet", "name": "Pintor Velázquez-Parque De El Soto", "place_id": "ChIJV2SOu3WOQQ0R285riyBgL40", "plus_code": {"compound_code": "84G8+VX Móstoles, Spain", "global_code": "8CGR84G8+VX"}, "rating": 3, "reference": "ChIJV2SOu3WOQQ0R285riyBgL40", "scope": "GOOGLE", "types": ["bus_station", "transit_station", "point_of_interest", "establishment"], "user_ratings_total": 1, "vicinity": "Spain"}, {"business_status": "OPERATIONAL", "geometry": {"location": {"lat": 40.3180555, "lng": -3.8783817}, "viewport": {"northeast": {"lat": 40.3193774802915, "lng": -3.877016269708498}, "southwest": {"lat": 40.3166795197085, "lng": -3.879714230291503}}}, "icon": "https://maps.gstatic.com/mapfiles/place_api/icons/v1/png_71/bus-71.png", "icon_background_color": "#10BDFF", "icon_mask_base_uri": "https://maps.gstatic.com/mapfiles/place_api/icons/v2/bus_share_taxi_pinlet", "name": "Av.Portugal-Rio Duero", "photos": [{"height": 3120, "html_attributions": ["<a href=\"https://maps.google.com/maps/contrib/100263054998258329443\">Susana Gauna</a>"], "photo_reference": "AWn5SU7DoonyURQNNGJG6NKCC0xhGL5ijJCNCj4s3vm2yL6VDqC-kke30_6CHmu12VAa_Rr1xPzQYc5A0Bi4dJWTGIuplvZk-fxkdALQN3pzQNy4DYB6_fIjJSETBJZNRFHOkz7_fycZ9_3L125Y_Rh1MsVuYXyWIKCFTpLKuE1EBuWHw2E2-Ez8u4sxoUiF2nFm19a_Hm9E8eWuupImU5lksxBEU361O2ZKi9cpA3lRu57_35CwFSq6t4HsCqUuWs78ndzZXSNguC6B7QHdT3PGlP5pbRI4uBmQb43ts3I58MhSw4sfwpcfrifbXf4EOMsZy2C034SoxHkqABb-hUYk03bZZTXoP9yEmkqNkEKB5q6MxlFkFC0lGhZhz9FNykKYmS_0wACeeL7o5sFniUYjHcZbvrTE2bqAezXzqrk2Z-yfQ3Hbvk6h52Nx8LIK9grLBm7adaGRnh-eI4kx6O_qqh5BaO-8D5jbfRUx14ix5MUe94TMGyBibeOM_hyDu2exDX8l3BArV5s0AWeUeMuore7IOy1L2GyzZNeiyGGntUYeb_v4SBWEaJdLQ0x2r7DGEfBafPymaqhht9seWbx0yxRiwIfXLLMDsFlk8G6rNOdRImZbs4niqJpFxpFZS6PEjkHzbUov", "width": 4160}], "place_id": "ChIJ9VyrANuNQQ0RdnGMyTax6kI", "plus_code": {"compound_code": "849C+6J Móstoles, Spain", "global_code": "8CGR849C+6J"}, "rating": 4, "reference": "ChIJ9VyrANuNQQ0RdnGMyTax6kI", "scope": "GOOGLE", "types": ["bus_station", "transit_station", "point_of_interest", "establishment"], "user_ratings_total": 4, "vicinity": "Spain"}, {"business_status": "OPERATIONAL", "geometry": {"location": {"lat": 40.31151999999999, "lng": -3.920829999999999}, "viewport": {"northeast": {"lat": 40.3128623302915, "lng": -3.919526719708497}, "southwest": {"lat": 40.3101643697085, "lng": -3.922224680291501}}}, "icon": "https://maps.gstatic.com/mapfiles/place_api/icons/v1/png_71/bus-71.png", "icon_background_color": "#10BDFF", "icon_mask_base_uri": "https://maps.gstatic.com/mapfiles/place_api/icons/v2/bus_share_taxi_pinlet", "name": "Pº Móstoles-Tamarindo", "photos": [{"height": 2988, "html_attributions": ["<a href=\"https://maps.google.com/maps/contrib/110853148410086259669\">Mario Barrientos</a>"], "photo_reference": "AWn5SU7MC7C_xB0tdoYXPOT53jkJH2E9Eo0dGzinD5wgmVwFW6E2woUB8pEvdSvGy00FkDTwfMiBOYmMIBr5VqzMg6zNhOMfwILj_GDkbYz6lEwfaC9HsWj1jdg7GOf_oTXJWQEvV75Lw6_Y8j_aGMLojTh5bfDEAxav8ucgINsJOVCPDP-cth4rg6U-ucez9l8Udu0U-Pg-SXNIXar9HWRmFwWILgGoANu--_jzq-577_nG1r6R46YwO7DHuPD83vme3IbGd6V-I0PDNQy7b8g6oBic9ULiJ5w3FFqT3TupshWIO9dGL49ZGZdKlixADrsyKePxYeE6tArlgCEnG2RbZjVefdDopCvZtV0sb1o0r8jMK6Xos_ibJN1GFrRSYiAg1Ntgjx9zaFuwTw3wXrDl-EQCkHBHOVYGC5EVH_FbRq2X4SVPQXHpcUSxG-YSQjXsy7ZOqdTV2BbvTFuzq68Yp0TRqG_60Yu0IKWv8WC5ymu4m5tnZxjouB4At3vxbzUoJXiM2eytAmlvaWG8e_GesBFsjaklebnnrXjyHsfvptHMVZJaOPAfl8mDhfH4Bg9xR6dzYYDo7_zFzykzMXDo3jd_VRdpRAx6eLuNrvkoq2FBSGne99sI8Hz65rnaUkYUQltim8kM", "width": 5312}], "place_id": "ChIJB2yKJxGSQQ0RRuk2IBBtSNs", "plus_code": {"compound_code": "836H+JM Parque Coimbra, Spain", "global_code": "8CGR836H+JM"}, "reference": "ChIJB2yKJxGSQQ0RRuk2IBBtSNs", "scope": "GOOGLE", "types": ["bus_station", "transit_station", "point_of_interest", "establishment"], "vicinity": "Spain"}, {"business_status": "OPERATIONAL", "geometry": {"location": {"lat": 40.3108673, "lng": -3.9249876}, "viewport": {"northeast": {"lat": 40.3122018802915, "lng": -3.923589419708498}, "southwest": {"lat": 40.3095039197085, "lng": -3.926287380291503}}}, "icon": "https://maps.gstatic.com/mapfiles/place_api/icons/v1/png_71/bus-71.png", "icon_background_color": "#10BDFF", "icon_mask_base_uri": "https://maps.gstatic.com/mapfiles/place_api/icons/v2/bus_share_taxi_pinlet", "name": "Eucaliptus-Zoco", "photos": [{"height": 2217, "html_attributions": ["<a href=\"https://maps.google.com/maps/contrib/110853148410086259669\">Mario Barrientos</a>"], "photo_reference": "AWn5SU5ujBdW1iSKxbO2Prx1_uGxeTpfRy7z89Ntgbe7VOuwg0y808_7vBPvIsVHWSsjZOvE8PhtJLLEWF6YEv3ALvSTsKA2vg3WgTw9lb4Yo7hlsoJMmzS4Yf65e6TSFmrcqfJqAlvajZOWNM-DWhD0gFbs_QmQDS1CEYCfp-pxUQbKBKIIP4ckht1ak7NqGuSVNTnYu-ntUyNNaoU9LmiJ2UUVNSVHVnizuG9EZhTmvV6AEMXsC4YYtJfI0qTS_y6--0ZNusbQYLkcHpvHP54Ve7bOyUH5wEgQZj6B5Fb0l_FQtEsUgJaiAmLxP7x0nI5SRTY_nD4-RaJ6IGu6GFIielsEMVRAtUKGuTMhZcFEtyar36c7ra05nbgTpGE1HzTgLlfiWd9s9_aVAhQVqvg1lJVQ1Cm3ceBLQK5Ot2JJdpsBST0BxGy3zwPaZ5NUHbXTF_CjRBVVEuS_BfN3kQtZkECfPQWlUVhiKRDOk_ciErkRButWovwTxdIoi54EGDFgVAB0CRtoYq8UYMmnzIkR_k5G0lWTxewLAOBlm4pfpDvkb7re2m6OOokyDYpOJH569rf8Svv7poZuBcrU4Osi2zTuo_BqaxE7FhoY7p7077JnpvS75GI2P_HqHI-AK9kGtr02K5rN", "width": 3941}], "place_id": "ChIJ24giTxaSQQ0Rix21GwEaWTg", "plus_code": {"compound_code": "836G+82 Parque Coimbra, Spain", "global_code": "8CGR836G+82"}, "rating": 5, "reference": "ChIJ24giTxaSQQ0Rix21GwEaWTg", "scope": "GOOGLE", "types": ["bus_station", "transit_station", "point_of_interest", "establishment"], "user_ratings_total": 1, "vicinity": "Spain"}, {"business_status": "OPERATIONAL", "geometry": {"location": {"lat": 40.30910489999999, "lng": -3.9223862}, "viewport": {"northeast": {"lat": 40.3104566302915, "lng": -3.921037719708498}, "southwest": {"lat": 40.30775866970851, "lng": -3.923735680291502}}}, "icon": "https://maps.gstatic.com/mapfiles/place_api/icons/v1/png_71/bus-71.png", "icon_background_color": "#10BDFF", "icon_mask_base_uri": "https://maps.gstatic.com/mapfiles/place_api/icons/v2/bus_share_taxi_pinlet", "name": "Av.Rosales-Mimosas", "photos": [{"height": 2988, "html_attributions": ["<a href=\"https://maps.google.com/maps/contrib/110853148410086259669\">Mario Barrientos</a>"], "photo_reference": "AWn5SU7Tx8NRohuxvXd03Kg4WVSB1NANZTOHTje2XFbfz0F0F8_P6baKlKICJCjmJbD53C7eR6bNZ0YiMC2SL3qmTSRNpj0ytX7b2ZN4xHw6UGme_Svx-MAhpIQr2lK6fV-4m54A4BrjzoSSe1AYMOaGCfsVNwtHpatHGnaq0kT9svdn2wN8I-DhvM8QhVklT8VkMfN24JYjHYD3ZP_4MTlq2mQA1vsn8Nz1QwJW2h6AKfL5fo5sxlSGm41Lzp2LR5nmSMHPgOCMxsp2qMifM_ecBK4K7xr6UmI4kcax3ndkt2rrZ4ZpzP6oF9kZHj4mGBbpFp8DaGQJf3LQtJld1Rn_XoFwsX8TWf0sob3PWl8NUcAK3YAYs-hVlax7YcV90vtmh1Jf7rrXJ8VVd20UiESeH-ES-atn7XiNW_Q1RW5fzg5jtcxdXlNTHdHaYhF8U3YsydCFkaLcmTzHQDjqEUGKMGqCv1222v4BqxUZVZvWtJbdrawA-n8kjdlXVbClTjldWe9gHdxYWqykCz5xQfm1V3o9MnWe23d-A9zA-dwFH2io-ulGJMj8moGX057gxYnRuhJjgobCGnQDgsnu8YtTGQHvP_Ey39aBd2VZ2Z3zqqG0Phk_5jl3fbJrjlbQkwb3bPN68g", "width": 5312}], "place_id": "ChIJ27pgphaSQQ0R4CcfeE8IaKY", "plus_code": {"compound_code": "835H+J2 Parque Coimbra, Spain", "global_code": "8CGR835H+J2"}, "reference": "ChIJ27pgphaSQQ0R4CcfeE8IaKY", "scope": "GOOGLE", "types": ["bus_station", "transit_station", "point_of_interest", "establishment"], "vicinity": "Spain"}, {"business_status": "OPERATIONAL", "geometry": {"location": {"lat": 40.31198879999999, "lng": -3.933640999999999}, "viewport": {"northeast": {"lat": 40.3133296802915, "lng": -3.932307569708497}, "southwest": {"lat": 40.3106317197085, "lng": -3.935005530291501}}}, "icon": "https://maps.gstatic.com/mapfiles/place_api/icons/v1/png_71/bus-71.png", "icon_background_color": "#10BDFF", "icon_mask_base_uri": "https://maps.gstatic.com/mapfiles/place_api/icons/v2/bus_share_taxi_pinlet", "name": "Av.Sauces-PºDel Arroyo", "place_id": "ChIJIbz4GTuSQQ0RI4P4UQD9Py0", "plus_code": {"compound_code": "8368+QG Parque Coimbra, Spain", "global_code": "8CGR8368+QG"}, "rating": 4, "reference": "ChIJIbz4GTuSQQ0RI4P4UQD9Py0", "scope": "GOOGLE", "types": ["bus_station", "transit_station", "point_of_interest", "establishment"], "user_ratings_total": 1, "vicinity": "Spain"}, {"business_status": "OPERATIONAL", "geometry": {"location": {"lat": 40.3096446, "lng": -3.927979400000001}, "viewport": {"northeast": {"lat": 40.31099553029149, "lng": -3.926637569708498}, "southwest": {"lat": 40.30829756970849, "lng": -3.929335530291502}}}, "icon": "https://maps.gstatic.com/mapfiles/place_api/icons/v1/png_71/bus-71.png", "icon_background_color": "#10BDFF", "icon_mask_base_uri": "https://maps.gstatic.com/mapfiles/place_api/icons/v2/bus_share_taxi_pinlet", "name": "Haya-Castaño", "place_id": "ChIJkyIlwj2SQQ0RZvgS9JDacLs", "plus_code": {"compound_code": "835C+VR Parque Coimbra, Spain", "global_code": "8CGR835C+VR"}, "rating": 3.5, "reference": "ChIJkyIlwj2SQQ0RZvgS9JDacLs", "scope": "GOOGLE", "types": ["bus_station", "transit_station", "point_of_interest", "establishment"], "user_ratings_total": 2, "vicinity": "Spain"}, {"business_status": "OPERATIONAL", "geometry": {"location": {"lat": 40.3507042, "lng": -3.8317878}, "viewport": {"northeast": {"lat": 40.3520731802915, "lng": -3.830466119708498}, "southwest": {"lat": 40.3493752197085, "lng": -3.833164080291502}}}, "icon": "https://maps.gstatic.com/mapfiles/place_api/icons/v1/png_71/bus-71.png", "icon_background_color": "#10BDFF", "icon_mask_base_uri": "https://maps.gstatic.com/mapfiles/place_api/icons/v2/bus_share_taxi_pinlet", "name": "Berlín-Est.Alcorcón Central", "photos": [{"height": 2988, "html_attributions": ["<a href=\"https://maps.google.com/maps/contrib/103076063494617133145\">777x</a>"], "photo_reference": "AWn5SU6y08S2-IPFTnfV9nB2nUSKNn1DqZgKQk4F2Gk6Mt2CjeYtCcZuswPrCkQLyzDVuzBMq9q62AvHYHbQlPy5b_k_peu39IfIDECG-dU7HbsSv53lp-Gy9QY5RjT9iZ6Ea8AJ9KL7g7eIbWTL6bkZSwSxcv5DxdFraUZt6OKZvAkTLgxwYBltCcV5csv-Z_mgQOuDEWrcCGkAiTlsmDHJANGKL0QBRu8Gy9v6HVf1yNmOqYMxCmkb1TaRMR8im8z2obpf2F2T87k6pOZz-1NuYTsRRqe8FeHF6YkTaZg_B0xqVZD_e9wCoxi_uU_XRYS2U3zDDoY3gFe4JhiIoc1YSRT3--HKStqbewuNKxE4pEt87NwzAgXvEHB57oJwXmDY3LaaGlS8hHGvuB_dwL0SH3d6h-a885rA2TgnzbdJKjQlLrsF_CfXOxmZwjlP-QdKGFyb7rrlTGlSsbQhiHeRnuAcVB5EhNzeE_Kv12zzzUa0G60zDbZxC85HVnuDa2zDDir0ncMaWxMGXdtgOpIzVU7kIIntgBt0y4aHKwwLZqoiP6uDAMH5jxqRvhSA9rTiuLalHpC5P5-ztkOxO9Vpswd4ly1hO6MFN72v_JcdiIscL4ZgR8QAW1dV7d7xlWg_99apANmc", "width": 5312}], "place_id": "ChIJw-KND8mOQQ0RinoTxR7VIyw", "plus_code": {"compound_code": "9529+77 Alcorcón, Spain", "global_code": "8CGR9529+77"}, "rating": 2.8, "reference": "ChIJw-KND8mOQQ0RinoTxR7VIyw", "scope": "GOOGLE", "types": ["bus_station", "transit_station", "point_of_interest", "establishment"], "user_ratings_total": 5, "vicinity": "Spain"}, {"business_status": "OPERATIONAL", "geometry": {"location": {"lat": 40.3054619, "lng": -3.9227133}, "viewport": {"northeast": {"lat": 40.30682358029149, "lng": -3.921393069708498}, "southwest": {"lat": 40.3041256197085, "lng": -3.924091030291502}}}, "icon": "https://maps.gstatic.com/mapfiles/place_api/icons/v1/png_71/bus-71.png", "icon_background_color": "#10BDFF", "icon_mask_base_uri": "https://maps.gstatic.com/mapfiles/place_api/icons/v2/bus_share_taxi_pinlet", "name": "Av.Sauces-PºDe Mostoles", "photos": [{"height": 4032, "html_attributions": ["<a href=\"https://maps.google.com/maps/contrib/104756378958477608432\">Sergio Núñez López</a>"], "photo_reference": "AWn5SU4dhcbgOgHVhMwVUm4ZLNCBjHXdQpfiBEpx4H_4p1GaYZr76ZArx9BJ76RareFoNP_oXHBBG1-OD6r8IlzdgpbKBeXS1AfmVS0e8Cn21aY6h2zG1UZrmp02-6ybcVmAVetOnx1qnvhjTdvUZ6IOihAZdmTHbtEbRvCv21J2n8a4Ph5FMY1GXCdaE2SMMc11uYPsguFZoVf7-Hx-Xq3ZqJRtvlRgTVFI9lGhJfZccXruKKB4yJTCmrx3dpvNke_IB-WM5gcRR6wuE5K87WCzLYkTwqMXL-Al6Jm_Cz676YxsTWQDNw0UArqNRr1jDUIE2Qc9WBlwhQ01fVd_748hvaq0JgMAVfxkK4t1xduuk3DCcTbyPV1xNDzZ07L6W5yrc_M-PDoxhUJG6qBUQC47rmbN25pWgqetBNywpqipX_QeKtkpPYILXOVWtLFMKvE1QlOU0zbW_ky4zh6dIfARcYQpGU8yrk6XcPFd6aQnCiY3zu8PaIH8gfFVQgEDatpeJ4fqsJLVfzH4qCv2lGdKW-slsarg0CJgYTM99G-ApdaVgbPkxBomm3uUPKkynJQl1k17Ldcro3kCPyIqIC2j_-8bkKocBYJoWHfIMcoNV1bY0ZUzkquxqdxO6dpcFrn5e2mmyw", "width": 2268}], "place_id": "ChIJqf9blhSSQQ0RCxgy42G8lSU", "plus_code": {"compound_code": "834G+5W Parque Coimbra, Spain", "global_code": "8CGR834G+5W"}, "rating": 3, "reference": "ChIJqf9blhSSQQ0RCxgy42G8lSU", "scope": "GOOGLE", "types": ["bus_station", "transit_station", "point_of_interest", "establishment"], "user_ratings_total": 2, "vicinity": "Spain"}, {"business_status": "OPERATIONAL", "geometry": {"location": {"lat": 40.4192634, "lng": -3.895567800000001}, "viewport": {"northeast": {"lat": 40.4206166302915, "lng": -3.894191569708498}, "southwest": {"lat": 40.4179186697085, "lng": -3.896889530291503}}}, "icon": "https://maps.gstatic.com/mapfiles/place_api/icons/v1/png_71/bus-71.png", "icon_background_color": "#10BDFF", "icon_mask_base_uri": "https://maps.gstatic.com/mapfiles/place_api/icons/v2/bus_share_taxi_pinlet", "name": "M.Ángel Cantero Oliva-Viñas Viejas", "place_id": "ChIJuRkkg0WFQQ0RiZtv2W9HWzU", "plus_code": {"compound_code": "C493+PQ Boadilla del Monte, Spain", "global_code": "8CGRC493+PQ"}, "rating": 5, "reference": "ChIJuRkkg0WFQQ0RiZtv2W9HWzU", "scope": "GOOGLE", "types": ["bus_station", "transit_station", "point_of_interest", "establishment"], "user_ratings_total": 1, "vicinity": "Spain"}]