[{"business_status": "OPERATIONAL", "geometry": {"location": {"lat": 40.20480000000001, "lng": -3.88487}, "viewport": {"northeast": {"lat": 40.2061554802915, "lng": -3.883525019708498}, "southwest": {"lat": 40.2034575197085, "lng": -3.886222980291503}}}, "icon": "https://maps.gstatic.com/mapfiles/place_api/icons/v1/png_71/generic_business-71.png", "icon_background_color": "#7B9EB0", "icon_mask_base_uri": "https://maps.gstatic.com/mapfiles/place_api/icons/v2/generic_pinlet", "name": "Pza.España-Ayuntamiento", "photos": [{"height": 1472, "html_attributions": ["<a href=\"https://maps.google.com/maps/contrib/101058552628677522649\">Criben Ridro</a>"], "photo_reference": "AWn5SU6-XWcyHYloCmr052vKCnctcsdEMGPhMIZMnQ4_cOo40iTM6LSBYOCekeQcNDyERctAiH7DGVsbfu2AZXOPnksg166e2SSfPxwj4K_e2PJ0ub9zeIOBMHDCqfENZmQhib21tUQT7Yu3l43g4moQNI9dv181zW_l-s2eTjNUmjrwm4AxI7BorDnDkwYsSx11dkE5zyC6oYrwVJcyZpTd71LJ6RHsR37bynEddlTUVQMhm4HDXKfUJlN7p3DPsDENNAH3gWGfZCWvIpmLMObK_cswUD-yYII1k64Mn7wj6LEfEBzXdMZiyCoafByuoiu9y3DeaCoX1v4Kl0hf7sGp2RoJ4lfFbd_bXAglWg5rcsRs9pwwXhBx0HMabx5xK4PHWZ2ZlzYDOLqOOE01rmA-HjVEHZ3hYXzKfBrVrCEypdKbRKbaiten1wx_5GGHsi5FOfW830_4ZNbg0Edtvv3vXiC_e8rm9BmbuYUOFdBW-J2s6bl_lWO52CDPf0BpY0HYZsBVB32tbNJ-YJ4FAgoRSbpdTLNEWjzkdWLUBQvcifHh5_M_No6bYIeYDGQQyxk8Oft5Y9LnNokWLhS__MX74W4geHR50gq13PF8nhY9d1O5vRUmgwl-Xxbk5Gd-a5xJ6d5L9u6_", "width": 3264}], "place_id": "ChIJuwSqO_XyQQ0R0A3IahBuZkw", "plus_code": {"compound_code": "6438+W3 Serranillos del Valle, Spain", "global_code": "8CGR6438+W3"}, "reference": "ChIJuwSqO_XyQQ0R0A3IahBuZkw", "scope": "GOOGLE", "types": ["transit_station", "point_of_interest", "establishment"], "vicinity": "Spain"}, {"business_status": "OPERATIONAL", "geometry": {"location": {"lat": 40.20437, "lng": -3.884230000000001}, "viewport": {"northeast": {"lat": 40.2057466802915, "lng": -3.882904769708498}, "southwest": {"lat": 40.20304871970851, "lng": -3.885602730291502}}}, "icon": "https://maps.gstatic.com/mapfiles/place_api/icons/v1/png_71/generic_business-71.png", "icon_background_color": "#7B9EB0", "icon_mask_base_uri": "https://maps.gstatic.com/mapfiles/place_api/icons/v2/generic_pinlet", "name": "Pºde la Pradera-Pza.Del Puente", "place_id": "ChIJy9GnFPXyQQ0RP9WyvuLmWWA", "plus_code": {"compound_code": "6438+P8 Serranillos del Valle, Spain", "global_code": "8CGR6438+P8"}, "rating": 4.2, "reference": "ChIJy9GnFPXyQQ0RP9WyvuLmWWA", "scope": "GOOGLE", "types": ["transit_station", "point_of_interest", "establishment"], "user_ratings_total": 5, "vicinity": "Spain"}, {"business_status": "OPERATIONAL", "geometry": {"location": {"lat": 40.20729, "lng": -3.886749999999999}, "viewport": {"northeast": {"lat": 40.2086294802915, "lng": -3.885447619708498}, "southwest": {"lat": 40.20593151970851, "lng": -3.888145580291502}}}, "icon": "https://maps.gstatic.com/mapfiles/place_api/icons/v1/png_71/generic_business-71.png", "icon_background_color": "#7B9EB0", "icon_mask_base_uri": "https://maps.gstatic.com/mapfiles/place_api/icons/v2/generic_pinlet", "name": "Pºde la Ermita-Galicia", "place_id": "ChIJF82PXIvyQQ0ReF4ihbmjQeE", "plus_code": {"compound_code": "6447+W7 Serranillos del Valle, Spain", "global_code": "8CGR6447+W7"}, "reference": "ChIJF82PXIvyQQ0ReF4ihbmjQeE", "scope": "GOOGLE", "types": ["transit_station", "point_of_interest", "establishment"], "vicinity": "Spain"}, {"business_status": "OPERATIONAL", "geometry": {"location": {"lat": 40.20746, "lng": -3.887}, "viewport": {"northeast": {"lat": 40.20881908029151, "lng": -3.885620869708497}, "southwest": {"lat": 40.20612111970851, "lng": -3.888318830291502}}}, "icon": "https://maps.gstatic.com/mapfiles/place_api/icons/v1/png_71/generic_business-71.png", "icon_background_color": "#7B9EB0", "icon_mask_base_uri": "https://maps.gstatic.com/mapfiles/place_api/icons/v2/generic_pinlet", "name": "Pº de la Ermita-Río", "place_id": "ChIJucVhQ4vyQQ0RZ5kJn0ykHlo", "plus_code": {"compound_code": "6447+X5 Serranillos del Valle, Spain", "global_code": "8CGR6447+X5"}, "reference": "ChIJucVhQ4vyQQ0RZ5kJn0ykHlo", "scope": "GOOGLE", "types": ["transit_station", "point_of_interest", "establishment"], "vicinity": "Spain"}, {"business_status": "OPERATIONAL", "geometry": {"location": {"lat": 40.2048474, "lng": -3.8780874}, "viewport": {"northeast": {"lat": 40.2061830802915, "lng": -3.876740869708498}, "southwest": {"lat": 40.2034851197085, "lng": -3.879438830291502}}}, "icon": "https://maps.gstatic.com/mapfiles/place_api/icons/v1/png_71/generic_business-71.png", "icon_background_color": "#7B9EB0", "icon_mask_base_uri": "https://maps.gstatic.com/mapfiles/place_api/icons/v2/generic_pinlet", "name": "Almendros-Álamo", "place_id": "ChIJgwGBs_fyQQ0RB-oDlACwyvw", "plus_code": {"compound_code": "643C+WQ Serranillos del Valle, Spain", "global_code": "8CGR643C+WQ"}, "reference": "ChIJgwGBs_fyQQ0RB-oDlACwyvw", "scope": "GOOGLE", "types": ["transit_station", "point_of_interest", "establishment"], "vicinity": "Spain"}, {"business_status": "OPERATIONAL", "geometry": {"location": {"lat": 40.20867999999999, "lng": -3.87949}, "viewport": {"northeast": {"lat": 40.2100776302915, "lng": -3.878156069708497}, "southwest": {"lat": 40.2073796697085, "lng": -3.880854030291502}}}, "icon": "https://maps.gstatic.com/mapfiles/place_api/icons/v1/png_71/generic_business-71.png", "icon_background_color": "#7B9EB0", "icon_mask_base_uri": "https://maps.gstatic.com/mapfiles/place_api/icons/v2/generic_pinlet", "name": "C. Madrid-Urb.La Pradera", "place_id": "ChIJDZDJN_HyQQ0RztqSoo92B94", "plus_code": {"compound_code": "645C+F6 Serranillos del Valle, Spain", "global_code": "8CGR645C+F6"}, "rating": 3, "reference": "ChIJDZDJN_HyQQ0RztqSoo92B94", "scope": "GOOGLE", "types": ["transit_station", "point_of_interest", "establishment"], "user_ratings_total": 1, "vicinity": "Spain"}, {"business_status": "OPERATIONAL", "geometry": {"location": {"lat": 40.20882, "lng": -3.87942}, "viewport": {"northeast": {"lat": 40.2101737802915, "lng": -3.878072019708498}, "southwest": {"lat": 40.2074758197085, "lng": -3.880769980291503}}}, "icon": "https://maps.gstatic.com/mapfiles/place_api/icons/v1/png_71/generic_business-71.png", "icon_background_color": "#7B9EB0", "icon_mask_base_uri": "https://maps.gstatic.com/mapfiles/place_api/icons/v2/generic_pinlet", "name": "C. Madrid-Urb.La Pradera", "place_id": "ChIJDXywN_HyQQ0R_zK5tJi1lJ4", "plus_code": {"compound_code": "645C+G6 Serranillos del Valle, Spain", "global_code": "8CGR645C+G6"}, "reference": "ChIJDXywN_HyQQ0R_zK5tJi1lJ4", "scope": "GOOGLE", "types": ["transit_station", "point_of_interest", "establishment"], "vicinity": "Spain"}, {"business_status": "OPERATIONAL", "geometry": {"location": {"lat": 40.20494, "lng": -3.87721}, "viewport": {"northeast": {"lat": 40.2062816802915, "lng": -3.875860019708497}, "southwest": {"lat": 40.2035837197085, "lng": -3.878557980291502}}}, "icon": "https://maps.gstatic.com/mapfiles/place_api/icons/v1/png_71/generic_business-71.png", "icon_background_color": "#7B9EB0", "icon_mask_base_uri": "https://maps.gstatic.com/mapfiles/place_api/icons/v2/generic_pinlet", "name": "Almendros-Olmos", "place_id": "ChIJ6xM_vPfyQQ0R2UoCM9xWi0U", "plus_code": {"compound_code": "643F+X4 Serranillos del Valle, Spain", "global_code": "8CGR643F+X4"}, "rating": 5, "reference": "ChIJ6xM_vPfyQQ0R2UoCM9xWi0U", "scope": "GOOGLE", "types": ["transit_station", "point_of_interest", "establishment"], "user_ratings_total": 1, "vicinity": "Spain"}, {"business_status": "OPERATIONAL", "geometry": {"location": {"lat": 40.20473269999999, "lng": -3.875383499999999}, "viewport": {"northeast": {"lat": 40.2060569302915, "lng": -3.874042219708498}, "southwest": {"lat": 40.2033589697085, "lng": -3.876740180291503}}}, "icon": "https://maps.gstatic.com/mapfiles/place_api/icons/v1/png_71/generic_business-71.png", "icon_background_color": "#7B9EB0", "icon_mask_base_uri": "https://maps.gstatic.com/mapfiles/place_api/icons/v2/generic_pinlet", "name": "Almendros-Enebros", "place_id": "ChIJS_UoIvjyQQ0RnHn3kCcT_gI", "plus_code": {"compound_code": "643F+VR Serranillos del Valle, Spain", "global_code": "8CGR643F+VR"}, "reference": "ChIJS_UoIvjyQQ0RnHn3kCcT_gI", "scope": "GOOGLE", "types": ["transit_station", "point_of_interest", "establishment"], "vicinity": "Spain"}, {"business_status": "OPERATIONAL", "geometry": {"location": {"lat": 40.20675139999999, "lng": -3.875291899999999}, "viewport": {"northeast": {"lat": 40.20813313029149, "lng": -3.873937469708498}, "southwest": {"lat": 40.20543516970849, "lng": -3.876635430291502}}}, "icon": "https://maps.gstatic.com/mapfiles/place_api/icons/v1/png_71/generic_business-71.png", "icon_background_color": "#7B9EB0", "icon_mask_base_uri": "https://maps.gstatic.com/mapfiles/place_api/icons/v2/generic_pinlet", "name": "Magnolios-Enebros", "place_id": "ChIJRSO82_nyQQ0RXoBlNUOaHdU", "plus_code": {"compound_code": "644F+PV Serranillos del Valle, Spain", "global_code": "8CGR644F+PV"}, "reference": "ChIJRSO82_nyQQ0RXoBlNUOaHdU", "scope": "GOOGLE", "types": ["transit_station", "point_of_interest", "establishment"], "vicinity": "Spain"}, {"business_status": "OPERATIONAL", "geometry": {"location": {"lat": 40.20399, "lng": -3.8724}, "viewport": {"northeast": {"lat": 40.2053824802915, "lng": -3.871035419708498}, "southwest": {"lat": 40.20268451970851, "lng": -3.873733380291502}}}, "icon": "https://maps.gstatic.com/mapfiles/place_api/icons/v1/png_71/generic_business-71.png", "icon_background_color": "#7B9EB0", "icon_mask_base_uri": "https://maps.gstatic.com/mapfiles/place_api/icons/v2/generic_pinlet", "name": "Almendros-Polideportivo", "place_id": "ChIJQePkmPjyQQ0RE_R3YKtXtR4", "plus_code": {"compound_code": "643H+H2 Serranillos del Valle, Spain", "global_code": "8CGR643H+H2"}, "reference": "ChIJQePkmPjyQQ0RE_R3YKtXtR4", "scope": "GOOGLE", "types": ["transit_station", "point_of_interest", "establishment"], "vicinity": "Spain"}, {"business_status": "OPERATIONAL", "geometry": {"location": {"lat": 40.2100759, "lng": -3.8740891}, "viewport": {"northeast": {"lat": 40.2114333802915, "lng": -3.872743669708499}, "southwest": {"lat": 40.2087354197085, "lng": -3.875441630291503}}}, "icon": "https://maps.gstatic.com/mapfiles/place_api/icons/v1/png_71/generic_business-71.png", "icon_background_color": "#7B9EB0", "icon_mask_base_uri": "https://maps.gstatic.com/mapfiles/place_api/icons/v2/generic_pinlet", "name": "Ctra.M404-Urb.La Sierra", "place_id": "ChIJYSuOQvryQQ0Re7c6gz80vu8", "plus_code": {"compound_code": "646G+29 Serranillos del Valle, Spain", "global_code": "8CGR646G+29"}, "rating": 4, "reference": "ChIJYSuOQvryQQ0Re7c6gz80vu8", "scope": "GOOGLE", "types": ["transit_station", "point_of_interest", "establishment"], "user_ratings_total": 1, "vicinity": "Spain"}, {"business_status": "OPERATIONAL", "geometry": {"location": {"lat": 40.21004, "lng": -3.87394}, "viewport": {"northeast": {"lat": 40.2113884802915, "lng": -3.872598519708498}, "southwest": {"lat": 40.2086905197085, "lng": -3.875296480291502}}}, "icon": "https://maps.gstatic.com/mapfiles/place_api/icons/v1/png_71/generic_business-71.png", "icon_background_color": "#7B9EB0", "icon_mask_base_uri": "https://maps.gstatic.com/mapfiles/place_api/icons/v2/generic_pinlet", "name": "Ctra.M404-Urb.La Sierra", "place_id": "ChIJVa5kRvryQQ0RcTlQ6WDmkGk", "plus_code": {"compound_code": "646G+2C Serranillos del Valle, Spain", "global_code": "8CGR646G+2C"}, "reference": "ChIJVa5kRvryQQ0RcTlQ6WDmkGk", "scope": "GOOGLE", "types": ["transit_station", "point_of_interest", "establishment"], "vicinity": "Spain"}, {"business_status": "OPERATIONAL", "geometry": {"location": {"lat": 40.2067291, "lng": -3.8710851}, "viewport": {"northeast": {"lat": 40.20810993029149, "lng": -3.869739269708498}, "southwest": {"lat": 40.20541196970849, "lng": -3.872437230291502}}}, "icon": "https://maps.gstatic.com/mapfiles/place_api/icons/v1/png_71/generic_business-71.png", "icon_background_color": "#7B9EB0", "icon_mask_base_uri": "https://maps.gstatic.com/mapfiles/place_api/icons/v2/generic_pinlet", "name": "Magnolios-Olivares", "place_id": "ChIJS5DLMfnyQQ0RmkhIFRHLhCw", "plus_code": {"compound_code": "644H+MH Serranillos del Valle, Spain", "global_code": "8CGR644H+MH"}, "reference": "ChIJS5DLMfnyQQ0RmkhIFRHLhCw", "scope": "GOOGLE", "types": ["transit_station", "point_of_interest", "establishment"], "vicinity": "Spain"}, {"business_status": "OPERATIONAL", "geometry": {"location": {"lat": 40.19554, "lng": -3.87409}, "viewport": {"northeast": {"lat": 40.19688078029149, "lng": -3.872717969708498}, "southwest": {"lat": 40.19418281970849, "lng": -3.875415930291502}}}, "icon": "https://maps.gstatic.com/mapfiles/place_api/icons/v1/png_71/generic_business-71.png", "icon_background_color": "#7B9EB0", "icon_mask_base_uri": "https://maps.gstatic.com/mapfiles/place_api/icons/v2/generic_pinlet", "name": "Jazmines-Pol.Ind.Cañariego", "place_id": "ChIJ2eAoWVDyQQ0RzhnH8AUSHr0", "plus_code": {"compound_code": "54WG+69 Serranillos del Valle, Spain", "global_code": "8CGR54WG+69"}, "reference": "ChIJ2eAoWVDyQQ0RzhnH8AUSHr0", "scope": "GOOGLE", "types": ["transit_station", "point_of_interest", "establishment"], "vicinity": "Spain"}, {"business_status": "OPERATIONAL", "geometry": {"location": {"lat": 40.21077999999999, "lng": -3.87111}, "viewport": {"northeast": {"lat": 40.21214348029149, "lng": -3.869768069708497}, "southwest": {"lat": 40.2094455197085, "lng": -3.872466030291502}}}, "icon": "https://maps.gstatic.com/mapfiles/place_api/icons/v1/png_71/generic_business-71.png", "icon_background_color": "#7B9EB0", "icon_mask_base_uri": "https://maps.gstatic.com/mapfiles/place_api/icons/v2/generic_pinlet", "name": "Ctra.M404-Brezo", "place_id": "ChIJxXI-efzyQQ0R5DIegCVCCOU", "plus_code": {"compound_code": "646H+8H Serranillos del Valle, Spain", "global_code": "8CGR646H+8H"}, "reference": "ChIJxXI-efzyQQ0R5DIegCVCCOU", "scope": "GOOGLE", "types": ["transit_station", "point_of_interest", "establishment"], "vicinity": "Spain"}, {"business_status": "OPERATIONAL", "geometry": {"location": {"lat": 40.21091, "lng": -3.870470000000001}, "viewport": {"northeast": {"lat": 40.2122167302915, "lng": -3.869135019708498}, "southwest": {"lat": 40.2095187697085, "lng": -3.871832980291502}}}, "icon": "https://maps.gstatic.com/mapfiles/place_api/icons/v1/png_71/generic_business-71.png", "icon_background_color": "#7B9EB0", "icon_mask_base_uri": "https://maps.gstatic.com/mapfiles/place_api/icons/v2/generic_pinlet", "name": "Brezo-Crta.M404", "place_id": "ChIJd-wugPzyQQ0RbNGGROvgVgI", "plus_code": {"compound_code": "646H+9R Serranillos del Valle, Spain", "global_code": "8CGR646H+9R"}, "reference": "ChIJd-wugPzyQQ0RbNGGROvgVgI", "scope": "GOOGLE", "types": ["transit_station", "point_of_interest", "establishment"], "vicinity": "Spain"}, {"business_status": "OPERATIONAL", "geometry": {"location": {"lat": 40.1934264, "lng": -3.8753438}, "viewport": {"northeast": {"lat": 40.1947857802915, "lng": -3.874020069708497}, "southwest": {"lat": 40.1920878197085, "lng": -3.876718030291502}}}, "icon": "https://maps.gstatic.com/mapfiles/place_api/icons/v1/png_71/generic_business-71.png", "icon_background_color": "#7B9EB0", "icon_mask_base_uri": "https://maps.gstatic.com/mapfiles/place_api/icons/v2/generic_pinlet", "name": "Ctra.M415-Restaurante", "place_id": "ChIJB_72A1DyQQ0R8COOTksPjao", "plus_code": {"compound_code": "54VF+9V Serranillos del Valle, Spain", "global_code": "8CGR54VF+9V"}, "reference": "ChIJB_72A1DyQQ0R8COOTksPjao", "scope": "GOOGLE", "types": ["transit_station", "point_of_interest", "establishment"], "vicinity": "Spain"}, {"business_status": "OPERATIONAL", "geometry": {"location": {"lat": 40.21288, "lng": -3.86327}, "viewport": {"northeast": {"lat": 40.2142264802915, "lng": -3.861919919708497}, "southwest": {"lat": 40.2115285197085, "lng": -3.864617880291502}}}, "icon": "https://maps.gstatic.com/mapfiles/place_api/icons/v1/png_71/generic_business-71.png", "icon_background_color": "#7B9EB0", "icon_mask_base_uri": "https://maps.gstatic.com/mapfiles/place_api/icons/v2/generic_pinlet", "name": "Av.Navalcarnero-Urb.Los Nidos", "place_id": "ChIJU0v33gLzQQ0R2hCat6Kefh8", "plus_code": {"compound_code": "647P+5M Griñón, Spain", "global_code": "8CGR647P+5M"}, "reference": "ChIJU0v33gLzQQ0R2hCat6Kefh8", "scope": "GOOGLE", "types": ["transit_station", "point_of_interest", "establishment"], "vicinity": "Spain"}, {"business_status": "OPERATIONAL", "geometry": {"location": {"lat": 40.21298759999999, "lng": -3.8633306}, "viewport": {"northeast": {"lat": 40.2143431802915, "lng": -3.861984769708497}, "southwest": {"lat": 40.2116452197085, "lng": -3.864682730291502}}}, "icon": "https://maps.gstatic.com/mapfiles/place_api/icons/v1/png_71/generic_business-71.png", "icon_background_color": "#7B9EB0", "icon_mask_base_uri": "https://maps.gstatic.com/mapfiles/place_api/icons/v2/generic_pinlet", "name": "Av.Navalcarnero-Urb.Los Nidos", "place_id": "ChIJMWMH3ALzQQ0RvjBE6AO_YdY", "plus_code": {"compound_code": "647P+5M Griñón, Spain", "global_code": "8CGR647P+5M"}, "reference": "ChIJMWMH3ALzQQ0RvjBE6AO_YdY", "scope": "GOOGLE", "types": ["transit_station", "point_of_interest", "establishment"], "vicinity": "Spain"}]