[{"geometry": {"location": {"lat": 40.4176079, "lng": -4.1987434}, "viewport": {"northeast": {"lat": 40.42626307663302, "lng": -4.190691957953372}, "southwest": {"lat": 40.41145113340971, "lng": -4.203427133936692}}}, "icon": "https://maps.gstatic.com/mapfiles/place_api/icons/v1/png_71/geocode-71.png", "icon_background_color": "#7B9EB0", "icon_mask_base_uri": "https://maps.gstatic.com/mapfiles/place_api/icons/v2/generic_pinlet", "name": "Colmenar del Arroyo", "photos": [{"height": 1468, "html_attributions": ["<a href=\"https://maps.google.com/maps/contrib/101321764474141234821\">ricardo fernández del Blanco</a>"], "photo_reference": "AWn5SU6SMzHtsMNtT84F2m-9vVha0BIvS6c3SRuTUYTatqUHw2W_ot9YntQ64vA8DQCzuikRdZd3i79hJGosMGcoAqmLsPBJq6vNyHb3goTcoRVcPTrBAPbvXr33CxN7y5AeDbHSEFmXm6h1Id3xLhUMhlROWjd687V-B9XluQZ2WDKNIrJ3sa7ZT-vjcnY1NScquzzzmJmfGprRLjHy6veyQE22Db1rb9uBDy760uEvloL-KUo-mAfoxMpJfFBOZJVxja1DUJVUr6tQ6SmfofzabEyVXg8PvZ9jCg5UFcFeS7jdGffjlMIkrQKLSnfuqsMtEB2-Era9LtslGaENInJBufYaTnipTClSrBFBLqlhbKaRMuOHS0IEKuU5_naUYz5DCNZlfiv2O6jarsAAAV9CfgLJCm7mrs4L21cnxfIEPNiUg7nnAYkqZvtxvCZdbEZ5riF7uan3fdl5IlHuji28L-GCMEsNTccAIO4r7IvikBAO8bHR5EwSoExYSVqrV-Dtk9dYSMkNnhUY2OcfLSUMZq7Civ06IP7rI6iy57iDk8oRqORJMxT5knixlMaDcjR21-pTqvSGj_eEZc6kEvHCFoJ3EeOsmw5hesf5JnLRPsJllFV7-NodMiIV9qp76VBLZc5OiA", "width": 3264}], "place_id": "ChIJTcyaBiKlQQ0RLGDHkdveVYA", "reference": "ChIJTcyaBiKlQQ0RLGDHkdveVYA", "scope": "GOOGLE", "types": ["locality", "political"], "vicinity": "Colmenar del Arroyo"}, {"business_status": "OPERATIONAL", "geometry": {"location": {"lat": 40.41577839999999, "lng": -4.2010149}, "viewport": {"northeast": {"lat": 40.41673438029149, "lng": -4.199832719708498}, "southwest": {"lat": 40.4140364197085, "lng": -4.202530680291503}}}, "icon": "https://maps.gstatic.com/mapfiles/place_api/icons/v1/png_71/lodging-71.png", "icon_background_color": "#909CE1", "icon_mask_base_uri": "https://maps.gstatic.com/mapfiles/place_api/icons/v2/hotel_pinlet", "international_phone_number": "+34 912 79 88 34", "name": "Albus Albi Hotel y Apartamentos Rurales en Madrid", "opening_hours": {"open_now": false}, "photos": [{"height": 1536, "html_attributions": ["<a href=\"https://maps.google.com/maps/contrib/114498105779716824489\">Albus Albi Hotel y Apartamentos Rurales en Madrid</a>"], "photo_reference": "AWn5SU5pDtUKo9bLxhzU18tb6xX79WdW6XEFNrQ5e_mW4LfiQm5sB6jPfGBW2D8IvSwZLRkeQA1uZgY5iFPem1A0QWL9Zhp83ZaNfLHm1AUCpxol4kTAL1eyESfTjHfnkDmrQy7JgYLUCl3nFOLlp4cQw8kft9QKkKoJPjNvCv5wcyLQxBrtloP8SBe3UuuwAPXr5gS1P852ERl9r9yA-KDiRltGJvzRd3eofkbRO0S9OlEefZlPXsDNXujbhI1gtdUxIFl4ZQ9f8O5CGrAPOxiiLw4VJPW6KwE1D_paNVBlhJEdg3iQIaGS5eX3vlpwelrqGfaEu5jYp6E", "width": 2048}], "place_id": "ChIJhyrl3BilQQ0ROg-YpIbN-tU", "plus_code": {"compound_code": "CQ8X+8H Colmenar del Arroyo, Spain", "global_code": "8CGQCQ8X+8H"}, "rating": 4.8, "reference": "ChIJhyrl3BilQQ0ROg-YpIbN-tU", "scope": "GOOGLE", "types": ["lodging", "point_of_interest", "establishment"], "user_ratings_total": 197, "vicinity": "Calle Toledo, 1, Colmenar del Arroyo"}, {"business_status": "OPERATIONAL", "geometry": {"location": {"lat": 40.4053175, "lng": -4.210198499999999}, "viewport": {"northeast": {"lat": 40.4067896802915, "lng": -4.208547119708498}, "southwest": {"lat": 40.4040917197085, "lng": -4.211245080291502}}}, "icon": "https://maps.gstatic.com/mapfiles/place_api/icons/v1/png_71/generic_business-71.png", "icon_background_color": "#7B9EB0", "icon_mask_base_uri": "https://maps.gstatic.com/mapfiles/place_api/icons/v2/generic_pinlet", "international_phone_number": "+34 616 01 50 04", "name": "Centro Canino entrEncinas", "opening_hours": {"open_now": false}, "photos": [{"height": 720, "html_attributions": ["<a href=\"https://maps.google.com/maps/contrib/105216054899087486470\">Centro Canino entrEncinas</a>"], "photo_reference": "AWn5SU4S5RXqmQqyWz8gf54CLbl1l_oc43AwZbD5NJDTfwwdlsCD-gFPuf-zuYie09glkyARHqjzEDy6QHZZOh6sJ633xRvTQS9J7F4DrOtk_PH2rDDqo5IZavTphw3Xd-5f08tg0-b6isAQHXz27-C6CYFY0ZIIVdixF_5EG90f2n3mqK9LJjvx4WT5FLyp8mEf2DKjhVLyzDb-rwY5as9jPP8aQPWEfZXKWeYKY6aJQGQWizqt9SFr8vjylf0-lpCmYApwy5r5KhuZvDq2JdYIPhf2sn1T_hNLPsod0hGdlPg7X54lIO7VK_jTldUZx4VYxSaxmzkL6CI", "width": 720}], "place_id": "ChIJF5FAYDqlQQ0RnpqlGrX3O58", "plus_code": {"compound_code": "CQ4Q+4W Colmenar del Arroyo, Spain", "global_code": "8CGQCQ4Q+4W"}, "rating": 4.6, "reference": "ChIJF5FAYDqlQQ0RnpqlGrX3O58", "scope": "GOOGLE", "types": ["point_of_interest", "establishment"], "user_ratings_total": 371, "vicinity": "M-510, km. 37, 500, Colmenar del Arroyo"}, {"business_status": "OPERATIONAL", "geometry": {"location": {"lat": 40.4194482, "lng": -4.1984254}, "viewport": {"northeast": {"lat": 40.4207876802915, "lng": -4.197028069708498}, "southwest": {"lat": 40.4180897197085, "lng": -4.199726030291503}}}, "icon": "https://maps.gstatic.com/mapfiles/place_api/icons/v1/png_71/civic_building-71.png", "icon_background_color": "#7B9EB0", "icon_mask_base_uri": "https://maps.gstatic.com/mapfiles/place_api/icons/v2/civic-bldg_pinlet", "international_phone_number": "+34 918 65 10 24", "name": "Consultorio Local Colmenar Del Arroyo", "opening_hours": {"open_now": false}, "photos": [{"height": 2351, "html_attributions": ["<a href=\"https://maps.google.com/maps/contrib/103644858766260406648\">Un opinante delirante</a>"], "photo_reference": "AWn5SU4lVglBU1hMNzL1WD6Qpv0adIGGOLlfO8ZOsWqLtzTjrDDVIB8JKyAJNMk1hQASKLYOtbMVjftA1HpxfPnAyniTBSgLGGTPP89oMkemxqhdbyX2pIzoBxmvKrjBA47GYCzXR-JcN4HzouEN-mf619IL3SDw4fKT0GptxSutBCRdwe2Tzo2vp_Cqrc3HQnuhrl9vugBz3tbLHuhLUKJuij7UbocQIg-AUOTHA2We8qzT5ds3P1-AILuz4oqF_LrTiyvQjeNb1SENSnLv7sdMs3YwQKQm0UvT-gtKAhVsX6RUlSJROXskJaDXhv4Y4xLrCo6CNoxJh3nLUd5jK-iENeyBVEmxdowy1LRUQ4dNV8pcROF7eAwVkWLBmUtEuakplemPwFsTkI6jv2B3Hgygsw-uKosfCvgLHrlj_PQ6Ei0qV1VgOLg7Mp5LlEJxniAL3tI8B5Zzxl8GPkC-oAKow3RVPBekugBF04QL8136pRvHEVLWU6rSkR4dJECbXgDAmT5NBEVhbp9XnMNkiZS9a6WGLf2tc2WEVgmmQwBGffJK28aD0-tzonJB9_GAf-rAEtsCXiRiUVk0VHqHuBTrUgYbOjSv3Ikz4xuwrITY4E4F9uUTG3iIWpAxXJ7wtOu8vsCTxg", "width": 3887}], "place_id": "ChIJg6L83hmwQQ0RSawHpYFt4uk", "plus_code": {"compound_code": "CR92+QJ Colmenar del Arroyo, Spain", "global_code": "8CGQCR92+QJ"}, "rating": 3.4, "reference": "ChIJg6L83hmwQQ0RSawHpYFt4uk", "scope": "GOOGLE", "types": ["health", "point_of_interest", "establishment"], "user_ratings_total": 11, "vicinity": "Calle Real, 7, Colmenar del Arroyo"}, {"business_status": "OPERATIONAL", "geometry": {"location": {"lat": 40.38110729999999, "lng": -4.2172822}, "viewport": {"northeast": {"lat": 40.38249608029149, "lng": -4.215939919708498}, "southwest": {"lat": 40.3797981197085, "lng": -4.218637880291503}}}, "icon": "https://maps.gstatic.com/mapfiles/place_api/icons/v1/png_71/generic_business-71.png", "icon_background_color": "#7B9EB0", "icon_mask_base_uri": "https://maps.gstatic.com/mapfiles/place_api/icons/v2/generic_pinlet", "international_phone_number": "+34 918 65 01 33", "name": "Extintores Hermanos Zoyo SL", "opening_hours": {"open_now": false}, "photos": [{"height": 2448, "html_attributions": ["<a href=\"https://maps.google.com/maps/contrib/101419470144107994701\">Extintores Hermanos Zoyo SL</a>"], "photo_reference": "AWn5SU6YIRsTAT9oNel5MXvv_nDO2-cPCbP4rsUuFmnxRAbFRaGySdlCKHMtZ_78_JojZ-EjdLpxvpTV6MNDtsjlrAjVKgivxSnXODuEArPYQGBIeliIlPx9-snHqdt5Ts5Irl68ZdNb-ozppDvb-o2T6I3uVOPceHe_fDgvhucdCZ1GGskS6WW4lUHK2ssXS_-qO2fTiV123g1q-SxAf90KbeWr-a2ArYsWa54BFNpDs7XK4O8KcSOtRXBbD6piG8gW9NZ67e7oj2swTmomaicYAXh0G-WrUFI2ocyPeJomTFKEBfHKX1i0jDgcY1yXB85GfM7wDRi8BTI", "width": 3264}], "place_id": "ChIJcahqEBuwQQ0RubJMxkNHhYM", "plus_code": {"compound_code": "9QJM+C3 Chapinería, Spain", "global_code": "8CGQ9QJM+C3"}, "rating": 4.3, "reference": "ChIJcahqEBuwQQ0RubJMxkNHhYM", "scope": "GOOGLE", "types": ["point_of_interest", "establishment"], "user_ratings_total": 12, "vicinity": "Avenida de los Cañales, 5, Chapinería"}, {"business_status": "OPERATIONAL", "geometry": {"location": {"lat": 40.39919019999999, "lng": -4.199850899999999}, "viewport": {"northeast": {"lat": 40.40055598029149, "lng": -4.198447169708498}, "southwest": {"lat": 40.39785801970849, "lng": -4.201145130291502}}}, "icon": "https://maps.gstatic.com/mapfiles/place_api/icons/v1/png_71/shopping-71.png", "icon_background_color": "#4B96F3", "icon_mask_base_uri": "https://maps.gstatic.com/mapfiles/place_api/icons/v2/shopping_pinlet", "international_phone_number": "+34 609 20 50 36", "name": "Grupo Foto", "place_id": "ChIJJajSL4WJQQ0RvQpjoDR7Gsg", "plus_code": {"compound_code": "9RX2+M3 Chapinería, Spain", "global_code": "8CGQ9RX2+M3"}, "reference": "ChIJJajSL4WJQQ0RvQpjoDR7Gsg", "scope": "GOOGLE", "types": ["electronics_store", "home_goods_store", "store", "point_of_interest", "establishment"], "vicinity": "Calle Eucalipto, 2, Chapinería"}, {"business_status": "OPERATIONAL", "geometry": {"location": {"lat": 40.4185129, "lng": -4.199547}, "viewport": {"northeast": {"lat": 40.4198081802915, "lng": -4.198123319708499}, "southwest": {"lat": 40.4171102197085, "lng": -4.200821280291503}}}, "icon": "https://maps.gstatic.com/mapfiles/place_api/icons/v1/png_71/school-71.png", "icon_background_color": "#7B9EB0", "icon_mask_base_uri": "https://maps.gstatic.com/mapfiles/place_api/icons/v2/school_pinlet", "international_phone_number": "+34 918 65 13 48", "name": "Public school San Vicente", "photos": [{"height": 3984, "html_attributions": ["<a href=\"https://maps.google.com/maps/contrib/116159096298803854095\">Antoño “El Tio Antoño” El Tío</a>"], "photo_reference": "AWn5SU5QFnMVmXQ_NSSiVMLJmpuuReKh02Yu9GcxlIGvhLg36C63kv7791QtvVSo5sAJAitg_Ru4Zca4AgVbxwVp3VLSy7jUCmIlMdRC27uqK5gR5oRfNJVwZUXh1qP9V75CGHLDq_u4Oklbf4KXXLRM1D6cUOUH5dOydodfauQfBimATO8yr1JYBu_8crdlCgGrafZjnMY9Y81mGnfHz6yuy4FhZFR7AhQza9Sk35__IojckYPlt4SOWlgkN9vfm58e-36XBNkKrTnAQQAuSrdmxp2xTo_zX6Dk1QSahUPYn3PFAoJldSpupNmFvBQVVhknbWW8Ry8QyEx5bYsiso_O45ZFQSfPetZODj_NIve0ucpsFK2X_nUy08XVMlhFGYhJnMxiuGVrNvjrz-mzEW49EjaVuu7Z3mpMIkUh4vZ0jxO330NIQFmZqdpVAmhId1ldFMhzOV3OKLLUKfd2bWzowh--oh1CvYnDUN0MGPqzzmkCK4WDYH7xuvCW5kf0DxFbBPQ-ZryaBQvTLhdD3xggFSBh1Vzzk8YUt5I4uyiAjqsGAwMz4D47Me9tax_PYkXwTR14d4J9bzjZ0Eo8-8i8w-XLqLCBvfB02BU9PoMlzfuKn5UiObNpUZA5HBdnJgAVlzaSVQ", "width": 2988}], "place_id": "ChIJW-bj_BilQQ0R6eDHGjCwLAc", "plus_code": {"compound_code": "CR92+C5 Colmenar del Arroyo, Spain", "global_code": "8CGQCR92+C5"}, "reference": "ChIJW-bj_BilQQ0R6eDHGjCwLAc", "scope": "GOOGLE", "types": ["school", "point_of_interest", "establishment"], "vicinity": "Calle de las Escuelas, Colmenar del Arroyo"}, {"business_status": "OPERATIONAL", "geometry": {"location": {"lat": 40.381121, "lng": -4.2183705}, "viewport": {"northeast": {"lat": 40.3824584802915, "lng": -4.217019419708498}, "southwest": {"lat": 40.3797605197085, "lng": -4.219717380291502}}}, "icon": "https://maps.gstatic.com/mapfiles/place_api/icons/v1/png_71/generic_business-71.png", "icon_background_color": "#7B9EB0", "icon_mask_base_uri": "https://maps.gstatic.com/mapfiles/place_api/icons/v2/generic_pinlet", "international_phone_number": "+34 918 60 55 17", "name": "Armaclos S L", "opening_hours": {"open_now": false}, "place_id": "ChIJJUMhQrm6QQ0Rt3U-t61SGM0", "plus_code": {"compound_code": "9QJJ+CM Chapinería, Spain", "global_code": "8CGQ9QJJ+CM"}, "rating": 5, "reference": "ChIJJUMhQrm6QQ0Rt3U-t61SGM0", "scope": "GOOGLE", "types": ["point_of_interest", "establishment"], "user_ratings_total": 2, "vicinity": "Avenida de los Cañales, 20, Chapinería"}, {"business_status": "OPERATIONAL", "geometry": {"location": {"lat": 40.42516759999999, "lng": -4.200143}, "viewport": {"northeast": {"lat": 40.42654183029149, "lng": -4.198755719708497}, "southwest": {"lat": 40.4238438697085, "lng": -4.201453680291502}}}, "icon": "https://maps.gstatic.com/mapfiles/place_api/icons/v1/png_71/generic_business-71.png", "icon_background_color": "#7B9EB0", "icon_mask_base_uri": "https://maps.gstatic.com/mapfiles/place_api/icons/v2/generic_pinlet", "international_phone_number": "+34 918 65 13 12", "name": "Conducciones Hidraulicas Sa", "place_id": "ChIJN0XczhqlQQ0RCJOoKs4eBY4", "plus_code": {"compound_code": "CQGX+3W Colmenar del Arroyo, Spain", "global_code": "8CGQCQGX+3W"}, "rating": 4.5, "reference": "ChIJN0XczhqlQQ0RCJOoKs4eBY4", "scope": "GOOGLE", "types": ["general_contractor", "point_of_interest", "establishment"], "user_ratings_total": 4, "vicinity": "Paseo de Navalafuente, 19, Colmenar del Arroyo"}, {"business_status": "OPERATIONAL", "geometry": {"location": {"lat": 40.3808584, "lng": -4.220901199999999}, "viewport": {"northeast": {"lat": 40.3821606802915, "lng": -4.219540519708498}, "southwest": {"lat": 40.3794627197085, "lng": -4.222238480291503}}}, "icon": "https://maps.gstatic.com/mapfiles/place_api/icons/v1/png_71/generic_business-71.png", "icon_background_color": "#7B9EB0", "icon_mask_base_uri": "https://maps.gstatic.com/mapfiles/place_api/icons/v2/generic_pinlet", "international_phone_number": "+34 918 60 55 58", "name": "Neuforma S.L Ventanas de madera", "opening_hours": {"open_now": false}, "photos": [{"height": 1536, "html_attributions": ["<a href=\"https://maps.google.com/maps/contrib/101838254408614106792\">Neuforma S.L Ventanas de madera</a>"], "photo_reference": "AWn5SU7tyP954dT6uAt-Hb65OeSQTT_7ojn1jJgn_JV1CtyHoqxKshW5W0IM_S9M2eLyiDDTSRcjZgecUGWLWdyO_ZIzeA6Yld3AEfo7PY7PX5bhNu76AotXDObXePy0GrIHSYxEzEcWH8aZG-GozYrPcH3-OAKzuOdCnmXjgNlNNaUILoNWw2gzkiJmPaNZTtXE7nCi_rCoCG4K7ShKgTmr9FxyPp_-nlfsGM6zO9R5wtnJG5l1gYiPy6fYXlMdGYMP6tTaHfD2nbf_lOVOZ4NyC2HbsMpNYE3hit2akDCMs0UHUimobSJzcgAxupjwbQNv8SEPWf5PRUM", "width": 2048}], "place_id": "ChIJ2Ubec7u6QQ0R-ZVs1w7xDtc", "plus_code": {"compound_code": "9QJH+8J Chapinería, Spain", "global_code": "8CGQ9QJH+8J"}, "rating": 5, "reference": "ChIJ2Ubec7u6QQ0R-ZVs1w7xDtc", "scope": "GOOGLE", "types": ["general_contractor", "point_of_interest", "establishment"], "user_ratings_total": 16, "vicinity": "Avenida de los Cañales, 34, Chapinería"}, {"business_status": "OPERATIONAL", "geometry": {"location": {"lat": 40.4198979, "lng": -4.201509}, "viewport": {"northeast": {"lat": 40.4212682302915, "lng": -4.200175569708498}, "southwest": {"lat": 40.4185702697085, "lng": -4.202873530291503}}}, "icon": "https://maps.gstatic.com/mapfiles/place_api/icons/v1/png_71/generic_business-71.png", "icon_background_color": "#7B9EB0", "icon_mask_base_uri": "https://maps.gstatic.com/mapfiles/place_api/icons/v2/generic_pinlet", "international_phone_number": "+34 644 26 95 79", "name": "FIGNAMORotulación", "opening_hours": {"open_now": false}, "place_id": "ChIJU_jA2hmlQQ0RfvADsMYIaqg", "plus_code": {"compound_code": "CQ9X+X9 Colmenar del Arroyo, Spain", "global_code": "8CGQCQ9X+X9"}, "rating": 5, "reference": "ChIJU_jA2hmlQQ0RfvADsMYIaqg", "scope": "GOOGLE", "types": ["point_of_interest", "establishment"], "user_ratings_total": 2, "vicinity": "Calle Caño Viejo, 10, Colmenar del Arroyo"}, {"business_status": "OPERATIONAL", "geometry": {"location": {"lat": 40.3818853, "lng": -4.2169174}, "viewport": {"northeast": {"lat": 40.3833475802915, "lng": -4.215594369708498}, "southwest": {"lat": 40.3806496197085, "lng": -4.218292330291503}}}, "icon": "https://maps.gstatic.com/mapfiles/place_api/icons/v1/png_71/shopping-71.png", "icon_background_color": "#4B96F3", "icon_mask_base_uri": "https://maps.gstatic.com/mapfiles/place_api/icons/v2/shopping_pinlet", "international_phone_number": "+34 918 54 80 84", "name": "Galpark Ibérica", "opening_hours": {"open_now": false}, "photos": [{"height": 768, "html_attributions": ["<a href=\"https://maps.google.com/maps/contrib/117142952443570834146\">Galpark Ibérica</a>"], "photo_reference": "AWn5SU6NzUEiWhqycK5CYiBlAgaRBxz0ScFgL_DMldEbYqUMH2iu3NQ-YIyqCklyC3la_PrC_Vq6fVPa26vphf3-NPOTsqQ9Iyb1cC9SopFEGnj6lPuiuccnC4AvZ5PUtmQe9MPNBXzYvgZjb17NHcOm4ZHHOKtxD5kbTEA15JtrwMT5I3UYXRLUUQmpyrFu2zLYZgoruadTG-Gw4v28aQWFRXrGmSa11ocw8BAthRHCekxSFnIqOvetzUCiUPcPUtVZlN0UNVMLHw4_ZjdOWlDv6Im36lxYmq-jDFDByM1lFqVZbGqEt23MIiPGp9v-FI-Lzrq3m1uDUcQ", "width": 1024}], "place_id": "ChIJzwAzTrYMQQ0Rw2OS3YFLxSw", "plus_code": {"compound_code": "9QJM+Q6 Chapinería, Spain", "global_code": "8CGQ9QJM+Q6"}, "rating": 4.3, "reference": "ChIJzwAzTrYMQQ0Rw2OS3YFLxSw", "scope": "GOOGLE", "types": ["furniture_store", "home_goods_store", "store", "point_of_interest", "establishment"], "user_ratings_total": 13, "vicinity": "Calle Fuente de la Apretura, 13, Chapinería"}, {"business_status": "OPERATIONAL", "geometry": {"location": {"lat": 40.4165156, "lng": -4.1983274}, "viewport": {"northeast": {"lat": 40.4178870302915, "lng": -4.196969469708498}, "southwest": {"lat": 40.4151890697085, "lng": -4.199667430291503}}}, "icon": "https://maps.gstatic.com/mapfiles/place_api/icons/v1/png_71/generic_business-71.png", "icon_background_color": "#7B9EB0", "icon_mask_base_uri": "https://maps.gstatic.com/mapfiles/place_api/icons/v2/generic_pinlet", "international_phone_number": "+34 918 65 12 12", "name": "EINKEL Computing Solutions", "place_id": "ChIJK479philQQ0R0SwTdPq7kgc", "plus_code": {"compound_code": "CR82+JM Colmenar del Arroyo, Spain", "global_code": "8CGQCR82+JM"}, "reference": "ChIJK479philQQ0R0SwTdPq7kgc", "scope": "GOOGLE", "types": ["point_of_interest", "establishment"], "vicinity": "Calle Lanchas, 5, Colmenar del Arroyo"}, {"business_status": "OPERATIONAL", "geometry": {"location": {"lat": 40.4202277, "lng": -4.201073699999999}, "viewport": {"northeast": {"lat": 40.4215649302915, "lng": -4.199694319708498}, "southwest": {"lat": 40.4188669697085, "lng": -4.202392280291503}}}, "icon": "https://maps.gstatic.com/mapfiles/place_api/icons/v1/png_71/generic_business-71.png", "icon_background_color": "#13B5C7", "icon_mask_base_uri": "https://maps.gstatic.com/mapfiles/place_api/icons/v2/generic_pinlet", "international_phone_number": "+34 686 09 95 95", "name": "Alfonso Morán Groba", "place_id": "ChIJXSXG92xiLw0RenZ-wGA4lAw", "plus_code": {"compound_code": "CQCX+3H Colmenar del Arroyo, Spain", "global_code": "8CGQCQCX+3H"}, "rating": 5, "reference": "ChIJXSXG92xiLw0RenZ-wGA4lAw", "scope": "GOOGLE", "types": ["point_of_interest", "establishment"], "user_ratings_total": 5, "vicinity": "Calle Caño Viejo, 7, Colmenar del Arroyo"}, {"business_status": "OPERATIONAL", "geometry": {"location": {"lat": 40.41853169999999, "lng": -4.198388099999999}, "viewport": {"northeast": {"lat": 40.4197087302915, "lng": -4.196918819708497}, "southwest": {"lat": 40.4170107697085, "lng": -4.199616780291501}}}, "icon": "https://maps.gstatic.com/mapfiles/place_api/icons/v1/png_71/restaurant-71.png", "icon_background_color": "#FF9E67", "icon_mask_base_uri": "https://maps.gstatic.com/mapfiles/place_api/icons/v2/restaurant_pinlet", "international_phone_number": "+34 918 65 73 15", "name": "Bar Mariano", "opening_hours": {"open_now": false}, "photos": [{"height": 3024, "html_attributions": ["<a href=\"https://maps.google.com/maps/contrib/112785528980594567543\">Álvaro Casado Manso</a>"], "photo_reference": "AWn5SU6byYrwoGIz9z19kKsUcJT2S0XCIL2QmI5Y1xMO0cjI7lFw7rF8V8-wYoUZYKwV0AjQ9F4_jF_pwHKU-GVvuBk8rU1Jl9SpuVRqGkJlTEivGoWnFFZo8KZjo9koU009Bxa9VpRkaeBY0BIrgOueDsvKCXMim-MU9cVn68CUkMa9J8zvYSBjzUYmIAVXWgEyBrH7MHT8wAFBIlhGri5OsUDttPbjgJjq0jebfhygDWEvKDCYvC2-Yc7ovwIY0PVEXqfE_gHOoQKE7Lp3-6hFipgrl3x_5uWpkEX5kpp0zxUHXHl58x9m-0VLOpqovMTc5ALdiwAZKVasLdPk3bMEEkFLr9BPLOTAOmKP6WUYPXlGLpYOc6-8_CneTAboYar_c4_J9uzDGOR499l0NtmC94xJn3Jt8TSgEOTzl9qZ8gNGcTUoru-PrMxdxJetUwpf13L_KzPGNd85wpgpanifslFbXrubKJuNXob3EcN1kKD1MBTwMx9eGs8miqEzRenzxA5XBtBpLQsYJg1pY2FbtZEM6KGfbpI2oKgkOIBPfxotmZ2Joh82pTH8SNFvJ-zOvh1uOyHd3B0oglZYV8R9886FRJj0JLdcsn5WmDdDZnais6j2NfB4iOVSpEVxoVP5dYG0NAYk", "width": 4032}], "place_id": "ChIJKRPw2xilQQ0R8VBD-xBmeb0", "plus_code": {"compound_code": "CR92+CJ Colmenar del Arroyo, Spain", "global_code": "8CGQCR92+CJ"}, "price_level": 1, "rating": 3.8, "reference": "ChIJKRPw2xilQQ0R8VBD-xBmeb0", "scope": "GOOGLE", "types": ["restaurant", "bar", "food", "point_of_interest", "establishment"], "user_ratings_total": 354, "vicinity": "Plaza de España, 3, Colmenar del Arroyo"}, {"business_status": "OPERATIONAL", "geometry": {"location": {"lat": 40.41827809999999, "lng": -4.200178599999999}, "viewport": {"northeast": {"lat": 40.4196542802915, "lng": -4.198763019708498}, "southwest": {"lat": 40.4169563197085, "lng": -4.201460980291502}}}, "icon": "https://maps.gstatic.com/mapfiles/place_api/icons/v1/png_71/generic_business-71.png", "icon_background_color": "#7B9EB0", "icon_mask_base_uri": "https://maps.gstatic.com/mapfiles/place_api/icons/v2/generic_pinlet", "international_phone_number": "+34 626 88 82 99", "name": "Dal Bhat Distribuciones, S.L.", "place_id": "ChIJ567hVxilQQ0RCcnlooL4axE", "plus_code": {"compound_code": "CQ9X+8W Colmenar del Arroyo, Spain", "global_code": "8CGQCQ9X+8W"}, "reference": "ChIJ567hVxilQQ0RCcnlooL4axE", "scope": "GOOGLE", "types": ["point_of_interest", "establishment"], "vicinity": "Calle Cerrillo San Gregorio, 2, Colmenar del Arroyo"}, {"business_status": "OPERATIONAL", "geometry": {"location": {"lat": 40.4203135, "lng": -4.198254599999999}, "viewport": {"northeast": {"lat": 40.4216667802915, "lng": -4.196852819708496}, "southwest": {"lat": 40.4189688197085, "lng": -4.199550780291501}}}, "icon": "https://maps.gstatic.com/mapfiles/place_api/icons/v1/png_71/shopping-71.png", "icon_background_color": "#4B96F3", "icon_mask_base_uri": "https://maps.gstatic.com/mapfiles/place_api/icons/v2/shopping_pinlet", "international_phone_number": "+34 609 70 13 60", "name": "Chollo Colchón", "photos": [{"height": 3024, "html_attributions": ["<a href=\"https://maps.google.com/maps/contrib/107315993819784796019\">lmanuel 33</a>"], "photo_reference": "AWn5SU6WF-gm6sCq7knQQxFKphDeQKmLpDiMWQSIJVCppJpDnWHi77toI9QQAgc1nEwKLRi2DNs-gmj6j5y1bA_egu71c40OHtuupgoEsjnzFM4djMyJS_cGQq2_5yiarP4baBUsX_QLtPskE6MjNM8HodoI4g2aIopLJ_qQsngRdiQwVgkbFr6k-J_iQCR_EEsvU02swc_bskYDyPS2Jf5jvagFCqvoixgGVxQgd_kksi5sgtA_ylgauuyu7PPsirApJYOaBcDtnWIgjr5z-uvxcMmj50AzcK40omGUNfbRRYJB0RKQiNZTnsPtUiceotVvvMEaKnnLW088ZgDxWzl-5g_cI8kuqdB2XFQ8WZl1B96IatkSgyySG9JLUqqR1Ubb6j8cwGULb2JapbHt4AjsKq8IhxVMMKcCF3Ck-aziW9eM_VOuMlTGKQaXT0J98Vq5eDIZULdj3-fzhW23uuPF-wZ-Z4q0rqGbFMM157WEXM5tuqk0Iwq-uKBZOqVaoeMfLzN8WeMAnQh0plesagWzE-Fk7ifoDpxRojMU-sHTPdEyOSFMxOvRanq-Ah99j4e4oxIvGUQkdGfPXd7rWXjYVH-5JjghKb0_8KxrC07qZE6E-iIMcQ3pSlil_4umjn-EYftXwQ", "width": 4032}], "place_id": "ChIJkUmqRxmlQQ0RD5bzjB9dMRU", "plus_code": {"compound_code": "CRC2+4M Colmenar del Arroyo, Spain", "global_code": "8CGQCRC2+4M"}, "rating": 4.6, "reference": "ChIJkUmqRxmlQQ0RD5bzjB9dMRU", "scope": "GOOGLE", "types": ["furniture_store", "home_goods_store", "store", "point_of_interest", "establishment"], "user_ratings_total": 37, "vicinity": "Calle Real, 11, Colmenar del Arroyo"}, {"business_status": "OPERATIONAL", "geometry": {"location": {"lat": 40.4171309, "lng": -4.197746299999999}, "viewport": {"northeast": {"lat": 40.4184830302915, "lng": -4.196358669708497}, "southwest": {"lat": 40.4157850697085, "lng": -4.199056630291501}}}, "icon": "https://maps.gstatic.com/mapfiles/place_api/icons/v1/png_71/shopping-71.png", "icon_background_color": "#4B96F3", "icon_mask_base_uri": "https://maps.gstatic.com/mapfiles/place_api/icons/v2/shoppingcart_pinlet", "international_phone_number": "+34 913 68 78 57", "name": "Mi Alcampo", "opening_hours": {"open_now": false}, "photos": [{"height": 1200, "html_attributions": ["<a href=\"https://maps.google.com/maps/contrib/114261901137712362041\">Mi Alcampo</a>"], "photo_reference": "AWn5SU4ZwpxxSOWKS66FKiIkRaJJOp4fbDw_RJ8tNpweglvBuGACPNs86_6eyWpMdSydl3r29skAMN6zR4eySLcEOcmPR2KoGTRniPrUE9VwBVR8EVCW_ELGMt7vvKI6AyZ78xasqasWq76PfR0TPGAh-DQjVA_pMSrqOClPrz2v4GmwgIGeTTrZn04F-WOqo-4GIuB-j_VcXmQhVt15W3P4PdfursIy_C7AdKRCZ4Npr-pJRWFE7McWJ6pAIG9X4E2h2MIGDX0u7fJDGiyJmgJllS6tdJVIvtMPBYcixxKZe2nmpWLfbwQR2BITW2kaSKKFsoJ0LxNiVGY", "width": 1600}], "place_id": "ChIJXaEvshilQQ0R7HYxDl95eD4", "plus_code": {"compound_code": "CR82+VW Colmenar del Arroyo, Spain", "global_code": "8CGQCR82+VW"}, "rating": 4.1, "reference": "ChIJXaEvshilQQ0R7HYxDl95eD4", "scope": "GOOGLE", "types": ["supermarket", "bakery", "grocery_or_supermarket", "home_goods_store", "clothing_store", "store", "food", "point_of_interest", "establishment"], "user_ratings_total": 107, "vicinity": "Avenida de España, 22, Colmenar del Arroyo"}, {"business_status": "OPERATIONAL", "geometry": {"location": {"lat": 40.4205242, "lng": -4.1978405}, "viewport": {"northeast": {"lat": 40.4218944802915, "lng": -4.196596419708499}, "southwest": {"lat": 40.4191965197085, "lng": -4.199294380291502}}}, "icon": "https://maps.gstatic.com/mapfiles/place_api/icons/v1/png_71/lodging-71.png", "icon_background_color": "#909CE1", "icon_mask_base_uri": "https://maps.gstatic.com/mapfiles/place_api/icons/v2/hotel_pinlet", "international_phone_number": "+34 616 77 58 71", "name": "Hostal Veracruz", "photos": [{"height": 2322, "html_attributions": ["<a href=\"https://maps.google.com/maps/contrib/100869350645040755217\">Manuel Jesus Navarro Sancho</a>"], "photo_reference": "AWn5SU5KxpP-A08Xa-k59p_a4LdVqy29fe3izqiDHW9qkObirSvKUOlbT8foW5VW9Pi5ffEYDwg5NODdketzHRmoEpFaS0BNbhk7MWeTV0rHtyWuDmMkuKEW0ijUpO_DVIaDWlSpV6xUhbX1Wz5fTM9CprC0BzzAuyNOQTKHa52N7pvpMUHbI996Zm4eTJaX-1KTVqms32OEjj2cAUpBkveKdd8Dr0d9j2PUz8OrG92Qr6CMiqFRNc2uhYraGOrAAPpBTDXoydl7grXWp_j4qpj0HFShbOfVXkMNOe1f_a038FKttMZbX-R-0I8ZfyIMMaCOxGuSoFEnQ9jlUVICOyehPF8qSRDLtblXr0Dhn9y0CcXA6_JUP25rD4vhRn52xDROfiPlZgqRHayjLIiBPh-HsUw7KaXsG0lW8fhlI7MQUcTZaW7PgXNDUQS_Xp-rf3diFScDgZDe3gJFiS8HH78G7y34vw4AEPTwRqrYsTuRmnFPL3CFyRK2ATgtKfJ-Hnhmoq556ux9Ha0-4Fqw85Wf3KZ7_kvXmdqP_PEAlLNuTSjFdvw6jMyTAg8hIukiYikuR3IAv-xPyVVExFRzrX6NDn7EZyroPsal-KC1qvC6rCSmmtwkztSaRCYeKP3iUh27", "width": 4128}], "place_id": "ChIJD_LRTRmlQQ0RtOGTZWKDWu8", "plus_code": {"compound_code": "CRC2+6V Colmenar del Arroyo, Spain", "global_code": "8CGQCRC2+6V"}, "rating": 4, "reference": "ChIJD_LRTRmlQQ0RtOGTZWKDWu8", "scope": "GOOGLE", "types": ["tourist_attraction", "lodging", "point_of_interest", "establishment"], "user_ratings_total": 26, "vicinity": "Avenida Valdemorillo, 2, Colmenar del Arroyo"}, {"geometry": {"location": {"lat": 40.3789786, "lng": -4.2115526}, "viewport": {"northeast": {"lat": 40.38319119641402, "lng": -4.20253011917799}, "southwest": {"lat": 40.37036085862891, "lng": -4.221377677541857}}}, "icon": "https://maps.gstatic.com/mapfiles/place_api/icons/v1/png_71/geocode-71.png", "icon_background_color": "#7B9EB0", "icon_mask_base_uri": "https://maps.gstatic.com/mapfiles/place_api/icons/v2/generic_pinlet", "name": "Chapinería", "photos": [{"height": 1468, "html_attributions": ["<a href=\"https://maps.google.com/maps/contrib/101321764474141234821\">ricardo fernández del Blanco</a>"], "photo_reference": "AWn5SU5PnJ873WzB2pa3Wjn8A0WdS7Sm1yF6S6TrUURtvQGL4oPQUSzzzkE65VtxlocYvbCj89YeCSbfHYOtR64gGAIrJxjWV2zG3EydKG9w5pv1Eo9uOoaHS2TJe8QAdQ3Sf7Rwft5P_7VPawTuvNL6bUB0sWsm0HYeBGrgE78ANC1MjG07DfXx3XOTd1IVBK-XeNepiZOtzZeEbLea6LdFff4cXPNdIY4KE8R0gD_V-bAL94kg0acoNLTAz3nojTDMqwlYGeN9kXhPwsMxndJFiGNavqnr-FHDAdp9sOEXBKMOI4LUTbziynejU8YTNX7r2X1sI04Q46SYGW3tQswTxkOUQoPT8CWDHYicbLk0lboLCYlKfRxeoqqeV40CWzjA3_5Guw45beSzgjvheVnnh9DdB3IMXtqso8ZICqmpwoxXQIXdOMiR3rtc4_vjVSPlC8gc5NMPL7pFXk8F1xU9nYI8if4FzdEJGf_NyFRWeDQ9F07wNsuTivnqKy4ohaW9kv3bpQbNzhDTSownZ90AGmE4YDozvwWcg5RyS9jOsGW4dK-VWDpFdJmND3R_LJPLcITFQjXzk4J7IWSXm9mYYXzLv-7pmVvSx6NtgO2u9sFdSJIg3T6gY4vAO-BUV4BuXgIooA", "width": 3264}], "place_id": "ChIJdTABPcG6QQ0RLCMXUWMusvE", "reference": "ChIJdTABPcG6QQ0RLCMXUWMusvE", "scope": "GOOGLE", "types": ["locality", "political"], "vicinity": "Chapinería"}]