[{"business_status": "OPERATIONAL", "geometry": {"location": {"lat": 40.6294107, "lng": -3.475174699999999}, "viewport": {"northeast": {"lat": 40.63074218029149, "lng": -3.473797669708498}, "southwest": {"lat": 40.62804421970849, "lng": -3.476495630291502}}}, "icon": "https://maps.gstatic.com/mapfiles/place_api/icons/v1/png_71/generic_business-71.png", "icon_background_color": "#7B9EB0", "icon_mask_base_uri": "https://maps.gstatic.com/mapfiles/place_api/icons/v2/generic_pinlet", "name": "Alalpardo - C/ Jose Antonio 19", "place_id": "ChIJ11wU9aPLQw0Roc9m2Re3MXI", "plus_code": {"compound_code": "JGHF+QW Alalpardo, Spain", "global_code": "8CGRJGHF+QW"}, "reference": "ChIJ11wU9aPLQw0Roc9m2Re3MXI", "scope": "GOOGLE", "types": ["transit_station", "point_of_interest", "establishment"], "vicinity": "Spain"}, {"business_status": "OPERATIONAL", "geometry": {"location": {"lat": 40.62943, "lng": -3.4752}, "viewport": {"northeast": {"lat": 40.6307420802915, "lng": -3.473861069708498}, "southwest": {"lat": 40.6280441197085, "lng": -3.476559030291502}}}, "icon": "https://maps.gstatic.com/mapfiles/place_api/icons/v1/png_71/bus-71.png", "icon_background_color": "#10BDFF", "icon_mask_base_uri": "https://maps.gstatic.com/mapfiles/place_api/icons/v2/bus_share_taxi_pinlet", "name": "Alalpardo-Carlos Martín Álvarez", "place_id": "ChIJ11Yi9aPLQw0RkPX5MmsHPRo", "plus_code": {"compound_code": "JGHF+QW Alalpardo, Spain", "global_code": "8CGRJGHF+QW"}, "reference": "ChIJ11Yi9aPLQw0RkPX5MmsHPRo", "scope": "GOOGLE", "types": ["bus_station", "transit_station", "point_of_interest", "establishment"], "vicinity": "Spain"}, {"business_status": "OPERATIONAL", "geometry": {"location": {"lat": 40.62973789999999, "lng": -3.4741013}, "viewport": {"northeast": {"lat": 40.63111843029149, "lng": -3.472762669708498}, "southwest": {"lat": 40.62842046970849, "lng": -3.475460630291502}}}, "icon": "https://maps.gstatic.com/mapfiles/place_api/icons/v1/png_71/generic_business-71.png", "icon_background_color": "#7B9EB0", "icon_mask_base_uri": "https://maps.gstatic.com/mapfiles/place_api/icons/v2/generic_pinlet", "name": "Alalpardo-San Sebastián", "place_id": "ChIJ-2Cba6TLQw0RImqgQechwNA", "plus_code": {"compound_code": "JGHG+V9 Alalpardo, Spain", "global_code": "8CGRJGHG+V9"}, "reference": "ChIJ-2Cba6TLQw0RImqgQechwNA", "scope": "GOOGLE", "types": ["transit_station", "point_of_interest", "establishment"], "vicinity": "Spain"}, {"business_status": "OPERATIONAL", "geometry": {"location": {"lat": 40.6297579, "lng": -3.474018399999999}, "viewport": {"northeast": {"lat": 40.63113543029149, "lng": -3.472678769708498}, "southwest": {"lat": 40.62843746970849, "lng": -3.475376730291502}}}, "icon": "https://maps.gstatic.com/mapfiles/place_api/icons/v1/png_71/generic_business-71.png", "icon_background_color": "#7B9EB0", "icon_mask_base_uri": "https://maps.gstatic.com/mapfiles/place_api/icons/v2/generic_pinlet", "name": "Alalpardo - Martin Alvarez 8", "place_id": "ChIJdf65a6TLQw0RkMzQM8LX-DM", "plus_code": {"compound_code": "JGHG+W9 Alalpardo, Spain", "global_code": "8CGRJGHG+W9"}, "reference": "ChIJdf65a6TLQw0RkMzQM8LX-DM", "scope": "GOOGLE", "types": ["transit_station", "point_of_interest", "establishment"], "vicinity": "Spain"}, {"business_status": "OPERATIONAL", "geometry": {"location": {"lat": 40.62827299999999, "lng": -3.476089}, "viewport": {"northeast": {"lat": 40.6296409302915, "lng": -3.474764369708499}, "southwest": {"lat": 40.6269429697085, "lng": -3.477462330291503}}}, "icon": "https://maps.gstatic.com/mapfiles/place_api/icons/v1/png_71/generic_business-71.png", "icon_background_color": "#7B9EB0", "icon_mask_base_uri": "https://maps.gstatic.com/mapfiles/place_api/icons/v2/generic_pinlet", "name": "San Sebastián-Consultorio Médico", "place_id": "ChIJB3_l4aPLQw0Rll80_BpdHqE", "plus_code": {"compound_code": "JGHF+8H Alalpardo, Spain", "global_code": "8CGRJGHF+8H"}, "reference": "ChIJB3_l4aPLQw0Rll80_BpdHqE", "scope": "GOOGLE", "types": ["transit_station", "point_of_interest", "establishment"], "vicinity": "Spain"}, {"business_status": "OPERATIONAL", "geometry": {"location": {"lat": 40.6282361, "lng": -3.4761126}, "viewport": {"northeast": {"lat": 40.62961083029149, "lng": -3.474796669708497}, "southwest": {"lat": 40.62691286970849, "lng": -3.477494630291501}}}, "icon": "https://maps.gstatic.com/mapfiles/place_api/icons/v1/png_71/generic_business-71.png", "icon_background_color": "#7B9EB0", "icon_mask_base_uri": "https://maps.gstatic.com/mapfiles/place_api/icons/v2/generic_pinlet", "name": "Alalpardo - C/ San Sebastian 5", "place_id": "ChIJB5vd4aPLQw0R-AXT8nsaO8g", "plus_code": {"compound_code": "JGHF+7H Alalpardo, Spain", "global_code": "8CGRJGHF+7H"}, "reference": "ChIJB5vd4aPLQw0R-AXT8nsaO8g", "scope": "GOOGLE", "types": ["transit_station", "point_of_interest", "establishment"], "vicinity": "Spain"}, {"business_status": "OPERATIONAL", "geometry": {"location": {"lat": 40.6291065, "lng": -3.4791458}, "viewport": {"northeast": {"lat": 40.6305039302915, "lng": -3.477787519708498}, "southwest": {"lat": 40.6278059697085, "lng": -3.480485480291502}}}, "icon": "https://maps.gstatic.com/mapfiles/place_api/icons/v1/png_71/generic_business-71.png", "icon_background_color": "#7B9EB0", "icon_mask_base_uri": "https://maps.gstatic.com/mapfiles/place_api/icons/v2/generic_pinlet", "name": "Alalpardo - C/ Fuente el Saz 1", "place_id": "ChIJqagaFKLLQw0R_KJiaObB55I", "plus_code": {"compound_code": "JGHC+J8 Alalpardo, Spain", "global_code": "8CGRJGHC+J8"}, "reference": "ChIJqagaFKLLQw0R_KJiaObB55I", "scope": "GOOGLE", "types": ["transit_station", "point_of_interest", "establishment"], "vicinity": "Spain"}, {"business_status": "OPERATIONAL", "geometry": {"location": {"lat": 40.6292388, "lng": -3.4797262}, "viewport": {"northeast": {"lat": 40.6305660302915, "lng": -3.478370969708497}, "southwest": {"lat": 40.62786806970851, "lng": -3.481068930291501}}}, "icon": "https://maps.gstatic.com/mapfiles/place_api/icons/v1/png_71/generic_business-71.png", "icon_background_color": "#7B9EB0", "icon_mask_base_uri": "https://maps.gstatic.com/mapfiles/place_api/icons/v2/generic_pinlet", "name": "Alalpardo - C/ Fuente el Saz 1", "place_id": "ChIJMUvyDKLLQw0RBSYnIgK0-Yo", "plus_code": {"compound_code": "JGHC+M4 Alalpardo, Spain", "global_code": "8CGRJGHC+M4"}, "reference": "ChIJMUvyDKLLQw0RBSYnIgK0-Yo", "scope": "GOOGLE", "types": ["transit_station", "point_of_interest", "establishment"], "vicinity": "Spain"}, {"business_status": "OPERATIONAL", "geometry": {"location": {"lat": 40.6321609, "lng": -3.4679812}, "viewport": {"northeast": {"lat": 40.6335169802915, "lng": -3.466637369708498}, "southwest": {"lat": 40.6308190197085, "lng": -3.469335330291501}}}, "icon": "https://maps.gstatic.com/mapfiles/place_api/icons/v1/png_71/generic_business-71.png", "icon_background_color": "#7B9EB0", "icon_mask_base_uri": "https://maps.gstatic.com/mapfiles/place_api/icons/v2/generic_pinlet", "name": "Ctra Algete-Casar M-123 N 1", "place_id": "ChIJO7W0t6_LQw0R_-p1UiVwqQE", "plus_code": {"compound_code": "JGJJ+VR Alalpardo, Spain", "global_code": "8CGRJGJJ+VR"}, "rating": 5, "reference": "ChIJO7W0t6_LQw0R_-p1UiVwqQE", "scope": "GOOGLE", "types": ["transit_station", "point_of_interest", "establishment"], "user_ratings_total": 1, "vicinity": "Spain"}, {"business_status": "OPERATIONAL", "geometry": {"location": {"lat": 40.63222499999999, "lng": -3.4679935}, "viewport": {"northeast": {"lat": 40.63353718029149, "lng": -3.466617819708498}, "southwest": {"lat": 40.6308392197085, "lng": -3.469315780291502}}}, "icon": "https://maps.gstatic.com/mapfiles/place_api/icons/v1/png_71/generic_business-71.png", "icon_background_color": "#7B9EB0", "icon_mask_base_uri": "https://maps.gstatic.com/mapfiles/place_api/icons/v2/generic_pinlet", "name": "Ctra.M123-Urb.El Retorno", "place_id": "ChIJv7nMt6_LQw0RkH4nRKfM-5g", "plus_code": {"compound_code": "JGJJ+VR Alalpardo, Spain", "global_code": "8CGRJGJJ+VR"}, "reference": "ChIJv7nMt6_LQw0RkH4nRKfM-5g", "scope": "GOOGLE", "types": ["transit_station", "point_of_interest", "establishment"], "vicinity": "Spain"}, {"business_status": "OPERATIONAL", "geometry": {"location": {"lat": 40.6321982, "lng": -3.467662}, "viewport": {"northeast": {"lat": 40.6335732302915, "lng": -3.466333619708498}, "southwest": {"lat": 40.6308752697085, "lng": -3.469031580291502}}}, "icon": "https://maps.gstatic.com/mapfiles/place_api/icons/v1/png_71/generic_business-71.png", "icon_background_color": "#7B9EB0", "icon_mask_base_uri": "https://maps.gstatic.com/mapfiles/place_api/icons/v2/generic_pinlet", "name": "Ctra Algete-Casar M-123 N 6000", "place_id": "ChIJnZB1ta_LQw0RsiCiox6O_6k", "plus_code": {"compound_code": "JGJJ+VW Alalpardo, Spain", "global_code": "8CGRJGJJ+VW"}, "reference": "ChIJnZB1ta_LQw0RsiCiox6O_6k", "scope": "GOOGLE", "types": ["transit_station", "point_of_interest", "establishment"], "vicinity": "Spain"}, {"business_status": "OPERATIONAL", "geometry": {"location": {"lat": 40.632206, "lng": -3.4676268}, "viewport": {"northeast": {"lat": 40.6335845802915, "lng": -3.466301119708498}, "southwest": {"lat": 40.63088661970851, "lng": -3.468999080291502}}}, "icon": "https://maps.gstatic.com/mapfiles/place_api/icons/v1/png_71/generic_business-71.png", "icon_background_color": "#7B9EB0", "icon_mask_base_uri": "https://maps.gstatic.com/mapfiles/place_api/icons/v2/generic_pinlet", "name": "Ctra.M123-Urb.El Retorno", "place_id": "ChIJU9kSta_LQw0RPCxP_OKxnbc", "plus_code": {"compound_code": "JGJJ+VW Alalpardo, Spain", "global_code": "8CGRJGJJ+VW"}, "reference": "ChIJU9kSta_LQw0RPCxP_OKxnbc", "scope": "GOOGLE", "types": ["transit_station", "point_of_interest", "establishment"], "vicinity": "Spain"}, {"business_status": "OPERATIONAL", "geometry": {"location": {"lat": 40.6159823, "lng": -3.472076699999999}, "viewport": {"northeast": {"lat": 40.61733168029151, "lng": -3.470723969708498}, "southwest": {"lat": 40.61463371970851, "lng": -3.473421930291502}}}, "icon": "https://maps.gstatic.com/mapfiles/place_api/icons/v1/png_71/generic_business-71.png", "icon_background_color": "#7B9EB0", "icon_mask_base_uri": "https://maps.gstatic.com/mapfiles/place_api/icons/v2/generic_pinlet", "name": "Urb Mirabal - Avda la Paz 22", "place_id": "ChIJz43UBQ_LQw0RuiK2M-TgMvc", "plus_code": {"compound_code": "JG8H+95 Miraval, Spain", "global_code": "8CGRJG8H+95"}, "reference": "ChIJz43UBQ_LQw0RuiK2M-TgMvc", "scope": "GOOGLE", "types": ["transit_station", "point_of_interest", "establishment"], "vicinity": "Spain"}, {"business_status": "OPERATIONAL", "geometry": {"location": {"lat": 40.6159554, "lng": -3.472029399999999}, "viewport": {"northeast": {"lat": 40.61730518029151, "lng": -3.470722169708498}, "southwest": {"lat": 40.61460721970851, "lng": -3.473420130291502}}}, "icon": "https://maps.gstatic.com/mapfiles/place_api/icons/v1/png_71/bus-71.png", "icon_background_color": "#10BDFF", "icon_mask_base_uri": "https://maps.gstatic.com/mapfiles/place_api/icons/v2/bus_share_taxi_pinlet", "name": "Av.Paz-Urb.Miraval", "photos": [{"height": 3120, "html_attributions": ["<a href=\"https://maps.google.com/maps/contrib/105912900426405048362\">violetasf</a>"], "photo_reference": "AWn5SU6VYbu8VhuC7sQHJHakBkKv2CXrhFS6gWzC4jqCapbGP90SrsmkIYkIvDwiYWJ7S_HwsruvTHGQDS7iDjheRT9p51kR7UaqYhpHCxy1_z6eDCsTyBp01P6enlqgnFFwMTQEi9cEKZutL6zxYNdidvGjsB22iKBcATpiSIRbecgsrlgkbmSoL746m1nyW2DdgGsb8zDzJnQINfKhSybACvLxlUR_dHGtgVa9-EmRpJbBHGPrMGF3p7H6ZHoKWva31KIcRiR7GSOBOh7J2WXHuEeqL-6kaZJK1SHDVGu7ZQ233tFgkg4xnsyiVNVCUN2rqmdMUuvRfroztXAtiLDSbuG5GvFVQPerrERxoMcImTYPUxuhJ5IJmjBGCsXfdLaZdRRuKyS4-whgJHiot1iYvIqcM2wirGjYevOiTeITee7EKLkCeGiY6y7wIQ8Nvecg5gw2GvuS4WMY5Q5lVur1orDKZiR72s_m6j7vG2yEDqIctqyqE4JNzQNrThqpffejZRfdnO9kK8EEYQizkMYGY9Dfg9YXg7lJ67t4QlmgBTghNmnvky92RhZLb0q9OYvFLDFiX1wAjRPpQBr5fqHScqtZNdS5TdhpPdSL6Kmh2LPQDHx3VODF_LLOWg_uzxNgqzBj3JvQ", "width": 4160}], "place_id": "ChIJ-2xyBg_LQw0Rvdi3Z6cXieQ", "plus_code": {"compound_code": "JG8H+95 Miraval, Spain", "global_code": "8CGRJG8H+95"}, "rating": 5, "reference": "ChIJ-2xyBg_LQw0Rvdi3Z6cXieQ", "scope": "GOOGLE", "types": ["bus_station", "transit_station", "point_of_interest", "establishment"], "user_ratings_total": 2, "vicinity": "Spain"}, {"business_status": "OPERATIONAL", "geometry": {"location": {"lat": 40.63834599999999, "lng": -3.453626299999999}, "viewport": {"northeast": {"lat": 40.63969588029151, "lng": -3.452277919708498}, "southwest": {"lat": 40.63699791970851, "lng": -3.454975880291502}}}, "icon": "https://maps.gstatic.com/mapfiles/place_api/icons/v1/png_71/generic_business-71.png", "icon_background_color": "#7B9EB0", "icon_mask_base_uri": "https://maps.gstatic.com/mapfiles/place_api/icons/v2/generic_pinlet", "name": "Valdeolmos Urb Consol", "photos": [{"height": 4000, "html_attributions": ["<a href=\"https://maps.google.com/maps/contrib/116234628137190165384\">jessica del carmen menendez rivas</a>"], "photo_reference": "AWn5SU47q-1LA-0RjbUSghcEilRCWe3bLMFv9XupOATXKD5NgWWXCZ8wuhHadrdpDSZJztNJ9uXdTXQZX1E5r_swIh_anuYcDT2-by2UbEys8TRbyl-axPXjakd-zUbqjH-AHlCvw0KIrfs2tgi4kC0V51gXFx_QA3X84DkpFht4ik_YbMZPuWmKO-ykahK6tZ7ARYvWKYFoD_TkyB6ipqmfV4ELSVGozsZ6GQo-n_JkJr4_xE5SWvQLse0AynbhSS-6xNAWu8NKCDUie0NOCy0nYvvNPTWf8K_3vdKZoBVhnwrQYP1ekuj7slYUJkXB7Zcsgg4zUdwwM5IqINzi2aNmYT7hYG_npI1-DIkBeT7yU0xW8dzV2OVfhN-5h1Bsggepxn2bZbM-e4ENSXRZ8TbaYuRF_vcFIqYeIl-YJRMXF0vcaGimxh1oztvQ0ukMSOeVtcAhEH18N6EhztKmMwX6uWitJvjP68NRLza5EKSAgJisKX5B0n46if0qvGR5xfy8hHhTw7w47MMhOKL0Xa_7Rmb1Mt07kfJvZDwr-IquOgGX3PBDBaKy5CaSgy61JZh1zgpZ59UR46GmEQqjSeCu0HgpENqvynuotQnCt-VrwO5AbKIab06qhJ5yohjM_UHSO6yHTg", "width": 3000}], "place_id": "ChIJvWwIuE7KQw0Rq2vt7vFmrgw", "plus_code": {"compound_code": "JGQW+8G Valdeolmos-Alalpardo, Spain", "global_code": "8CGRJGQW+8G"}, "reference": "ChIJvWwIuE7KQw0Rq2vt7vFmrgw", "scope": "GOOGLE", "types": ["transit_station", "point_of_interest", "establishment"], "vicinity": "Spain"}, {"business_status": "OPERATIONAL", "geometry": {"location": {"lat": 40.63842, "lng": -3.45364}, "viewport": {"northeast": {"lat": 40.63975963029149, "lng": -3.452334219708498}, "southwest": {"lat": 40.63706166970849, "lng": -3.455032180291502}}}, "icon": "https://maps.gstatic.com/mapfiles/place_api/icons/v1/png_71/generic_business-71.png", "icon_background_color": "#7B9EB0", "icon_mask_base_uri": "https://maps.gstatic.com/mapfiles/place_api/icons/v2/generic_pinlet", "name": "Valdeolmos-Pza.Nacional", "place_id": "ChIJf2sEuE7KQw0RP2kfuambhuA", "plus_code": {"compound_code": "JGQW+9G Valdeolmos-Alalpardo, Spain", "global_code": "8CGRJGQW+9G"}, "rating": 5, "reference": "ChIJf2sEuE7KQw0RP2kfuambhuA", "scope": "GOOGLE", "types": ["transit_station", "point_of_interest", "establishment"], "user_ratings_total": 1, "vicinity": "Spain"}, {"business_status": "OPERATIONAL", "geometry": {"location": {"lat": 40.63835999999999, "lng": -3.45344}, "viewport": {"northeast": {"lat": 40.6396977802915, "lng": -3.452083819708498}, "southwest": {"lat": 40.6369998197085, "lng": -3.454781780291502}}}, "icon": "https://maps.gstatic.com/mapfiles/place_api/icons/v1/png_71/generic_business-71.png", "icon_background_color": "#7B9EB0", "icon_mask_base_uri": "https://maps.gstatic.com/mapfiles/place_api/icons/v2/generic_pinlet", "name": "Valdeolmos-Pza.Nacional", "place_id": "ChIJ6wAXxk7KQw0RhcKRwgazyPk", "plus_code": {"compound_code": "JGQW+8J Valdeolmos-Alalpardo, Spain", "global_code": "8CGRJGQW+8J"}, "rating": 4.5, "reference": "ChIJ6wAXxk7KQw0RhcKRwgazyPk", "scope": "GOOGLE", "types": ["transit_station", "point_of_interest", "establishment"], "user_ratings_total": 2, "vicinity": "Spain"}, {"business_status": "OPERATIONAL", "geometry": {"location": {"lat": 40.63909, "lng": -3.45111}, "viewport": {"northeast": {"lat": 40.6404769802915, "lng": -3.449781769708498}, "southwest": {"lat": 40.6377790197085, "lng": -3.452479730291502}}}, "icon": "https://maps.gstatic.com/mapfiles/place_api/icons/v1/png_71/bus-71.png", "icon_background_color": "#10BDFF", "icon_mask_base_uri": "https://maps.gstatic.com/mapfiles/place_api/icons/v2/bus_share_taxi_pinlet", "name": "Valdeolmos-Zarzuela", "photos": [{"height": 4608, "html_attributions": ["<a href=\"https://maps.google.com/maps/contrib/113442560321346712786\">Pablo Romero López-Romero</a>"], "photo_reference": "AWn5SU6aEasX40LVLTqpM6_X3LPzkT2f3NyxTnJs3wcQ7OuoLhN-FMrpu66PxcZlS_ZVeZ-uufIYJOVlAMkwmsjAaaBS4ZG-ev_dvO3w5RJVgQUDu_Md1eforuUA6QuYOjxHzlWYZhnY8A_BkDyPh3vpL03Ozn4JvyBwlQS50LiFu_abqZRN94L84J_xenY3UFKyb3DktgkQgjLvjs2_ZbI6CMmXPHNTSkG5zoowW2KqySrRUer_TGkwp3L8a5AhVsFTBX11o5eFWJ_Jj3lxhhbppDMtpczLsfXg8epnWDm2JULY0r8X07UvdU69lWQzFu2NC92sFbZewZx-MKKw-ERP3MhKS90Gpau-gKASx9jmB7Y1XffrFAcMt0AU3J5KTVfNnBKUCzOTQKJ1_Wr6Sshpi4bKREhQTOru8Z_Itd8cG4BphXAA6Q_dy2lk1y51gjn_oNCdNUv85Rm6I9GiwmpeX-JYQ3BkWfpbnTWqO1IMyszn3f5TUkyepAUmUg7iylRmpo4wgRbCX2ik3Pb-FfvY-WqklsimN6G7PKiaYIWZuSH_QyYONmtqZbrDAwB-Qi6lVEHNoXrQ11QsS68JjyMsER3JxUVb780IxPh-o8a7i6qVulWzF7mAXpWwq2WZ6lSz", "width": 2592}], "place_id": "ChIJByWrSk_KQw0RBccy5c1I1JA", "plus_code": {"compound_code": "JGQX+JH Valdeolmos-Alalpardo, Spain", "global_code": "8CGRJGQX+JH"}, "rating": 4, "reference": "ChIJByWrSk_KQw0RBccy5c1I1JA", "scope": "GOOGLE", "types": ["bus_station", "transit_station", "point_of_interest", "establishment"], "user_ratings_total": 1, "vicinity": "Spain"}]