[{"business_status": "OPERATIONAL", "geometry": {"location": {"lat": 40.6316509, "lng": -4.007472}, "viewport": {"northeast": {"lat": 40.63309733029149, "lng": -4.005997669708498}, "southwest": {"lat": 40.63039936970849, "lng": -4.008695630291502}}}, "icon": "https://maps.gstatic.com/mapfiles/place_api/icons/v1/png_71/bank-71.png", "icon_background_color": "#909CE1", "icon_mask_base_uri": "https://maps.gstatic.com/mapfiles/place_api/icons/v2/bank-intl_pinlet", "international_phone_number": "+34 918 51 54 04", "name": "BBVA", "opening_hours": {"open_now": false}, "photos": [{"height": 720, "html_attributions": ["<a href=\"https://maps.google.com/maps/contrib/111622598506749617559\">BBVA</a>"], "photo_reference": "AWn5SU7oac1ZqvCTpBtgBoqa5_egFpY8yKtbYQIATMkjlFr7KXCiRUAXU7fJuvfO2uDs5mbcSQhpBtc6-OyJTN-ue0FU6E3cmw4XlIq-yAtj4WutqcPZb_yJ9uWv5ZVNz_LYOJNMWcfuPvr2m6J2mstjFnvVEyUsdpBNGE1Vrv_PAfsA4KjcwBjJoBuA0qDhHh130NJmHAdNbT7XUujjwkaQiW5V0jc_SyZCkbks7JX2ylofEyAofhCWPvJdlT2_GX4Q2FzdVlKGx1T8lVTO5EFfJfzlBOjulSap8IEc-N1SKN2600RQMxx7RIsWmDdnTaY_fUSPh02HhMk", "width": 1280}], "place_id": "ChIJubd3WxN0QQ0RuYvgWsGWuTk", "plus_code": {"compound_code": "JXJV+M2 Collado Villalba, Spain", "global_code": "8CGQJXJV+M2"}, "rating": 2.3, "reference": "ChIJubd3WxN0QQ0RuYvgWsGWuTk", "scope": "GOOGLE", "types": ["bank", "atm", "accounting", "finance", "point_of_interest", "establishment"], "user_ratings_total": 238, "vicinity": "Calle Batalla de Bailén, 15, Collado Villalba"}, {"business_status": "OPERATIONAL", "geometry": {"location": {"lat": 40.5771518, "lng": -4.0044927}, "viewport": {"northeast": {"lat": 40.5785405302915, "lng": -4.003218669708498}, "southwest": {"lat": 40.57584256970851, "lng": -4.005916630291503}}}, "icon": "https://maps.gstatic.com/mapfiles/place_api/icons/v1/png_71/bank-71.png", "icon_background_color": "#909CE1", "icon_mask_base_uri": "https://maps.gstatic.com/mapfiles/place_api/icons/v2/bank-intl_pinlet", "international_phone_number": "+34 918 58 00 21", "name": "BBVA", "opening_hours": {"open_now": false}, "photos": [{"height": 720, "html_attributions": ["<a href=\"https://maps.google.com/maps/contrib/108330438163501704246\">BBVA</a>"], "photo_reference": "AWn5SU4inefgoajGfKMMnnx-QMr63tlgUPwrQN1zXQSQqDAzIn-I-PIyidAlbcepu5xeD8qnTMF20MVPcL6h7xkVcjnpdK8mJYLIzal5FH5TqynZZ1h0QY0_Xb0eDCbvIracP3FKNegxU7l4o_lb5knxIFCIHmKcBPpyoWcx9y5L-rBBCBBqT6Z1Svb57dSvnaluRco52SneErEhDXR3wQ_25SCijkjJ2gNiEvS4U974g_U7aH2lXULV5qmoO3vGlZxk6JLyp9Qy0ti9X_96eES9JRGhvCXwwjl0hHEsuYdl1eRNEatGUeaSNhyaik4i8KBdgW7pvA3A", "width": 1280}], "place_id": "ChIJK4Mque11QQ0Rp5PfH7JuRL4", "plus_code": {"compound_code": "HXGW+V6 Galapagar, Spain", "global_code": "8CGQHXGW+V6"}, "rating": 4.4, "reference": "ChIJK4Mque11QQ0Rp5PfH7JuRL4", "scope": "GOOGLE", "types": ["bank", "atm", "accounting", "finance", "point_of_interest", "establishment"], "user_ratings_total": 247, "vicinity": "Calle Concejo, 14, Galapagar"}, {"business_status": "OPERATIONAL", "geometry": {"location": {"lat": 40.63151939999999, "lng": -4.004971300000001}, "viewport": {"northeast": {"lat": 40.63279438029149, "lng": -4.003616219708497}, "southwest": {"lat": 40.6300964197085, "lng": -4.006314180291501}}}, "icon": "https://maps.gstatic.com/mapfiles/place_api/icons/v1/png_71/bank-71.png", "icon_background_color": "#909CE1", "icon_mask_base_uri": "https://maps.gstatic.com/mapfiles/place_api/icons/v2/bank-intl_pinlet", "international_phone_number": "+34 918 06 73 13", "name": "Bankinter", "opening_hours": {"open_now": false}, "photos": [{"height": 4032, "html_attributions": ["<a href=\"https://maps.google.com/maps/contrib/109344267587617645969\">Gábor Hasznos</a>"], "photo_reference": "AWn5SU726Eg96-yEmxDR4vDQouAm1mukF2YeZUdKWyu99k8JQFLnkfFJjTZYuAtLDq5ztnDvBVg4Pc1wuXArLyXJi6PMZvQhSiPPzqTSn79X_EZ3uy5v3AFj53JFDqzuIVziTFwCf_cbfH3sXJLBSStnJ7wDbDok_oHqsbUFfAZ8jwXIPbcVsiZa8xsjpmgLhVxLuG8Vgf0pn-Ey1WgMdBLTJ2P8sEv36OZCsB9Jd93CGLagdtN_qfOv9iEfP777Tj_1sFfNPD-a_dVcz85PyBuB2hNL7JIbkuz2C1p7PUs9g285Fd-MwwWHB505LFdwURGmW-i9O2j9BeTrlHCpGVnBrToWtgIlpp-NJNIGsDMEqnpstZNWutkd9Ysb2w9iwZDdXcNpSfoKeX0Bd95xGRL6ANS0aQ2IHOZXFLxZL6QNor8zdjBotjD1x0owBHNW029quFOL-CvnwTF-CHdrWaYWbXHGW-qI6RybBVbJN22uxGus7CRMjA6L3DWILUorgz6byMb11vDX54olDUIsLGMlxPpwrOvGpSP1BsiH1xQRCNmR5lqrzelkADqnNJhLDywMGj9aLM5-5gT6u5eQIOvqtCX1KDWo73C_vWrdRS67_KgHw-5j6Sfi74sw2GqDU7qpWjv7-Rhd9VB49bcQ_QXYSA", "width": 3024}], "place_id": "ChIJreHaiRN0QQ0RNxmZAizHGcE", "plus_code": {"compound_code": "JXJW+J2 Collado Villalba, Spain", "global_code": "8CGQJXJW+J2"}, "rating": 2.9, "reference": "ChIJreHaiRN0QQ0RNxmZAizHGcE", "scope": "GOOGLE", "types": ["bank", "atm", "finance", "point_of_interest", "establishment"], "user_ratings_total": 40, "vicinity": "Calle Real, 59, Collado Villalba"}, {"business_status": "OPERATIONAL", "geometry": {"location": {"lat": 40.5608339, "lng": -4.0179277}, "viewport": {"northeast": {"lat": 40.5621855802915, "lng": -4.016516869708497}, "southwest": {"lat": 40.5594876197085, "lng": -4.019214830291501}}}, "icon": "https://maps.gstatic.com/mapfiles/place_api/icons/v1/png_71/bank-71.png", "icon_background_color": "#909CE1", "icon_mask_base_uri": "https://maps.gstatic.com/mapfiles/place_api/icons/v2/bank-intl_pinlet", "international_phone_number": "+34 913 70 39 97", "name": "Banco Santander Agentes", "opening_hours": {"open_now": false}, "photos": [{"height": 720, "html_attributions": ["<a href=\"https://maps.google.com/maps/contrib/110612117755026710158\">Banco Santander Agentes</a>"], "photo_reference": "AWn5SU6h3FWY9wwS7_BQTyTIt_Cwf6DQ-mfyHPC1HIvMnzzfEczGzCVMThKze_4K0n3jHBnQ4Ej4ovkScp9OpCuCAiTeOYT4_dAJJ39vD1QhJDpaAFNcvnwFs6LXM-e9wNOzqfJ5cYfYc-q-CMmM3ZDe-uEIkab27V9nkcBncStSgHGFrRwGtcT7zy39HINTIhpdg3_i-HS3f-RUPMVGPC7I04eBOdJ4ws0oby4a0oUvyjFi5tpMyTwTsjWkRdeQXnLCQHpYrWZ_GERshqqPP6F0fmsiiNrXuY34JmCAcWERlkC0h-qiWoQrrdyOSYO2CvhRNzudACjd8sw", "width": 1280}], "place_id": "ChIJn7rQsCieQQ0REZ7LpEzziPE", "plus_code": {"compound_code": "HX6J+8R Colmenarejo, Spain", "global_code": "8CGQHX6J+8R"}, "rating": 3.7, "reference": "ChIJn7rQsCieQQ0REZ7LpEzziPE", "scope": "GOOGLE", "types": ["bank", "atm", "finance", "point_of_interest", "establishment"], "user_ratings_total": 26, "vicinity": "Carretera de Valdemorillo, 24, Colmenarejo"}, {"business_status": "OPERATIONAL", "geometry": {"location": {"lat": 40.578724, "lng": -3.953656}, "viewport": {"northeast": {"lat": 40.5801086302915, "lng": -3.952284569708498}, "southwest": {"lat": 40.5774106697085, "lng": -3.954982530291502}}}, "icon": "https://maps.gstatic.com/mapfiles/place_api/icons/v1/png_71/bank-71.png", "icon_background_color": "#909CE1", "icon_mask_base_uri": "https://maps.gstatic.com/mapfiles/place_api/icons/v2/bank-intl_pinlet", "international_phone_number": "+34 600 40 40 90", "name": "CaixaBank", "opening_hours": {"open_now": false}, "photos": [{"height": 1192, "html_attributions": ["<a href=\"https://maps.google.com/maps/contrib/109099818835438813532\">CaixaBank</a>"], "photo_reference": "AWn5SU4uSwJPMHA7YYPAaxSEG9ACfnIn9a4d8RzrjwRMLMM_BKXGQTmFLy1awSxP85L860qOnl4OlpOAyxywwEIslLTRKpkn6UwsRBqCOFf8AYu1KacwD_tRCaQkfZipusonvTrnK9ACfwL3Nyo1KhMtHUmUIJvM_sA33TnewnbJcQ473INmrP6r68h2MtdAXl9J8A17komqiUBHSWO_4sq68MW9C0ifdZtpB6JJwy2e0kkUftm5D33bLbBDwx44S3mapqYHUwoN5LcTRRo4H0HvW87PeUz-OL-3b290T2F27Tg179GsnjTXPTSTB7LGuy1IANfwOQFXPB4", "width": 2120}], "place_id": "ChIJpyYNKzB2QQ0RUlEVm83OilQ", "plus_code": {"compound_code": "H2HW+FG Torrelodones, Spain", "global_code": "8CGRH2HW+FG"}, "rating": 1.4, "reference": "ChIJpyYNKzB2QQ0RUlEVm83OilQ", "scope": "GOOGLE", "types": ["bank", "finance", "point_of_interest", "establishment"], "user_ratings_total": 12, "vicinity": "Calle Jesusa Lara, 29, Torrelodones"}, {"business_status": "OPERATIONAL", "geometry": {"location": {"lat": 40.62775949999999, "lng": -4.0083759}, "viewport": {"northeast": {"lat": 40.6290910802915, "lng": -4.007397769708499}, "southwest": {"lat": 40.6263931197085, "lng": -4.010095730291503}}}, "icon": "https://maps.gstatic.com/mapfiles/place_api/icons/v1/png_71/bank-71.png", "icon_background_color": "#909CE1", "icon_mask_base_uri": "https://maps.gstatic.com/mapfiles/place_api/icons/v2/bank-intl_pinlet", "international_phone_number": "+34 918 51 81 48", "name": "Sabadell Bank", "opening_hours": {"open_now": false}, "photos": [{"height": 1080, "html_attributions": ["<a href=\"https://maps.google.com/maps/contrib/105008220667894481990\">Banco Sabadell</a>"], "photo_reference": "AWn5SU5b4iKVjAtKFmNuvgoG-CIGNXRm9uBpznF-7njiik69aIve2oJMSyGSfkr6-iFVIj4VbJN-EKeOc38Msxi8NX88-89lbJ19S6ugMocP6fGpGAsRRCdX_IOXlgKTUGzf9wigskUGYJKynlEKBOOJCvbVAJmUYMYK9vezraJcC8kG0EqxNmc9LT-TeXJ5zjXRy1Ox44v-1WQiQ_BtAocwzDeMLab24jKo6VLYnUTBkIEJ6p8Iwl9WDRDZ09G1jpwjNlSuyCJ7sWkVPcp_PlEgRKY3Q71adVVWnfc8GAB3O_S9d2MQwIOZoRw4CzdQF2K7iVO-9xls-Pw", "width": 1920}], "place_id": "ChIJR7psENKONg0RxvMB9OtWPEQ", "plus_code": {"compound_code": "JXHR+4J Collado Villalba, Spain", "global_code": "8CGQJXHR+4J"}, "rating": 1.7, "reference": "ChIJR7psENKONg0RxvMB9OtWPEQ", "scope": "GOOGLE", "types": ["bank", "atm", "accounting", "finance", "point_of_interest", "establishment"], "user_ratings_total": 48, "vicinity": "Calle Real, 9, Collado Villalba"}, {"business_status": "OPERATIONAL", "geometry": {"location": {"lat": 40.6271194, "lng": -4.0184906}, "viewport": {"northeast": {"lat": 40.62853193029149, "lng": -4.017223219708498}, "southwest": {"lat": 40.62583396970849, "lng": -4.019921180291503}}}, "icon": "https://maps.gstatic.com/mapfiles/place_api/icons/v1/png_71/bank-71.png", "icon_background_color": "#909CE1", "icon_mask_base_uri": "https://maps.gstatic.com/mapfiles/place_api/icons/v2/bank-intl_pinlet", "international_phone_number": "+34 600 40 40 90", "name": "CaixaBank", "opening_hours": {"open_now": false}, "photos": [{"height": 1192, "html_attributions": ["<a href=\"https://maps.google.com/maps/contrib/103606273229113075414\">CaixaBank</a>"], "photo_reference": "AWn5SU7F4oz7xz0_lgPZ5nL4AJRwrmJuq9jRtF0fWKKGVwJms8ni8UhocSkj13WZF7l_39AG5UKUz2MZgVuI_zCTuLDXjLtqC-UzXhHbkuH03tWj_20n1veEEBjJjMGJy1vcq80fntyi5R3OdJPBYRRfnQs9xWXigH13GjyNANGGlmIkGRD5JaMpxSx5outtpDch-NB4A_CqEf1bkbRYfZgfDm57dm1Y5eZ9zuQuXesWRqsDJEFHQLqNgEQwOURaMlLwIcFaRiYbt8FLgvXipo9xR8_fIKWUhRVBgnHYHbVEoECT98rSZ7E20SLixlSFx33hmTmKTYDHf1c", "width": 2120}], "place_id": "ChIJZzUraUR0QQ0RxwaCma5ym1Y", "plus_code": {"compound_code": "JXGJ+RJ Collado Villalba, Spain", "global_code": "8CGQJXGJ+RJ"}, "rating": 2.2, "reference": "ChIJZzUraUR0QQ0RxwaCma5ym1Y", "scope": "GOOGLE", "types": ["bank", "finance", "point_of_interest", "establishment"], "user_ratings_total": 73, "vicinity": "Calle Escofina, 30, P-29, Collado Villalba"}, {"business_status": "OPERATIONAL", "geometry": {"location": {"lat": 40.6297097, "lng": -4.006586899999999}, "viewport": {"northeast": {"lat": 40.6310977302915, "lng": -4.005293419708497}, "southwest": {"lat": 40.6283997697085, "lng": -4.007991380291502}}}, "icon": "https://maps.gstatic.com/mapfiles/place_api/icons/v1/png_71/bank-71.png", "icon_background_color": "#909CE1", "icon_mask_base_uri": "https://maps.gstatic.com/mapfiles/place_api/icons/v2/bank-intl_pinlet", "international_phone_number": "+34 600 40 40 90", "name": "CaixaBank Store", "opening_hours": {"open_now": false}, "photos": [{"height": 1192, "html_attributions": ["<a href=\"https://maps.google.com/maps/contrib/108778073471723620199\">CaixaBank Store</a>"], "photo_reference": "AWn5SU5cRf7Vr7M5iyNbJfk5EwsILG6ZQtUOLLRvesaM-38iCnN8ev27k7mOF-pprk_JjT8rgfR2kd0sPTAuv5ssIJbvsZb09zbxI2Y5k4W1qcgMLFt-V5aVwvgiuNmQ9tKmAdwsuF34RihqamZLNIpLW_sYPLUkZ-ADqAR3G-uIwnQAy7EBVRO4kOV_Yiv8w7MZfsOjQy-6fuPKJa0cpixqcrfuJfZ2YhXuRjkMjJmbsjvvpkAhzv4xBfq6_mbWk7SbNk6_cW1FIZm7ti-qrhe5I57evRjUc4QSzXwYmyKc0CUVQEN_iFZlFfX4wIJbA4SiExYxPG-vLHk", "width": 2120}], "place_id": "ChIJDQa97hR0QQ0RBGZ5gBAbPZo", "plus_code": {"compound_code": "JXHV+V9 Collado Villalba, Spain", "global_code": "8CGQJXHV+V9"}, "rating": 1.8, "reference": "ChIJDQa97hR0QQ0RBGZ5gBAbPZo", "scope": "GOOGLE", "types": ["bank", "finance", "point_of_interest", "establishment"], "user_ratings_total": 58, "vicinity": "Calle Real, 34, Collado Villalba"}, {"business_status": "OPERATIONAL", "geometry": {"location": {"lat": 40.6300511, "lng": -4.0027599}, "viewport": {"northeast": {"lat": 40.63132968029149, "lng": -4.001476719708497}, "southwest": {"lat": 40.62863171970849, "lng": -4.004174680291502}}}, "icon": "https://maps.gstatic.com/mapfiles/place_api/icons/v1/png_71/bank-71.png", "icon_background_color": "#909CE1", "icon_mask_base_uri": "https://maps.gstatic.com/mapfiles/place_api/icons/v2/bank-intl_pinlet", "international_phone_number": "+34 912 86 13 60", "name": "Kutxabank", "opening_hours": {"open_now": false}, "photos": [{"height": 4032, "html_attributions": ["<a href=\"https://maps.google.com/maps/contrib/102160449230583751419\">Elurra B</a>"], "photo_reference": "AWn5SU51EXEcz4MbSP2pz9bk3LJ5gPQbhFuaqKqAN5922sxJlybZMEj-mEzOznY5rdk_LNSTGoHhY3J7cjVsdabtJAnwo-8VLewdINheDDwNtEUl6OlKZ6i04N0_coFqNUF9WQjbrMCY1t4ZSPgU7HIw6fp2jOmW2T3u8sx40lX7FBXqDg0RxvJlYRubhe_F5DGbi30dMT_wydbdKO-2EvcXHbDrReADf6eYPAi-mjLYCvEVpNPy-t7LRafyQCkGtjZ9QSV98DtY6Ls736ghd49pagAZzfcz91Zprh-j2sY4rBpQW-xiOB5sYmltctaubCHL1gIdFQ6RL5RD-DAXU9Pb4bzGpxp00nFGcCctuoEp8wZJyNV-tO7am_FSphDS6pXNPNy-0FDKoF3o_qm2LzU_dJ6uRkywNXFKVoYzexRXXzCNFHziDcCa0N2tmvFxUxIaKtOVI-lRlz-MibKO583Bk7PkNVTI0NgJmbuM0M5IHo3MCApjnXfEh_ot1k_AluU7GfemUU7GvOMQ4xsZQDiuwy6mXapJEwa4-9Yx114185Xxy389whJ-S5RuelhjaXRhoVkyVT9FDRYcl8bDJhqn5OWyLt309FYxkcG0XYFosrlY1fPWvmKo1pcLpOr_p-pY0rkquIsqouB5jA6kO1tdaJU999Q", "width": 3024}], "place_id": "ChIJq_2YmRZ0QQ0RU-u0y4kAHFY", "plus_code": {"compound_code": "JXJW+2V Collado Villalba, Spain", "global_code": "8CGQJXJW+2V"}, "rating": 4.6, "reference": "ChIJq_2YmRZ0QQ0RU-u0y4kAHFY", "scope": "GOOGLE", "types": ["bank", "atm", "accounting", "finance", "point_of_interest", "establishment"], "user_ratings_total": 161, "vicinity": "Avenida de Honorio Lozano, 43, Collado Villalba"}, {"business_status": "OPERATIONAL", "geometry": {"location": {"lat": 40.6314578, "lng": -4.005246099999999}, "viewport": {"northeast": {"lat": 40.6327999302915, "lng": -4.003970819708497}, "southwest": {"lat": 40.6301019697085, "lng": -4.006668780291502}}}, "icon": "https://maps.gstatic.com/mapfiles/place_api/icons/v1/png_71/bank-71.png", "icon_background_color": "#909CE1", "icon_mask_base_uri": "https://maps.gstatic.com/mapfiles/place_api/icons/v2/bank-intl_pinlet", "international_phone_number": "+34 918 50 66 67", "name": "ABANCA", "opening_hours": {"open_now": false}, "photos": [{"height": 1080, "html_attributions": ["<a href=\"https://maps.google.com/maps/contrib/104599745445419064163\">ABANCA</a>"], "photo_reference": "AWn5SU6fUOIb1h75UMGcOjxye0x01orb_MmeMdR9PtM6kutfVq1-B6cQ5v4Svq4jwZ6rXKdVl9byEUnNjj-BrGg5xj8FWzk67miqhZw9asluXwymtg1J5rKsqJ7V5Prt80ufegsaT5nysjOCQJXTnf1g2VS7qbyqbkqZTfjZR3V3znbJAL66-fzsLtJL_694mqr3EJimnn3MyZfUecnE-eqxSI7XwsvSrefutjz5S8LV2Pc4f-m4grbhMXqqdDLub2QNq8qaeEdxdnW7k5rydoTRtbNEEd-Fgf3MGx0VBXWlJQRMDtULrjxLQ9TLExdvcQVPPOdNqo6Rd1Q", "width": 1920}], "place_id": "ChIJkdgIiRN0QQ0RurKCkwvnnmY", "plus_code": {"compound_code": "JXJV+HW Collado Villalba, Spain", "global_code": "8CGQJXJV+HW"}, "rating": 3.7, "reference": "ChIJkdgIiRN0QQ0RurKCkwvnnmY", "scope": "GOOGLE", "types": ["bank", "atm", "finance", "point_of_interest", "establishment"], "user_ratings_total": 118, "vicinity": "Calle Real, 59 Bis, Collado Villalba"}, {"business_status": "OPERATIONAL", "geometry": {"location": {"lat": 40.5756563, "lng": -3.9305027}, "viewport": {"northeast": {"lat": 40.57704623029149, "lng": -3.929120019708498}, "southwest": {"lat": 40.5743482697085, "lng": -3.931817980291502}}}, "icon": "https://maps.gstatic.com/mapfiles/place_api/icons/v1/png_71/bank-71.png", "icon_background_color": "#909CE1", "icon_mask_base_uri": "https://maps.gstatic.com/mapfiles/place_api/icons/v2/bank-intl_pinlet", "international_phone_number": "+34 918 59 54 02", "name": "Ibercaja Banco", "opening_hours": {"open_now": false}, "photos": [{"height": 900, "html_attributions": ["<a href=\"https://maps.google.com/maps/contrib/100239789236171216269\">Ibercaja Banco</a>"], "photo_reference": "AWn5SU6T0donGgSc3LW04aDMC-VEJtUutFd618Rw6dlxmqfCIssptVwdsn6qsK9keyAQ-KOPEaXqA9rgq8-bibLa0FY9JC9_v6Sf6GfSPrtu5Gxb7sIdh9CXKDMtgqxH9TkKJAapkIp_cB8pLcLDeSHwKRy47RuCxQ646n400jpczn0FRFCYyxPPFKBjCw9IDU9xRo69WM3h0iZ2Tvw8PZxhCzKnvIvlzEXymeId5g0yC_0SlawY4B2oVIPwI2jfmH5zOQEIFdJDRmwYV-_AYUirM4p5auuUfhYj0TdY-Dxeif_Sa6kITuLgGrzucjokLuHSi6GDdVbjN0A", "width": 1600}], "place_id": "ChIJH9BO9dx3QQ0RAIH4LrJRaVM", "plus_code": {"compound_code": "H3G9+7Q Torrelodones, Spain", "global_code": "8CGRH3G9+7Q"}, "rating": 3.4, "reference": "ChIJH9BO9dx3QQ0RAIH4LrJRaVM", "scope": "GOOGLE", "types": ["bank", "atm", "accounting", "finance", "point_of_interest", "establishment"], "user_ratings_total": 5, "vicinity": "Camino de Valladolid, 17, Torrelodones"}, {"business_status": "OPERATIONAL", "geometry": {"location": {"lat": 40.5766939, "lng": -3.930955000000001}, "viewport": {"northeast": {"lat": 40.57798673029149, "lng": -3.929645169708498}, "southwest": {"lat": 40.57528876970849, "lng": -3.932343130291502}}}, "icon": "https://maps.gstatic.com/mapfiles/place_api/icons/v1/png_71/bank-71.png", "icon_background_color": "#909CE1", "icon_mask_base_uri": "https://maps.gstatic.com/mapfiles/place_api/icons/v2/bank-intl_pinlet", "international_phone_number": "+34 918 59 11 62", "name": "Banco Santander", "opening_hours": {"open_now": false}, "photos": [{"height": 720, "html_attributions": ["<a href=\"https://maps.google.com/maps/contrib/116056535376303158528\">Banco Santander</a>"], "photo_reference": "AWn5SU5j4bgoNS7KCIeN2Fkdy7eT-swbxuuta14lo40lsvICt0pN5dgvufVxHdoVz848zpkpNHh62VENfo_P-wQV92sKgHQOLYOX2Ut6JTgcOkka4jF1qaSY_UdBdIlCXXwgs50XQjVIdAzB8lnszeEKVRJmTa7Y_4zMPMk93XC-NcfGBhsufzl2yUpd5mf7Gu69A11bgW7K7WMlTPaD3fYtQoSucpD0q9nSdUjhstFxvxtSEpFLPgOLxtd0JMUhLN5RiuucIoG1O-KP3SnqFucF3ypWtQRYwMv-_F-9StDKB2n2s0woRUj1_3Uibs5EK5weDTpFOD9GgPs", "width": 1280}], "place_id": "ChIJxcfNltx3QQ0RxLU7GzwiaDs", "plus_code": {"compound_code": "H3G9+MJ Torrelodones, Spain", "global_code": "8CGRH3G9+MJ"}, "rating": 2.5, "reference": "ChIJxcfNltx3QQ0RxLU7GzwiaDs", "scope": "GOOGLE", "types": ["bank", "atm", "finance", "point_of_interest", "establishment"], "user_ratings_total": 47, "vicinity": "Calle Carlos Picabea, 10, Torrelodones"}, {"business_status": "OPERATIONAL", "geometry": {"location": {"lat": 40.57503250000001, "lng": -3.9288201}, "viewport": {"northeast": {"lat": 40.57642898029151, "lng": -3.927440719708498}, "southwest": {"lat": 40.57373101970851, "lng": -3.930138680291503}}}, "icon": "https://maps.gstatic.com/mapfiles/place_api/icons/v1/png_71/bank-71.png", "icon_background_color": "#909CE1", "icon_mask_base_uri": "https://maps.gstatic.com/mapfiles/place_api/icons/v2/bank-intl_pinlet", "international_phone_number": "+34 918 54 93 82", "name": "Banco Sabadell", "opening_hours": {"open_now": false}, "photos": [{"height": 1080, "html_attributions": ["<a href=\"https://maps.google.com/maps/contrib/113281604337440327855\">Banco Sabadell</a>"], "photo_reference": "AWn5SU6QPxwNxvo72opbXhuMRBZezVF2bQoPecfwMN6UgktZGbXMYcPxPGmlKQHYud7tOMsrCxZXe6kk8BkopPzLSN43ApTTKu4ADEN_VRmipRIFBGyxfZHVgnsw605ZgUIh8edMze4xhgFbmE_tgd05vjpq2C_BzMQT7t9wlL-U-g4TpEDe5ksSW52BbHOSozRKyrdi3W9sypoj4Dxr4svkmoqtquM0Ap5FHyGqyOc11PspQbYJqEcwcPqjcF_FEkEzLayeEj2iGb2u7lGVEmOQZ3hJtXgyfY0tx6eDfwfQviWid4gq0iYVWN-xeCyQzuy3lYKkDxsGDuY", "width": 1920}], "place_id": "ChIJAQAAQBViLw0RWot-Zf_pnOg", "plus_code": {"compound_code": "H3GC+2F Torrelodones, Spain", "global_code": "8CGRH3GC+2F"}, "rating": 3.1, "reference": "ChIJAQAAQBViLw0RWot-Zf_pnOg", "scope": "GOOGLE", "types": ["bank", "atm", "accounting", "finance", "point_of_interest", "establishment"], "user_ratings_total": 53, "vicinity": "Camino de Valladolid, 3, 5-7, Torrelodones"}, {"business_status": "OPERATIONAL", "geometry": {"location": {"lat": 40.5773331, "lng": -4.004699599999999}, "viewport": {"northeast": {"lat": 40.5787235302915, "lng": -4.003277769708498}, "southwest": {"lat": 40.5760255697085, "lng": -4.005975730291502}}}, "icon": "https://maps.gstatic.com/mapfiles/place_api/icons/v1/png_71/bank-71.png", "icon_background_color": "#909CE1", "icon_mask_base_uri": "https://maps.gstatic.com/mapfiles/place_api/icons/v2/bank-intl_pinlet", "international_phone_number": "+34 918 58 69 44", "name": "Ibercaja Banco", "opening_hours": {"open_now": false}, "photos": [{"height": 900, "html_attributions": ["<a href=\"https://maps.google.com/maps/contrib/108272074620587139228\">Ibercaja Banco</a>"], "photo_reference": "AWn5SU4mPAwSQOq190wLzqDxHFmjB4TZYN4bS5zCyEhGJNLaGqHiBKGvpiYrLaLWrHUm3TlOonpiHoEDjFJARY3P7gKngx6tUcl8bo0wVp6yE7wTyhvXKvj1XI3Q4A1a3x0hxHnWPwLdutKHEDHkGEBQq6GAr03UJNS3A-Q-8J5NUSctc4J93bCaogU73jnHsFvrHExNex6M_XaomCqMhF31RkB4olZ_w1Zdj2ow69LDHH7zrUNXU_v_x2z0xjD1_3jjElg6CMNaA9sPIdkQPrgaoL8S2oF26SChvqXTLqBhzJ84s_pINt-ih9nuEXocufKt3I12Pd43TDs", "width": 1600}], "place_id": "ChIJu27_nu11QQ0RMvlh7ESDFRI", "plus_code": {"compound_code": "HXGW+W4 Galapagar, Spain", "global_code": "8CGQHXGW+W4"}, "rating": 1.9, "reference": "ChIJu27_nu11QQ0RMvlh7ESDFRI", "scope": "GOOGLE", "types": ["bank", "atm", "accounting", "finance", "point_of_interest", "establishment"], "user_ratings_total": 10, "vicinity": "Calle del Caño, 16, Galapagar"}, {"business_status": "OPERATIONAL", "geometry": {"location": {"lat": 40.57711, "lng": -4.003968}, "viewport": {"northeast": {"lat": 40.5784923302915, "lng": -4.002601519708497}, "southwest": {"lat": 40.5757943697085, "lng": -4.005299480291502}}}, "icon": "https://maps.gstatic.com/mapfiles/place_api/icons/v1/png_71/bank-71.png", "icon_background_color": "#909CE1", "icon_mask_base_uri": "https://maps.gstatic.com/mapfiles/place_api/icons/v2/bank-intl_pinlet", "international_phone_number": "+34 600 40 40 90", "name": "CaixaBank", "opening_hours": {"open_now": false}, "photos": [{"height": 1192, "html_attributions": ["<a href=\"https://maps.google.com/maps/contrib/110978991501932960838\">CaixaBank</a>"], "photo_reference": "AWn5SU5Zq5BlCtmDqRvDi2z9c6-nPmKl_SVEZ20BOmEwdU--uwRa7iCoVTrhcdXfnw6l6uqDAj7HGGd2Lzk76PsECTPwYv5mKobaAW8NJppJ0pg-Ekh1U4FoKxby-j6BNzs0oP0VnRWj5C9YAJ-JNA0YjP2P5-dvmjYVAgi3oh-3v_tjtYU-hVv7Yd9RoziDNYaI43I3oKfAQwvvZ9vYwyxacje_lIV0t9TTFUJTOclpNhcDNKfPwLYe85_m3NwNjBn3VQYuUcWJT0gyl3R7wgTWj9ChIwDg9L9LGIuDa_FyJQ_208MvcYbORfrQXRWgj6AQon9d8q6UG8c", "width": 2120}], "place_id": "ChIJe3jjwbp1QQ0RYw7efEMRej4", "plus_code": {"compound_code": "HXGW+RC Galapagar, Spain", "global_code": "8CGQHXGW+RC"}, "rating": 2.2, "reference": "ChIJe3jjwbp1QQ0RYw7efEMRej4", "scope": "GOOGLE", "types": ["bank", "finance", "point_of_interest", "establishment"], "user_ratings_total": 41, "vicinity": "Calle Concejo, 1, Galapagar"}, {"business_status": "OPERATIONAL", "geometry": {"location": {"lat": 40.57648359999999, "lng": -4.0033967}, "viewport": {"northeast": {"lat": 40.5778193802915, "lng": -4.002061269708498}, "southwest": {"lat": 40.5751214197085, "lng": -4.004759230291502}}}, "icon": "https://maps.gstatic.com/mapfiles/place_api/icons/v1/png_71/bank-71.png", "icon_background_color": "#909CE1", "icon_mask_base_uri": "https://maps.gstatic.com/mapfiles/place_api/icons/v2/bank-intl_pinlet", "international_phone_number": "+34 918 58 17 11", "name": "Banco Santander - Smart Red", "opening_hours": {"open_now": false}, "photos": [{"height": 720, "html_attributions": ["<a href=\"https://maps.google.com/maps/contrib/109023926956078955465\">Banco Santander - Smart Red</a>"], "photo_reference": "AWn5SU4k5HwO1ltERtKqKiXcDx7tBgr3Tbf3Qx7iKLoVX_YuvufXHeVujC9AKqcBliH78LNqd-l6ckIwBgHZQMADG_sfqf5YDN8QVpk4GMjkEDd40fMmuZZW8J5vz73MBS539kqKDAVxxeMLMpEvEhWGww7BZvuMD5iYa7HTeTgrqQwOIp7_kqHjXAb1FAQdGUPv5YNPWa70EdaeV9IJdUIv9jHJutwbQp0vN5PGcZWZ2-YYbLzqzWyp4cz1iEyiULXtTsvDuVRG1YWVI2Jlod2bZIxvt2BF1jaNFeB0oItXph2BeSH81q3VH24A4xBqc10qdnbiU0rMeMw", "width": 1280}], "place_id": "ChIJf9CL4u11QQ0RlOzp1eMWeqQ", "plus_code": {"compound_code": "HXGW+HJ Galapagar, Spain", "global_code": "8CGQHXGW+HJ"}, "rating": 2.4, "reference": "ChIJf9CL4u11QQ0RlOzp1eMWeqQ", "scope": "GOOGLE", "types": ["bank", "atm", "finance", "point_of_interest", "establishment"], "user_ratings_total": 45, "vicinity": "Plaza De La Maja, S-N, Galapagar"}, {"business_status": "CLOSED_TEMPORARILY", "geometry": {"location": {"lat": 40.5756366, "lng": -4.003191999999999}, "viewport": {"northeast": {"lat": 40.5770521302915, "lng": -4.001849069708498}, "southwest": {"lat": 40.5743541697085, "lng": -4.004547030291502}}}, "icon": "https://maps.gstatic.com/mapfiles/place_api/icons/v1/png_71/generic_business-71.png", "icon_background_color": "#7B9EB0", "icon_mask_base_uri": "https://maps.gstatic.com/mapfiles/place_api/icons/v2/generic_pinlet", "name": "Eurocaja Rural", "permanently_closed": true, "place_id": "ChIJO1HFpC91QQ0RBTNYZ5qHoS0", "plus_code": {"compound_code": "HXGW+7P Galapagar, Spain", "global_code": "8CGQHXGW+7P"}, "rating": 3.5, "reference": "ChIJO1HFpC91QQ0RBTNYZ5qHoS0", "scope": "GOOGLE", "types": ["atm", "bank", "finance", "point_of_interest", "establishment"], "user_ratings_total": 8, "vicinity": "Calle Soberanía, 15, Galapagar"}, {"business_status": "OPERATIONAL", "geometry": {"location": {"lat": 40.5587916, "lng": -4.016749900000001}, "viewport": {"northeast": {"lat": 40.56008428029151, "lng": -4.015390119708498}, "southwest": {"lat": 40.55738631970851, "lng": -4.018088080291503}}}, "icon": "https://maps.gstatic.com/mapfiles/place_api/icons/v1/png_71/bank-71.png", "icon_background_color": "#909CE1", "icon_mask_base_uri": "https://maps.gstatic.com/mapfiles/place_api/icons/v2/bank-intl_pinlet", "international_phone_number": "+34 600 40 40 90", "name": "CaixaBank", "opening_hours": {"open_now": false}, "photos": [{"height": 900, "html_attributions": ["<a href=\"https://maps.google.com/maps/contrib/108620297932745131227\">CaixaBank</a>"], "photo_reference": "AWn5SU7_uBFdDElynOoPkrfdTDUcrXpaqTSNQY9SJrbqdz9ktPGNfejlz5Z8nMEzZcLr2lJWlQlGK_lCaO9Rd1piC_sbTFQMTeJ12FkkQBqUWF0WCVO1X8ESmSO_FnvMj-2pr9EHZWrqlYmKb1DFsLw9vJIZLvu5FxM3gnHDacAl10ot_sxRL3tdV4BUtnsUKgl2PP3wGKXaDqNuDqGs3AfxmPkbjnlLdB898X5rdByI-nSwqsjNeVsMRmrdXeRasaGF50dmnTjZsmsRuym8CQyVgtoLXUbLP4m1Q7Ye6jEBlRZ7Fu7bB7byTSPHOhQLE-H8irHkeaqCl7Y", "width": 1600}], "place_id": "ChIJ-SpwuvefQQ0RgtnJyUVFWQk", "plus_code": {"compound_code": "HX5M+G8 Colmenarejo, Spain", "global_code": "8CGQHX5M+G8"}, "rating": 2.1, "reference": "ChIJ-SpwuvefQQ0RgtnJyUVFWQk", "scope": "GOOGLE", "types": ["bank", "finance", "point_of_interest", "establishment"], "user_ratings_total": 17, "vicinity": "C. Porvenir C/v, Calle Praofuentes, Colmenarejo"}, {"business_status": "OPERATIONAL", "geometry": {"location": {"lat": 40.5792778, "lng": -3.9553854}, "viewport": {"northeast": {"lat": 40.5805513802915, "lng": -3.954051669708498}, "southwest": {"lat": 40.5778534197085, "lng": -3.956749630291502}}}, "icon": "https://maps.gstatic.com/mapfiles/place_api/icons/v1/png_71/bank-71.png", "icon_background_color": "#909CE1", "icon_mask_base_uri": "https://maps.gstatic.com/mapfiles/place_api/icons/v2/bank-intl_pinlet", "international_phone_number": "+34 910 57 84 37", "name": "Banco Santander Agentes", "opening_hours": {"open_now": false}, "photos": [{"height": 720, "html_attributions": ["<a href=\"https://maps.google.com/maps/contrib/111439480035616513922\">Banco Santander Agentes</a>"], "photo_reference": "AWn5SU7OtECSifVVT65m88gya8AkfLyEl92DjK0mVfER3D-pL-riGO7a4G5pYv3QIQ587go6NBF4kf9e_edPzKEunonOc7cZUzPbwXWaZrD-gd2no-1g8ns6hy73maNMvcdFiXH5GWklfR5eP_usk8soGdN1fGHrXkumD74Twdr3eNauHW3s8Vaa7A_SjsWqP8r3s1ix89F0nh1Y73nhpSMr6I3D7qXneAreY4MIAoKleWVnNFpGi3HkQm3JoB_N-V3CTsQzkwR0xtTR1GAfigptICM5MQNP2ShckXF92ldjSGYPZhZiiFvZbl72BbxnWZPb_DUIoGKl7hk", "width": 1280}], "place_id": "ChIJqRYQTdx3QQ0RhCyjMPreYBs", "plus_code": {"compound_code": "H2HV+PR Torrelodones, Spain", "global_code": "8CGRH2HV+PR"}, "rating": 3.7, "reference": "ChIJqRYQTdx3QQ0RhCyjMPreYBs", "scope": "GOOGLE", "types": ["bank", "atm", "finance", "point_of_interest", "establishment"], "user_ratings_total": 12, "vicinity": "Calle Jesusa Lara, 28, Torrelodones"}, {"business_status": "OPERATIONAL", "geometry": {"location": {"lat": 40.629872, "lng": -4.006748}, "viewport": {"northeast": {"lat": 40.6312025802915, "lng": -4.005358119708498}, "southwest": {"lat": 40.6285046197085, "lng": -4.008056080291502}}}, "icon": "https://maps.gstatic.com/mapfiles/place_api/icons/v1/png_71/bank-71.png", "icon_background_color": "#909CE1", "icon_mask_base_uri": "https://maps.gstatic.com/mapfiles/place_api/icons/v2/bank-intl_pinlet", "international_phone_number": "+34 918 50 74 05", "name": "Banco", "opening_hours": {"open_now": false}, "photos": [{"height": 600, "html_attributions": ["<a href=\"https://maps.google.com/maps/contrib/111987270962608937588\">Unicaja Banco</a>"], "photo_reference": "AWn5SU6hwyHZB5rOuHKTgFUNtY9LjeEuk9ykrBJ_s1DXjKsvkmtmTguJJ-qCNEu-Tr49XwjhJd3mg5AHBQ3QsD_NZZIdfzqym5GKBmrfWjQzRsso1ASnwUDrwt9gbHUYSsDw5y_mNNjG_Jtuf7mcUAaahel7ALdQUZNn97Qo7PEn9ORhGyfXYxobJ2W5K2eOeMbmQSuNRJTyoFptMrc_Q312xnFlSKQes8I9El-iPBOt0KfHQHiBWCPjRusQn-p6xZOjXgbMmJR6E-2nCi38JFrxiUrRjc332KO5gup8v0hRp9bHtA6nkjkZDQZmStbIkf9_ithSPPGEahY", "width": 800}], "place_id": "ChIJCft16xR0QQ0RMPUmd9kow6g", "plus_code": {"compound_code": "JXHV+W8 Collado Villalba, Spain", "global_code": "8CGQJXHV+W8"}, "rating": 1.7, "reference": "ChIJCft16xR0QQ0RMPUmd9kow6g", "scope": "GOOGLE", "types": ["bank", "finance", "point_of_interest", "establishment"], "user_ratings_total": 29, "vicinity": "Calle Real, 35, Collado Villalba"}]