[{"business_status": "OPERATIONAL", "geometry": {"location": {"lat": 40.5782947, "lng": -4.004846799999999}, "viewport": {"northeast": {"lat": 40.5795760302915, "lng": -4.003481019708498}, "southwest": {"lat": 40.5768780697085, "lng": -4.006178980291502}}}, "icon": "https://maps.gstatic.com/mapfiles/place_api/icons/v1/png_71/shopping-71.png", "icon_background_color": "#4B96F3", "icon_mask_base_uri": "https://maps.gstatic.com/mapfiles/place_api/icons/v2/convenience_pinlet", "international_phone_number": "+34 605 30 20 23", "name": "ALIMENTOS DE NUESTRO PUEBLO SL", "opening_hours": {"open_now": false}, "photos": [{"height": 534, "html_attributions": ["<a href=\"https://maps.google.com/maps/contrib/105010441270126181577\">ALIMENTOS DE NUESTRO PUEBLO SL</a>"], "photo_reference": "AWn5SU4lpqPb0F1dEnz3JZP8RmTLXr8u37DVsxJijfhAyQjMle5I8fqadQk-uub70-KuA_5tImkhSWbEDQjQ6-6XOJW7P4xharX0uUV4JAt0kUoDevArp5aDHxXqGYh4j9SJQlmpjA-PH_ce6MOzKkn_rWF0mTYj3_UH61S6Jfe00QQ87n5WUKWcuT1e2hQ_Tslgqaw8PwP-Q_MpP1h4DOrqvWJ9-6FRVOBeNcdFJtXf38IjiRj-trPn192iduXXAkPZtrsuGHfuliL_muU0WhipX3glq617LNzmOlJI94_TgyGsnrDnpOQVn49wB6zkmBhIEQgxeI7KOPQ", "width": 948}], "place_id": "ChIJLXXCt0t1QQ0R6grJCiUsPqo", "plus_code": {"compound_code": "HXHW+83 Galapagar, Spain", "global_code": "8CGQHXHW+83"}, "rating": 5, "reference": "ChIJLXXCt0t1QQ0R6grJCiUsPqo", "scope": "GOOGLE", "types": ["convenience_store", "store", "food", "point_of_interest", "establishment"], "user_ratings_total": 2, "vicinity": "Calle del Calvario, 16, Galapagar"}, {"business_status": "OPERATIONAL", "geometry": {"location": {"lat": 40.5752464, "lng": -4.002763799999999}, "viewport": {"northeast": {"lat": 40.5766202302915, "lng": -4.001443119708497}, "southwest": {"lat": 40.5739222697085, "lng": -4.004141080291502}}}, "icon": "https://maps.gstatic.com/mapfiles/place_api/icons/v1/png_71/shopping-71.png", "icon_background_color": "#4B96F3", "icon_mask_base_uri": "https://maps.gstatic.com/mapfiles/place_api/icons/v2/convenience_pinlet", "international_phone_number": "+34 642 82 10 00", "name": "Alimentacion Míoríţa", "opening_hours": {"open_now": false}, "photos": [{"height": 422, "html_attributions": ["<a href=\"https://maps.google.com/maps/contrib/103892721116768689834\">Magazin romanesc Miorita en galapagar</a>"], "photo_reference": "AWn5SU7LmjSzZzFJb1DhEw38x-kqd3TlDp1-8mlQ22vosj_wZpd1owkKjq5ZlUc8PeHaDNrP4AFy7Z9BV4j3xMQqXFwqpqXNw801Hy2ynbavhszC6XLDxHCAyyj0tIy4eqqsek3MzFj6C4wstcKsrlhRnc14s15bxmiYMsWyMZLR_q00I_Q2DvbFljCfFkPrEFl2UqAqDjhRG7M--1Irbx78EC8HAyK2iYP6mqBtY-p50lb2Vjd9WdtEuTzFEQ2-QODfAAvjXpcltjQRN3sMaQTo85_zt4168sHwDlhZQVJj8y3iie3tYzvdF63xZe8lKF4WbPV_8wJuPzo", "width": 750}], "place_id": "ChIJeamsEPJ1QQ0RiWmtwQW2Hr0", "plus_code": {"compound_code": "HXGW+3V Galapagar, Spain", "global_code": "8CGQHXGW+3V"}, "rating": 4, "reference": "ChIJeamsEPJ1QQ0RiWmtwQW2Hr0", "scope": "GOOGLE", "types": ["convenience_store", "store", "food", "point_of_interest", "establishment"], "user_ratings_total": 10, "vicinity": "Calle Veracruz, 15, Galapagar"}, {"business_status": "OPERATIONAL", "geometry": {"location": {"lat": 40.5773102, "lng": -4.000649900000001}, "viewport": {"northeast": {"lat": 40.5785804802915, "lng": -3.999190469708498}, "southwest": {"lat": 40.5758825197085, "lng": -4.001888430291502}}}, "icon": "https://maps.gstatic.com/mapfiles/place_api/icons/v1/png_71/shopping-71.png", "icon_background_color": "#4B96F3", "icon_mask_base_uri": "https://maps.gstatic.com/mapfiles/place_api/icons/v2/convenience_pinlet", "name": "Dragón rojo", "place_id": "ChIJDypgg_h1QQ0RcSYtnZDJkyk", "plus_code": {"compound_code": "HXGX+WP Galapagar, Spain", "global_code": "8CGQHXGX+WP"}, "reference": "ChIJDypgg_h1QQ0RcSYtnZDJkyk", "scope": "GOOGLE", "types": ["convenience_store", "store", "food", "point_of_interest", "establishment"], "vicinity": "Carretera de Torrelodones, 11, Galapagar"}, {"business_status": "OPERATIONAL", "geometry": {"location": {"lat": 40.57965969999999, "lng": -4.0027583}, "viewport": {"northeast": {"lat": 40.58104468029149, "lng": -4.001395669708499}, "southwest": {"lat": 40.5783467197085, "lng": -4.004093630291504}}}, "icon": "https://maps.gstatic.com/mapfiles/place_api/icons/v1/png_71/shopping-71.png", "icon_background_color": "#4B96F3", "icon_mask_base_uri": "https://maps.gstatic.com/mapfiles/place_api/icons/v2/convenience_pinlet", "international_phone_number": "+34 654 31 27 84", "name": "Alimentacion y Bazar", "opening_hours": {"open_now": false}, "photos": [{"height": 1858, "html_attributions": ["<a href=\"https://maps.google.com/maps/contrib/113356941566436936526\">Gustavo Bregante</a>"], "photo_reference": "AWn5SU5CX1GR7SrxxFutiklJ3Ez-MJ0EMZPhHzPpn8CWIS7c3CV2eSSAhYLsG7nfxZxW6Wzj9jLDl6N68B_buMh-H88gajXh5THiKvb6eIbTuybFdh7R7Q6t_WfKAUXDUHbCCb1anMbtTvLTtjAxFANOdzCVcaUo2e4PjjXirAxCN7FGHqYCF6KltYiPCbQehgJuQdcgZLK7Po57JiUgoYA-Hw2zUJjw5Rx9yF3ELHNEEShPrejV61XRTd6aJkS4SJDxoNCLEYMY3IsOhUy8Jmar9RGyCN6jVU8zF6ibAVovNyMqHCZziiv3n7qPIY9_qnNPNdeU1uqe77NywFzd5TA0vV35MNd0DN3cCENsULM_W5GuTfWIc7IO-cb3Eywk0apAkF7a-WqZsVY8WBbuMQVvo3b63XbdQu361dZAPkIjlpqviVM9Hk7H5vqCmH9psy8QiIhhVDlFndUzlC-IjVNTzOyKBZrCwE9j7ZJKa-PHdPnTyh4N6-LNjxkWKqgXPhq2xqWzE9JncVcjfiop4NqIWrDwtFjH4n9ni2sCtZNzE7QRJt2VZ4gSC14ahgXUx5NsjeeC6vqFkNAdreRxW7avSBVqltp0R_11UwspM2LeyHN4IGU7Wo8Gh8Eue_GZTmMV5xP9PMpK", "width": 904}], "place_id": "ChIJBYDym2h1QQ0RJDYgiV6cUj4", "plus_code": {"compound_code": "HXHW+VV Galapagar, Spain", "global_code": "8CGQHXHW+VV"}, "rating": 3.5, "reference": "ChIJBYDym2h1QQ0RJDYgiV6cUj4", "scope": "GOOGLE", "types": ["convenience_store", "store", "food", "point_of_interest", "establishment"], "user_ratings_total": 4, "vicinity": "Calle de San Gregorio, 30, Galapagar"}, {"business_status": "OPERATIONAL", "geometry": {"location": {"lat": 40.5828177, "lng": -3.9970406}, "viewport": {"northeast": {"lat": 40.5842214802915, "lng": -3.995741569708497}, "southwest": {"lat": 40.5815235197085, "lng": -3.998439530291502}}}, "icon": "https://maps.gstatic.com/mapfiles/place_api/icons/v1/png_71/shopping-71.png", "icon_background_color": "#4B96F3", "icon_mask_base_uri": "https://maps.gstatic.com/mapfiles/place_api/icons/v2/convenience_pinlet", "international_phone_number": "+34 640 22 42 12", "name": "COSA MAJA, S.L.", "opening_hours": {"open_now": false}, "place_id": "ChIJUx7vygZ1QQ0R6EohNe1JQEk", "plus_code": {"compound_code": "H2M3+45 Galapagar, Spain", "global_code": "8CGRH2M3+45"}, "reference": "ChIJUx7vygZ1QQ0R6EohNe1JQEk", "scope": "GOOGLE", "types": ["convenience_store", "store", "food", "point_of_interest", "establishment"], "vicinity": "Carretera de Galapagar a Navata, Galapagar"}]