[{"business_status": "OPERATIONAL", "geometry": {"location": {"lat": 40.1058803, "lng": -3.4808237}, "viewport": {"northeast": {"lat": 40.1071160302915, "lng": -3.479627319708498}, "southwest": {"lat": 40.1044180697085, "lng": -3.482325280291501}}}, "icon": "https://maps.gstatic.com/mapfiles/place_api/icons/v1/png_71/park-71.png", "icon_background_color": "#4DB546", "icon_mask_base_uri": "https://maps.gstatic.com/mapfiles/place_api/icons/v2/tree_pinlet", "name": "Municipal Daniel Caballero Park", "opening_hours": {"open_now": false}, "photos": [{"height": 1480, "html_attributions": ["<a href=\"https://maps.google.com/maps/contrib/101099853662667138786\">Miguel Lucio-V.M.</a>"], "photo_reference": "AWn5SU4qOsajb_VAuG5gaj8mqw_1Frxh7bndyZqPZAA1_lQDel7nx8Mp4VYOlgWv_stwjYep_EJsd5hSoikN4MfgVHq1TAlFmkPLwJgwC_8-BVGq7YCgobCybLwiMjp0JeMoyYOLUiQZlz7k2Nf7OK0-rBSpWHcuxNKtid9jAfMnplLR5_Crgl07G4h94NicxTvrkIVO54BmN4JliBLQvtwcroectSiX0wtxTlFOhCl3IOFQyY24uORrCpy9H-wcZKKA6ukKu-clFS9xsq2xRbCKDelKp94OtgkiHDYvRkvxh1O5pua564iP21Z6uRq9K7iRM7FPJ7wUAePX_E88IBYXOow_QdHCZb7UG9gc5SlOvYfJOIw6AmesbG0lkO2dBj5o2VjsHidp4r3gr_jigRAa-z7CY5GWkpQugvmPRiRdWkl4lsCEIyqpkP6jhnAVYxuT-mUzBAUXQKYYRIg4frB5-YGgiVAwEsJ13t7Eo1rhcMN163YLQVMyerKc_u5_ky_gXPzrLknGwU-yPwMozUDc_kOEfZtg79jdbKIj-z2s6JjFTi0WKTkYVC9OGbe03UAQK6kJxZxvnvprGDT9vwItqzvOnrRGNJbgabNJqkJoa19946F4orH5_keozacEciC6QUh7nw", "width": 2832}], "place_id": "ChIJK3sR2BISQg0RruGvcPT8-yY", "plus_code": {"compound_code": "4G49+9M Villaconejos, Spain", "global_code": "8CGR4G49+9M"}, "rating": 3.8, "reference": "ChIJK3sR2BISQg0RruGvcPT8-yY", "scope": "GOOGLE", "types": ["park", "point_of_interest", "establishment"], "user_ratings_total": 85, "vicinity": "Avenida del Parque, 7, Villaconejos"}, {"business_status": "OPERATIONAL", "geometry": {"location": {"lat": 40.0972173, "lng": -3.488522599999999}, "viewport": {"northeast": {"lat": 40.0988274302915, "lng": -3.486545969708498}, "southwest": {"lat": 40.0961294697085, "lng": -3.489243930291502}}}, "icon": "https://maps.gstatic.com/mapfiles/place_api/icons/v1/png_71/park-71.png", "icon_background_color": "#4DB546", "icon_mask_base_uri": "https://maps.gstatic.com/mapfiles/place_api/icons/v2/tree_pinlet", "name": "Mirador Ermita de San Isidro", "place_id": "ChIJe9oZMwATQg0RX6lU4OhHQdY", "plus_code": {"compound_code": "3GW6+VH Villaconejos, Spain", "global_code": "8CGR3GW6+VH"}, "reference": "ChIJe9oZMwATQg0RX6lU4OhHQdY", "scope": "GOOGLE", "types": ["park", "point_of_interest", "establishment"], "vicinity": "M-320, 20, Villaconejos"}, {"business_status": "OPERATIONAL", "geometry": {"location": {"lat": 40.0972145, "lng": -3.488550099999999}, "viewport": {"northeast": {"lat": 40.0988293802915, "lng": -3.486562119708498}, "southwest": {"lat": 40.0961314197085, "lng": -3.489260080291502}}}, "icon": "https://maps.gstatic.com/mapfiles/place_api/icons/v1/png_71/park-71.png", "icon_background_color": "#4DB546", "icon_mask_base_uri": "https://maps.gstatic.com/mapfiles/place_api/icons/v2/tree_pinlet", "name": "Mirador Ermita de San Isidro", "place_id": "ChIJ2WdPOwATQg0RPJPnF-p32sU", "plus_code": {"compound_code": "3GW6+VH Villaconejos, Spain", "global_code": "8CGR3GW6+VH"}, "reference": "ChIJ2WdPOwATQg0RPJPnF-p32sU", "scope": "GOOGLE", "types": ["park", "point_of_interest", "establishment"], "vicinity": "Mirador Ermita de San Isidro, M-320, 20, Villaconejos"}, {"business_status": "OPERATIONAL", "geometry": {"location": {"lat": 40.1119776, "lng": -3.4831602}, "viewport": {"northeast": {"lat": 40.1133839302915, "lng": -3.482302469708499}, "southwest": {"lat": 40.1106859697085, "lng": -3.485000430291503}}}, "icon": "https://maps.gstatic.com/mapfiles/place_api/icons/v1/png_71/park-71.png", "icon_background_color": "#4DB546", "icon_mask_base_uri": "https://maps.gstatic.com/mapfiles/place_api/icons/v2/tree_pinlet", "name": "Finca El Jardín Del Eden", "place_id": "ChIJRaceBAATQg0RBM8Rl9164OM", "rating": 5, "reference": "ChIJRaceBAATQg0RBM8Rl9164OM", "scope": "GOOGLE", "types": ["park", "point_of_interest", "establishment"], "user_ratings_total": 2, "vicinity": "4G68+QP, Villaconejos"}, {"business_status": "OPERATIONAL", "geometry": {"location": {"lat": 40.1222481, "lng": -3.4936544}, "viewport": {"northeast": {"lat": 40.1237004302915, "lng": -3.492173919708498}, "southwest": {"lat": 40.12100246970851, "lng": -3.494871880291502}}}, "icon": "https://maps.gstatic.com/mapfiles/place_api/icons/v1/png_71/park-71.png", "icon_background_color": "#4DB546", "icon_mask_base_uri": "https://maps.gstatic.com/mapfiles/place_api/icons/v2/tree_pinlet", "name": "Desierto del Jarama", "place_id": "ChIJRT_DEAATQg0RnerW_Azz0AM", "plus_code": {"compound_code": "4GC4+VG Villaconejos, Spain", "global_code": "8CGR4GC4+VG"}, "reference": "ChIJRT_DEAATQg0RnerW_Azz0AM", "scope": "GOOGLE", "types": ["park", "point_of_interest", "establishment"], "vicinity": "Villaconejos"}, {"business_status": "OPERATIONAL", "geometry": {"location": {"lat": 40.1168194, "lng": -3.4567401}, "viewport": {"northeast": {"lat": 40.1186469302915, "lng": -3.455534969708498}, "southwest": {"lat": 40.1159489697085, "lng": -3.458232930291502}}}, "icon": "https://maps.gstatic.com/mapfiles/place_api/icons/v1/png_71/park-71.png", "icon_background_color": "#4DB546", "icon_mask_base_uri": "https://maps.gstatic.com/mapfiles/place_api/icons/v2/tree_pinlet", "name": "Casita del Monte", "opening_hours": {"open_now": true}, "photos": [{"height": 4032, "html_attributions": ["<a href=\"https://maps.google.com/maps/contrib/103714200177980817064\">Ricardo Martínez</a>"], "photo_reference": "AWn5SU7ulRarPphkF7iS2WwxYkDz22QEiVcsYMvsXLWcHSv1fqlln6LmCgSN39qViFSGCMC72AJdDJSgsW5qfo7-Yt8Ep6BwohPv-pDmqLK7Zan3HoKDnH4-yKLGfzr__srQGW--U5Dh2R4AgymCrgqiXLnvhT25ky_eqZEqfoe6gxSIPKJI42I0_lHRgohWKsxJOnE5JYhUiZUTHm1k5XEaiM89MzGWnWvjIUOhIcsZRcEqMj4MoEKVutuviaV-zeLpqGlrlWtw9MMOorXP25CzYj1_pLb9rR8wAU4AoF6vrSnkJaWOcLXnzr9gaCrCDf_9QU2BjwFOXMKxIhovGm1F37bGcCF29wmac7dw1oXqtIKGHgKAVIvSsGANnqn4HMoCj4cHKojGh2-cXNM-cbHlvIBKgTZBNyypN0WHdm4OCYY64euK8haIr0SJ7f3hkMhCeetdGzuJZXw5LgTDEY5Z0m1wNqDS6TyVCAhNsdYd1L_YSToGkHB-oua091t_VlkBmERRThfV3OLYggYxLk0MNgJYoPoZnst7knY90xT6vmgLqqxhR2DF9tIuEIY4b7D436P7iviQoWGwGHMCTF9x30VxqT_HmqHNMIAipXsKskDTRGP3CuK_1XyvmSIwsNT8sWqu8g", "width": 3024}], "place_id": "ChIJvbFE4z0TQg0RhVFPagTyERk", "plus_code": {"compound_code": "4G8V+P8 Villaconejos, Spain", "global_code": "8CGR4G8V+P8"}, "rating": 4, "reference": "ChIJvbFE4z0TQg0RhVFPagTyERk", "scope": "GOOGLE", "types": ["park", "point_of_interest", "establishment"], "user_ratings_total": 1, "vicinity": "Diseminado Casa Montecillo, 1, Madrid"}, {"business_status": "OPERATIONAL", "geometry": {"location": {"lat": 40.12093049999999, "lng": -3.452912599999999}, "viewport": {"northeast": {"lat": 40.12201724999999, "lng": -3.451605069708497}, "southwest": {"lat": 40.11767024999999, "lng": -3.454303030291501}}}, "icon": "https://maps.gstatic.com/mapfiles/place_api/icons/v1/png_71/park-71.png", "icon_background_color": "#4DB546", "icon_mask_base_uri": "https://maps.gstatic.com/mapfiles/place_api/icons/v2/tree_pinlet", "name": "La noria", "opening_hours": {"open_now": true}, "place_id": "ChIJzX55usITQg0RYEEiwW8OwPE", "reference": "ChIJzX55usITQg0RYEEiwW8OwPE", "scope": "GOOGLE", "types": ["park", "point_of_interest", "establishment"], "vicinity": "4GCW+9R, Chinchón"}, {"business_status": "OPERATIONAL", "geometry": {"location": {"lat": 40.07392300000001, "lng": -3.485583}, "viewport": {"northeast": {"lat": 40.0753091802915, "lng": -3.484299219708498}, "southwest": {"lat": 40.0726112197085, "lng": -3.486997180291502}}}, "icon": "https://maps.gstatic.com/mapfiles/place_api/icons/v1/png_71/park-71.png", "icon_background_color": "#4DB546", "icon_mask_base_uri": "https://maps.gstatic.com/mapfiles/place_api/icons/v2/tree_pinlet", "name": "Miraltajo Park", "opening_hours": {"open_now": true}, "photos": [{"height": 3264, "html_attributions": ["<a href=\"https://maps.google.com/maps/contrib/101841832025059501566\">Pablo A. Pérez</a>"], "photo_reference": "AWn5SU6po10vzHXvt8vX-Y9Ho6eTava6Du7bxX-rVWKs7uQcO21MZSaNOSkocliXz2VtMHo1yysmfVE-DNvhw0a2ucBDH8Z7wujlLy9t9Lw4ij7_3zfCC1EBMz90I1I-ym_pucg93ciK2wbIF9RFIAttefpidHInAbapp0EKaYWRu6WJRzVgDObsGbxJeEqDclhMk6-aPI4c0sElv6PffNtwnnFqJ__P3BTIxpZaZqY3C3kKkUEt0O-gDpbBN_gGHchS_5shLFp3CBLSRUk0Ny1VwqH9lW49gpLxbZGtjeAH2Uz-yAd0IQNZ8hlM6y2CLnnzs2KYEpKmFZ_ZnaxNItHTo-bbZF5TjFuc5e6SGb_1owVovMc6VXUszpuCTTet9sCSpj4GyQCTDEW3vNFuwiRGlbpB9abhP6iymvGrQYmEXNKTqpQdWaV5s0eYKDZzAGPuq8NIcoLvZvnZrNFtwpDcIwv8JIVmDtRkphnnqKNXKdOZ5RDjHk5iQCu1bKOaidk4VMWwSpUo08Qjh29pwtYNGgoG0D6bR20nj1eCo-mejYO5gj9cKUfDbZ7_Ajr9mVyuAT1tMnXtL3IbnqafU6ngCpDnPJ8NeR3A_aPCnQRV1DrHa99ZRhqIv0DZc-b6vMOpAa3Lww", "width": 1504}], "place_id": "ChIJWwozZBwNQg0Rj1noXhCV4PY", "plus_code": {"compound_code": "3GF7+HQ Colmenar de Oreja, Spain", "global_code": "8CGR3GF7+HQ"}, "rating": 3, "reference": "ChIJWwozZBwNQg0Rj1noXhCV4PY", "scope": "GOOGLE", "types": ["park", "point_of_interest", "establishment"], "user_ratings_total": 2, "vicinity": "Avenida el Jardín de Miraltajo, 41, Colmenar de Oreja"}, {"business_status": "OPERATIONAL", "geometry": {"location": {"lat": 40.11864509999999, "lng": -3.4461793}, "viewport": {"northeast": {"lat": 40.12021763029149, "lng": -3.444966769708498}, "southwest": {"lat": 40.11751966970849, "lng": -3.447664730291502}}}, "icon": "https://maps.gstatic.com/mapfiles/place_api/icons/v1/png_71/park-71.png", "icon_background_color": "#4DB546", "icon_mask_base_uri": "https://maps.gstatic.com/mapfiles/place_api/icons/v2/tree_pinlet", "name": "Vértice geodésico Miralrío", "place_id": "ChIJ69k5FIsTQg0RUz6Ivoq7DvE", "reference": "ChIJ69k5FIsTQg0RUz6Ivoq7DvE", "scope": "GOOGLE", "types": ["park", "point_of_interest", "establishment"], "vicinity": "4H93+FG, Chinchón"}, {"business_status": "OPERATIONAL", "geometry": {"location": {"lat": 40.1237325, "lng": -3.4492219}, "viewport": {"northeast": {"lat": 40.12659525, "lng": -3.448086599999999}, "southwest": {"lat": 40.12277825, "lng": -3.4526278}}}, "icon": "https://maps.gstatic.com/mapfiles/place_api/icons/v1/png_71/park-71.png", "icon_background_color": "#4DB546", "icon_mask_base_uri": "https://maps.gstatic.com/mapfiles/place_api/icons/v2/tree_pinlet", "name": "Banco Celestial", "opening_hours": {"open_now": true}, "photos": [{"height": 1848, "html_attributions": ["<a href=\"https://maps.google.com/maps/contrib/104529586377349346206\">Adrián Ferrer Castellanos</a>"], "photo_reference": "AWn5SU7CL0GG_s2i_fLMNJiH5ZqC0k8w1kfWR5x_fYKIinb0hBL4FfWbTxDbUaLSkyFxigmi_H47RfjP-DyyFq3OnX4IQDEtRMU3HczNhoTo47nj7ADakZ0DLDxlvBi-ToUH801Yrdskt5HE-RQ4huvgJrVYVzbdn5_2mOV1sdiVErwf9VAzrCCurS95BrJM4D62-iWkZyGnamCtV4WHAiSSkiEKtQehZ6U28z4jlsEQscetLCezOxoiFmtpczi2WlMJM1E805E7kgG-bykFtiCmpvYqxxkyoXVk3Jg_tN4vp-WpmUKI1yeIYOiHE8D7uCGmftP9rLzgDz1qmVEHKZMvcNQ6-JuIP1ARDxXO955ZcIZB9ynE7iHhQKOCerj3A3IGIiqgCaIxYo0Y95184HyZmc9ai7a_WxmWVsPh7jZJE0tcpagaPwyeMapCQ1sb3R9qaqm0b6fU4bekUipxL4zxMbnAOWdMgHmBSM-ko_KW8ORNNHSLcZ0jctkn7HNSTOUSV-qg4KutqcvgXhWTbJamldisAYVnQXgKgGpC6xjYUJrS_rtdNlp3z5fFuu4ykOr0n5qWBVp7M0f7i6XkNN7oVvGG5eA1MUFWzFqncjTp7-OYC_HJ4FF7dtLvNtSK2l8LssMwjA", "width": 4000}], "place_id": "ChIJ3fGONwATQg0RW6IisCx1HxE", "plus_code": {"compound_code": "4HF2+F8 Chinchón, Spain", "global_code": "8CGR4HF2+F8"}, "rating": 3, "reference": "ChIJ3fGONwATQg0RW6IisCx1HxE", "scope": "GOOGLE", "types": ["park", "point_of_interest", "establishment"], "user_ratings_total": 1, "vicinity": "Chinchón"}, {"business_status": "OPERATIONAL", "geometry": {"location": {"lat": 40.0994732, "lng": -3.4343879}, "viewport": {"northeast": {"lat": 40.1010714802915, "lng": -3.433393300000001}, "southwest": {"lat": 40.0983735197085, "lng": -3.437371699999999}}}, "icon": "https://maps.gstatic.com/mapfiles/place_api/icons/v1/png_71/park-71.png", "icon_background_color": "#4DB546", "icon_mask_base_uri": "https://maps.gstatic.com/mapfiles/place_api/icons/v2/tree_pinlet", "name": "Cueva de los primos", "photos": [{"height": 3024, "html_attributions": ["<a href=\"https://maps.google.com/maps/contrib/103714200177980817064\">Ricardo Martínez</a>"], "photo_reference": "AWn5SU7tqmk1B8TIj6y3nLrzHUaeXSzOgsJGO6Iz8C1xM_6gGCaCXe5t5efWt0yWWO5WoUvo9Oq05P-rCzx-R_u19fhjUwKZkEZB86K2Jw7hkN1BKGD_9Rrz4YJ8ehPFuVPIgq604cPiHz3GkjyXOdtqiHm6QScutB_XgU5mxuL5Fe-8ys-vA8q51_1E8z0chWapD_6_dsER7_gA3CTPigP6LOX_uSyViJNTewteV-HiZexFl5WGy5skLTL6IfeSAuERjtT8m7n6T1eMfMxMEK7dmRXLHEVqF2sdxSYPj3IAlAsowuJ4ihLe5qijKa9vVs-Cg-eON619NkH6b-w-uwG7Bx0cis9Qx45m9VxZBdd9FznyuiBGHR077yYgy8sTaLOm2ld9522psLhQfSc2j8eb-TenZtopPICx6pSk0mq-zL4WjW8aId1eAepMlTBSIoeKYbeiYdZvL231C-wF53V9GMp6hdUWBjOXqnBsPk5Mc2l4rl9ZJ4L2QPwMOs0Wc-YRWPuVNt7evHQ5GJsvqR13eULBuT_8D3pL1ZtwgcoDQsXFTd98HgQ_yGWEfAJ_z-_8o0dZhBASQ8ogc6XAmJCNLzowlnWlARRVEFgSwz-LlyUTLUtNJhBpeCOm2OlxzTj9Q8QeToU5", "width": 4032}], "place_id": "ChIJteamebsTQg0RuteBvtOcdB4", "rating": 3.5, "reference": "ChIJteamebsTQg0RuteBvtOcdB4", "scope": "GOOGLE", "types": ["park", "point_of_interest", "establishment"], "user_ratings_total": 2, "vicinity": "3HX8+Q6, Los Vallejos"}, {"business_status": "OPERATIONAL", "geometry": {"location": {"lat": 40.126825, "lng": -3.440787}, "viewport": {"northeast": {"lat": 40.1299519, "lng": -3.4376625}, "southwest": {"lat": 40.12578270000001, "lng": -3.4418285}}}, "icon": "https://maps.gstatic.com/mapfiles/place_api/icons/v1/png_71/park-71.png", "icon_background_color": "#4DB546", "icon_mask_base_uri": "https://maps.gstatic.com/mapfiles/place_api/icons/v2/tree_pinlet", "name": "Banco del Amor", "place_id": "ChIJufr8LgATQg0RXg_kVMFFn8I", "reference": "ChIJufr8LgATQg0RXg_kVMFFn8I", "scope": "GOOGLE", "types": ["park", "point_of_interest", "establishment"], "vicinity": "4HG5+PM, Chinchón"}, {"business_status": "OPERATIONAL", "geometry": {"location": {"lat": 40.0632417, "lng": -3.492140599999999}, "viewport": {"northeast": {"lat": 40.0645602802915, "lng": -3.490840169708498}, "southwest": {"lat": 40.0618623197085, "lng": -3.493538130291502}}}, "icon": "https://maps.gstatic.com/mapfiles/place_api/icons/v1/png_71/park-71.png", "icon_background_color": "#4DB546", "icon_mask_base_uri": "https://maps.gstatic.com/mapfiles/place_api/icons/v2/tree_pinlet", "name": "Finca Adara", "place_id": "ChIJ16gHOAANQg0RROvs9gpY5hY", "plus_code": {"compound_code": "3G75+74 Balcon del Tajo, Spain", "global_code": "8CGR3G75+74"}, "reference": "ChIJ16gHOAANQg0RROvs9gpY5hY", "scope": "GOOGLE", "types": ["park", "point_of_interest", "establishment"], "vicinity": "Vial Camino, 65, Balcón de Tajo-Urtajo"}, {"business_status": "OPERATIONAL", "geometry": {"location": {"lat": 40.14201699999999, "lng": -3.513344}, "viewport": {"northeast": {"lat": 40.14381638029149, "lng": -3.512322219708498}, "southwest": {"lat": 40.14111841970849, "lng": -3.515020180291502}}}, "icon": "https://maps.gstatic.com/mapfiles/place_api/icons/v1/png_71/park-71.png", "icon_background_color": "#4DB546", "icon_mask_base_uri": "https://maps.gstatic.com/mapfiles/place_api/icons/v2/tree_pinlet", "name": "Cueva de la Mora", "opening_hours": {"open_now": true}, "photos": [{"height": 1440, "html_attributions": ["<a href=\"https://maps.google.com/maps/contrib/101739337104928805354\">José Manuel Barrero</a>"], "photo_reference": "AWn5SU48cpk0EA78mo2UV4uoBDYmQ8nqiF0pVJHMjhWO2nJYJboJ2dB7mlpVjTy67C9PO5sQv_a_C3IsthrzDTolgO9PDYw-j9hfjFcwZBQ-WxmEPOhOXpoK0r2cE5dhULvyl7QD1HmALacIvUhI-ZDFPyd5_RPMBymbFuTaUWyHETwWU7twKJ-E7SMg-44Wr4rNoUDncg72_RId2R6WVNKCCGhZydwM-LtThivaTKKC-tyd-G51KJnnCifRoMaHtrwBK7pSS-4XdNAyU4FkiAlQOzH8jpuz2qlYo045UwJ8PHXGPa_h89BXlxkA1Rm-PZHat4MSNqOGzTMRu1Ej5VYLajrZpDiYkmRslhz-3gxzwHdiKtGZwNWuvaalPOL6VQLTCjbhKfVW00frdRs5aL-fA6Zofaqlq37cscevU7mmIyD73qLGr-IysMy-uLA8wxWJB4RGHPbw2JFdBQ3ZalX1geJoj-DKZg0i9RzfRMwSqHUEVsnh_WGjqICDnV-lG6KBCilIHhV3ntw9irBNT8BXoI2lQD_lUgkU-e9LAM6sIf2mnAYC63fzlff9tVCHaMveJ0KZMxZvXpS4Sxow8HjYAvsQAF2uRs-pCraXkFlQmMbjrTaFCZvKEbNF8rZwDkac", "width": 1920}], "place_id": "ChIJ6SNe-8MRQg0RLm_5tDbO4K4", "plus_code": {"compound_code": "4FRP+RM Chinchón, Spain", "global_code": "8CGR4FRP+RM"}, "rating": 3.8, "reference": "ChIJ6SNe-8MRQg0RLm_5tDbO4K4", "scope": "GOOGLE", "types": ["park", "point_of_interest", "establishment"], "user_ratings_total": 4, "vicinity": "Camino de la Casa de la Cubilla, Chinchón"}, {"business_status": "OPERATIONAL", "geometry": {"location": {"lat": 40.1475287, "lng": -3.4925835}, "viewport": {"northeast": {"lat": 40.14872993029149, "lng": -3.491870850000001}, "southwest": {"lat": 40.1460319697085, "lng": -3.494721449999999}}}, "icon": "https://maps.gstatic.com/mapfiles/place_api/icons/v1/png_71/park-71.png", "icon_background_color": "#4DB546", "icon_mask_base_uri": "https://maps.gstatic.com/mapfiles/place_api/icons/v2/tree_pinlet", "name": "Ruinas", "opening_hours": {"open_now": true}, "photos": [{"height": 3024, "html_attributions": ["<a href=\"https://maps.google.com/maps/contrib/102896170583879364033\">Jose Luis Serrano Rochell</a>"], "photo_reference": "AWn5SU6wCjQC_9D67eUts3lQZqRQu0V32sPX4-g2lN_ONUawFu6bhdh-mrNYyFdMIi3_KEAfrrG6cc_bMox80qx5pVaiaWR8Y4xRJ7SnPL4akrgJfUBJNDRnzcCFiQhpTczeCPIdcL-N6cTYp1r7XJexKjyRIA8zREpNqO5xkS1lp0UaxRRH2XokUlTaf8MdpX-3pxCdyEHda8l--5voIFCY6CvEdAfhOlmnATlYtYf4rFuwmVhZaknBQ37JYGJj4FRxXxjOrL8n9-igQGUQvcn5tj5GORc7jf241SBgGxlxm9cQNj4puCbmr6j8M0uTj6qm8BsL8C0PXjeNHUbmMPFNWeTYX3AwtNm3HptqzPrbwGlk2KnqS7oZHTrWRr7jOsCsWMJtAu0GIF1BwCJ6iyefGdwy5cMDVw44H0X25Hng_-dJu4WCFVN7w0N37VKtm5cslqu2UhtB7r2bni5aBWvmHITq_eXq8s_UBJ3KdgDbXq-I916wqGQ3Eiy6eW8ZkCh8TgY85aV1IvKtW_pEQ0xjOWkHm3zSIPCmUj0LFsf9sFSXDmlZHda-q2IJCMjhhvOTIiaevfNdtNJIj4YVbyvLDk89pCyomtUfSCo0ueKO4uOqJumNbfw-QYOLmqwkNSliQA34CBLj", "width": 4032}], "place_id": "ChIJF8Wcrc4TQg0RPRZqkNnzErs", "reference": "ChIJF8Wcrc4TQg0RPRZqkNnzErs", "scope": "GOOGLE", "types": ["park", "point_of_interest", "establishment"], "vicinity": "4GX4+2X, Villaconejos"}, {"business_status": "OPERATIONAL", "geometry": {"location": {"lat": 40.1418585, "lng": -3.5165197}, "viewport": {"northeast": {"lat": 40.1431263802915, "lng": -3.515124319708498}, "southwest": {"lat": 40.1404284197085, "lng": -3.517822280291502}}}, "icon": "https://maps.gstatic.com/mapfiles/place_api/icons/v1/png_71/park-71.png", "icon_background_color": "#4DB546", "icon_mask_base_uri": "https://maps.gstatic.com/mapfiles/place_api/icons/v2/tree_pinlet", "name": "Observatorio fauna laguna de San Juan", "opening_hours": {"open_now": true}, "photos": [{"height": 2790, "html_attributions": ["<a href=\"https://maps.google.com/maps/contrib/107852876069463376358\">Constan García</a>"], "photo_reference": "AWn5SU7wGduaunX1QxTu9FZCExC-aMDCKw0r1Kzvdrj-LkcpYWj111B8MCUa_rpyHunTYM3jH-H9xlTP3T0wpUQfjsfKGSiMd8VCPWIaRVULIgcvvpNaFaLVIL5ZVrsaJuR_hjr0QHgoKoRIZQWF_ec1yNQnt-rN3F4nxUfrpO6nnyn7-tyjAJ9iFUY0Ftdy3XTqWm4_6C7UFjgGwJmFQfPxskjOctLyQnDMp7OJtQpduK0Qa80BTYRa06JP3ieqEY67Uwhf1uw7AyukNo63COQ02cAKOMYOLnxI_hPrqhsRW7353eX_Az79h4NCUQVBtGav1W00Tb3UuhSwKrYQFQZMUH8WePDpliJTWsOs9XlR5jT-SfvY0juJNa_ctrJQ9BqffVIEqG5bgtt-S6hRudu9zE8mZa1_WMgt-KohZYD5WerneVIVePKM-7DugEpYBtbh9PdjWmmQ_kaRyjoNxqr3K_0aWwSJhmjxGAHOrEbrxG1yO2l0hQYoUzphdb7Amfw5p9voec9zyEEZHGdqvWJLfJntaKMRBhNCgvQUWZfUpXS7U8-m-cshvIOH7lu-ATbOSymngd0UxHJjCOktQRlbXPa7G4ofxWLHcxOTyRJ-eYzrNe74EIyHS0fEj6MsVnPfpivxqA", "width": 3720}], "place_id": "ChIJxeZiugIRQg0RAyoodCCUMYQ", "rating": 4.3, "reference": "ChIJxeZiugIRQg0RAyoodCCUMYQ", "scope": "GOOGLE", "types": ["park", "point_of_interest", "establishment"], "user_ratings_total": 6, "vicinity": "4FRM+P9, Titulcia"}, {"business_status": "OPERATIONAL", "geometry": {"location": {"lat": 40.1102281, "lng": -3.4266223}, "viewport": {"northeast": {"lat": 40.1116918802915, "lng": -3.425517619708498}, "southwest": {"lat": 40.1089939197085, "lng": -3.428215580291502}}}, "icon": "https://maps.gstatic.com/mapfiles/place_api/icons/v1/png_71/park-71.png", "icon_background_color": "#4DB546", "icon_mask_base_uri": "https://maps.gstatic.com/mapfiles/place_api/icons/v2/tree_pinlet", "name": "Fuente de Mingorrubio", "photos": [{"height": 1200, "html_attributions": ["<a href=\"https://maps.google.com/maps/contrib/100239501564496415540\">DaveKHull Grooby</a>"], "photo_reference": "AWn5SU4ajq54Gb6XgtUkGT-utbZccx_k6H5S_blBix0E_ePrySjEsV4G35vvdSfA2daPT0Ve-a8axWsYoVerVJqXWq_OpAlJ8rr6_Nyt0DODtw3Z1zhrSA5WJATF9NRzXPdhPetehiM-ySLxowS_FEIwpx_Z91adCdHSDF3F4V4PRxz8t2MlCkTquPo4o4nW2OyS9C9yUSv6DRXjv5YYZueIuYBcFpqt6t4B8zuFLrwISTqA7X4s5obinbvC3wJmlDZQTK_TZwXYYjVMkpWREr1XRhW199kUlnSKquruV1iNSrOpVA2C6sfkpqA7N9W7S1IDNB_8P6ohgZdkKrJHSPfB6OckeKV8Q-6nc-Mx0P3hzQVJVbtx8jqHQzjWS5kg3qLRfvUtg6u6T-BLTyWC6BixvbXbPBpz8hPJexizll02E1qwiUYMmBkYoicpidIi20bmtzTRyPmtaCshKXm_268ACWmVCPMh_d3WU6dMiGbiF2noN2iorYbhyiEcMrZjEeuy9vwXob-iCiAIaT-rOX6ANmbDTHrwAMtJftA03pvKldhwGe4rxNROtihmYPPdchWe5Eq1hE0U12IKEDC_MVj5oKf6jOtXNTodunDT18ICZaFC3Jb6iw2lpRzSypX-sJEQkU9EjWi-SI4rD_Zy7HAjyEDgsE0", "width": 1600}], "place_id": "ChIJYxK7HqMTQg0RF05WbcO59pA", "rating": 5, "reference": "ChIJYxK7HqMTQg0RF05WbcO59pA", "scope": "GOOGLE", "types": ["park", "point_of_interest", "establishment"], "user_ratings_total": 1, "vicinity": "4H6F+39, Colmenar de Oreja"}, {"business_status": "OPERATIONAL", "geometry": {"location": {"lat": 40.1376825, "lng": -3.5254875}, "viewport": {"northeast": {"lat": 40.1391312302915, "lng": -3.523986819708497}, "southwest": {"lat": 40.1364332697085, "lng": -3.526684780291501}}}, "icon": "https://maps.gstatic.com/mapfiles/place_api/icons/v1/png_71/park-71.png", "icon_background_color": "#4DB546", "icon_mask_base_uri": "https://maps.gstatic.com/mapfiles/place_api/icons/v2/tree_pinlet", "name": "Sima morros", "place_id": "ChIJ2z2mGgARQg0R02xGf_nnRqg", "plus_code": {"compound_code": "4FQF+3R Chinchón, Spain", "global_code": "8CGR4FQF+3R"}, "rating": 3, "reference": "ChIJ2z2mGgARQg0R02xGf_nnRqg", "scope": "GOOGLE", "types": ["park", "point_of_interest", "establishment"], "user_ratings_total": 2, "vicinity": "Chinchón"}, {"business_status": "OPERATIONAL", "geometry": {"location": {"lat": 40.139135, "lng": -3.5240622}, "viewport": {"northeast": {"lat": 40.1406915802915, "lng": -3.522801869708498}, "southwest": {"lat": 40.1379936197085, "lng": -3.525499830291502}}}, "icon": "https://maps.gstatic.com/mapfiles/place_api/icons/v1/png_71/park-71.png", "icon_background_color": "#4DB546", "icon_mask_base_uri": "https://maps.gstatic.com/mapfiles/place_api/icons/v2/tree_pinlet", "name": "Cerro de las lagunas de San juan", "opening_hours": {"open_now": true}, "photos": [{"height": 4000, "html_attributions": ["<a href=\"https://maps.google.com/maps/contrib/116648321876259908302\">Ivan Gonzalez Lopez</a>"], "photo_reference": "AWn5SU7Com9S2o0R1uiO2ufr4cKZXwnyydCvdnxYtXYwWDPCIdAJfi1_ZgsEdZyukg0U2t9IlBiuQwcotvxcWLUqQmLJYvOM7z05pLuxM65QIkMGCC3iyC6GWmzKwwE6XMcOEcapSm1lb3MFbjJGRMgig9u--9yM-5ZatqEb9xgiopQnkaBwfVSBS6dREa5GurnfKU_UbVI8HCeVaZvYAglNOwofSRUfa0NMkykDY5Yie4PYc9_p1TjTJaqhzn34X6o1IjnobF-58Z7X_mgEVReMoqNuTXqGIWWj5vy_BSXT1z3Fd5TTmUqzLGxin6v3KAEiqXt-WYCetMdN5fhNQX1ISk_u_Dpx-p4PWnh9giRjfV9MLt_rmNCBiJLp9fE8h-5fayrQSabiQQpphXeucLRG-ssRP5dBfNyOIrMULdIQNJ-MCrVYgoi19pvW3AqXd0X7X91pRyNCojaFoHcKl4uHMlv8NIhFG9KKNWAw0NeJpNXuOiAqnlM4EWEMf1svzpUyBQNIE-B5_v3jAgWXOrkpjmpsABpwh4R9MrC30H2eNdVmD6ZAjfO0v8FGtyp3k_qC-6yYzahmbEysbkzM_chwLPh4sVnc7UXvcM_BsP3W1JqFtBD6gqBZvMa4eOtk1Jt6Dm4ufA", "width": 1868}], "place_id": "ChIJHSeDCWMRQg0R-L7dylmqlgo", "plus_code": {"compound_code": "4FQG+M9 Titulcia, Spain", "global_code": "8CGR4FQG+M9"}, "rating": 5, "reference": "ChIJHSeDCWMRQg0R-L7dylmqlgo", "scope": "GOOGLE", "types": ["park", "point_of_interest", "establishment"], "user_ratings_total": 2, "vicinity": "Lagunas de, San Juan"}, {"business_status": "OPERATIONAL", "geometry": {"location": {"lat": 40.139684, "lng": -3.5235669}, "viewport": {"northeast": {"lat": 40.14097698029149, "lng": -3.522248869708498}, "southwest": {"lat": 40.1382790197085, "lng": -3.524946830291502}}}, "icon": "https://maps.gstatic.com/mapfiles/place_api/icons/v1/png_71/park-71.png", "icon_background_color": "#4DB546", "icon_mask_base_uri": "https://maps.gstatic.com/mapfiles/place_api/icons/v2/tree_pinlet", "name": "Lagunas de San Juan", "opening_hours": {"open_now": true}, "photos": [{"height": 3456, "html_attributions": ["<a href=\"https://maps.google.com/maps/contrib/111949341109722019765\">Uge Regal</a>"], "photo_reference": "AWn5SU4WfzvxpKnV-oZd-dDKo9kDDKmXT52S1jMC2pTESGD2JdOfewHBTz9p3yAYhvdInx70Z3RYl8QKInpRCoVJ89IT9heoJpnSka0FealMEObQZzn2bU8H_1Oew849YtgyFhgiIJDR5QzeZ7RuTLGzO6YLeycJOOWCnPFjMOmA0mVYjVdP6kGq9L18QuJNRNmOsUNnse0fuyKRZYatC1vB3H3ZTulxH14Ptj_Rot7u4KTwz9WYG5HEDjlZ7BeIgf7AInHBV6XpAwpYDuYMtqrYh71gFTE50512m1ssmJfJ5IfRjFG0uT4ZACs2m1x9RN3uD1iQDPk5R80_Hki_-8CyMQH8O5J4bHoRdo9PLqQ75lcapkj0oavXNganoSQxWsVwrRNfGX8kUicmz-sXBVUuVURfKk5JIUFat2yoIYmipvQ4mlVs2AQndFE9t5Kiq6wnhKTtWqBghbuNn_9I410tFD8unMw-a_yKU6KUfSP6bmn9ccdoECjH8eF-Le6YWsMsPhSJAH7IqjiUHw6SWqPLWHV6Lc2R_errQjsgICG5iUUwNk-2aCIVOfua8yuAHTDbUPfVN2mAPDPa6yW5zxkLYU2dPgYUfeuwNApAk9a47XvGXfJULkAnWorLcnLj-UNV83b-7A", "width": 4608}], "place_id": "ChIJTTDawqQRQg0RTMsNqMtM4Tc", "plus_code": {"compound_code": "4FQG+VH Titulcia, Spain", "global_code": "8CGR4FQG+VH"}, "rating": 3.9, "reference": "ChIJTTDawqQRQg0RTMsNqMtM4Tc", "scope": "GOOGLE", "types": ["park", "point_of_interest", "establishment"], "user_ratings_total": 222, "vicinity": "Calle de Palacio Silvela"}]