[{"business_status": "OPERATIONAL", "geometry": {"location": {"lat": 40.7382852, "lng": -4.058195799999999}, "viewport": {"northeast": {"lat": 40.7395896802915, "lng": -4.056987269708498}, "southwest": {"lat": 40.7368917197085, "lng": -4.059685230291502}}}, "icon": "https://maps.gstatic.com/mapfiles/place_api/icons/v1/png_71/school-71.png", "icon_background_color": "#7B9EB0", "icon_mask_base_uri": "https://maps.gstatic.com/mapfiles/place_api/icons/v2/school_pinlet", "international_phone_number": "+34 918 52 03 13", "name": "Madres Escolapias", "place_id": "ChIJKXX4vUVtQQ0RBeywYjhVTGI", "plus_code": {"compound_code": "PWQR+8P Cercedilla, Spain", "global_code": "8CGQPWQR+8P"}, "reference": "ChIJKXX4vUVtQQ0RBeywYjhVTGI", "scope": "GOOGLE", "types": ["school", "point_of_interest", "establishment"], "vicinity": "Calle de San Andrés, 9, Cercedilla"}, {"business_status": "OPERATIONAL", "geometry": {"location": {"lat": 40.714114, "lng": -4.0806396}, "viewport": {"northeast": {"lat": 40.71542418029149, "lng": -4.079336769708497}, "southwest": {"lat": 40.71272621970849, "lng": -4.082034730291502}}}, "icon": "https://maps.gstatic.com/mapfiles/place_api/icons/v1/png_71/school-71.png", "icon_background_color": "#7B9EB0", "icon_mask_base_uri": "https://maps.gstatic.com/mapfiles/place_api/icons/v2/school_pinlet", "international_phone_number": "+34 918 55 35 75", "name": "CEIP Divino Maestro", "opening_hours": {"open_now": true}, "photos": [{"height": 704, "html_attributions": ["<a href=\"https://maps.google.com/maps/contrib/104010585182128529811\">CEIP Divino Maestro</a>"], "photo_reference": "AWn5SU6_qkshGdjlc0Ogbj88msZwohsHCn1Gm4hJyUNXW5_jkOdoTQ1_aC236W6MlRJ5m5tx2cjH0LmLBzJlcn_TvYqWHBqcyvGSIHtCWyESuXoeSEM4UkWH_ED5fuitpo4nzV_JZnjsBWAO7zFWcsDfDUcUnmVjC8P_IL_H2Gj0qqtCMNjCANDknrjr8fFGFX5W9gZ_2glfyRWJJw37DX-FLSZKA6khCje2sfFFd6Yl8rAP_OfqS-LeJRiH6yveXxb3UmUIZzzD0qYvpAaGghnQj9r3YCUkqayotlZU418DeFSl6S08HxfaGXL2Q2DqeBp3HgUB0nniKb0", "width": 704}], "place_id": "ChIJOcsuRkUNQQ0RVfm0t-QtgdU", "plus_code": {"compound_code": "PW79+JP Los Molinos, Spain", "global_code": "8CGQPW79+JP"}, "reference": "ChIJOcsuRkUNQQ0RVfm0t-QtgdU", "scope": "GOOGLE", "types": ["primary_school", "school", "point_of_interest", "establishment"], "vicinity": "Calle Calvario, 20, Los Molinos"}, {"business_status": "OPERATIONAL", "geometry": {"location": {"lat": 40.7410678, "lng": -4.057636899999999}, "viewport": {"northeast": {"lat": 40.7424212802915, "lng": -4.056283269708497}, "southwest": {"lat": 40.7397233197085, "lng": -4.058981230291502}}}, "icon": "https://maps.gstatic.com/mapfiles/place_api/icons/v1/png_71/generic_business-71.png", "icon_background_color": "#7B9EB0", "icon_mask_base_uri": "https://maps.gstatic.com/mapfiles/place_api/icons/v2/generic_pinlet", "name": "Sin actividad", "opening_hours": {"open_now": false}, "photos": [{"height": 600, "html_attributions": ["<a href=\"https://maps.google.com/maps/contrib/105611972413831975609\">La Titiriteka</a>"], "photo_reference": "AWn5SU7F5iDv51cblWRiR09wRe2BQm03nwnp3QGRFOBHwS1ZGLYhLcu7tyl5bKsdb7bTRJsrjsKEzyUCKyktayuuHUeDWxWi_K8m5DDWqRV1py7CiXmq83ZU6sX47ovdwiSbkaYJ0DTEcos86NMfOfMP5wOPzFuyhy6WQ55C5uZi8Wx96SNls-DpVyX9inqjYzJI-bnnQBZaliYo4i3By-dk4Z1H6rpTVz_MZUh4vpFLvSvYNyzzan4x86IeFs-csL76f9queEUuF-kvygCzyY6xkfibPgSBEbFPwgZ8uMjk7RLWowjANnqtI78tto2CZ-Y5E-Ht7YM8tnY", "width": 900}], "place_id": "ChIJW2NddkZtQQ0RLpDNrVR9i0g", "plus_code": {"compound_code": "PWRR+CW Cercedilla, Spain", "global_code": "8CGQPWRR+CW"}, "reference": "ChIJW2NddkZtQQ0RLpDNrVR9i0g", "scope": "GOOGLE", "types": ["park", "school", "point_of_interest", "establishment"], "vicinity": "Calle de los Registros, 29, Cercedilla"}, {"business_status": "OPERATIONAL", "geometry": {"location": {"lat": 40.69443450000001, "lng": -4.0316028}, "viewport": {"northeast": {"lat": 40.6954362802915, "lng": -4.030124969708498}, "southwest": {"lat": 40.6927383197085, "lng": -4.032822930291503}}}, "icon": "https://maps.gstatic.com/mapfiles/place_api/icons/v1/png_71/school-71.png", "icon_background_color": "#7B9EB0", "icon_mask_base_uri": "https://maps.gstatic.com/mapfiles/place_api/icons/v2/school_pinlet", "international_phone_number": "+34 918 55 70 07", "name": "Colegio Publico Virgen de la Paz", "opening_hours": {"open_now": false}, "place_id": "ChIJc69dUfhyQQ0R1uoXEBWGtEY", "plus_code": {"compound_code": "MXV9+Q9 Collado Mediano, Spain", "global_code": "8CGQMXV9+Q9"}, "reference": "ChIJc69dUfhyQQ0R1uoXEBWGtEY", "scope": "GOOGLE", "types": ["primary_school", "school", "point_of_interest", "establishment"], "vicinity": "Calle de Goya, 5, Collado Mediano"}, {"business_status": "OPERATIONAL", "geometry": {"location": {"lat": 40.738276, "lng": -4.058199600000001}, "viewport": {"northeast": {"lat": 40.7395850802915, "lng": -4.056989169708499}, "southwest": {"lat": 40.7368871197085, "lng": -4.059687130291503}}}, "icon": "https://maps.gstatic.com/mapfiles/place_api/icons/v1/png_71/school-71.png", "icon_background_color": "#7B9EB0", "icon_mask_base_uri": "https://maps.gstatic.com/mapfiles/place_api/icons/v2/school_pinlet", "international_phone_number": "+34 918 52 03 13", "name": "F.E.M Colegio Regina Assumpta", "opening_hours": {"open_now": false}, "photos": [{"height": 3673, "html_attributions": ["<a href=\"https://maps.google.com/maps/contrib/114677786778305114433\">F.E.M Colegio Regina Assumpta</a>"], "photo_reference": "AWn5SU6FdBMcMclGl0q7ZhduILuvFv16_0M2LG7jXbmfUzQV0weUeKi1jrXHzbcT-Gfg__WtfBT_MsGP8sgR3TbicmhjE8AVHImoSQJSttG4JB2BykMGW64GxwRi3fClzuG2Z5k10B9kB6Lu94aclxwlG6zFGWyLROITJcoCnPMqJ3YRShfLTrUcnNK6I3bIpiIdvK90hgkrBYxLfQwzGqVXMfkKdFoOOCYH87ZyGGRICzw5-PyhEqaNP2lKQ92ZQRQMo6o29prSyOx6Z3uTzckAkdo4IlZ1HVPh3Iw8Za7k3vcvYlSfZUBrdVvDyZSUMVPHraa71KdQ2O8", "width": 5509}], "place_id": "ChIJt7Z8dkVtQQ0RaXV0O1CB1W8", "plus_code": {"compound_code": "PWQR+8P Cercedilla, Spain", "global_code": "8CGQPWQR+8P"}, "reference": "ChIJt7Z8dkVtQQ0RaXV0O1CB1W8", "scope": "GOOGLE", "types": ["school", "point_of_interest", "establishment"], "vicinity": "Calle de San Andrés, 9, Cercedilla"}, {"business_status": "OPERATIONAL", "geometry": {"location": {"lat": 40.6902158, "lng": -4.041484000000001}, "viewport": {"northeast": {"lat": 40.6914966802915, "lng": -4.040172619708498}, "southwest": {"lat": 40.6887987197085, "lng": -4.042870580291503}}}, "icon": "https://maps.gstatic.com/mapfiles/place_api/icons/v1/png_71/school-71.png", "icon_background_color": "#7B9EB0", "icon_mask_base_uri": "https://maps.gstatic.com/mapfiles/place_api/icons/v2/school_pinlet", "international_phone_number": "+34 918 55 79 65", "name": "IES Gonzalo Anes", "opening_hours": {"open_now": false}, "photos": [{"height": 1365, "html_attributions": ["<a href=\"https://maps.google.com/maps/contrib/104311060273023209863\">IES Gonzalo Anes</a>"], "photo_reference": "AWn5SU6mFoFHuFYkD-WK2g5kHMYTeiQ21oCLarGzXMmQvOXM1HvLeZVcsc9gu0Xodw1TF0Mq0WoiRlIsdBcKwbSJ5yTVHSUhk3hxz7LOi_AhaXqC1wRMOz7Nmey-e55eUiGlE6mx-HK3QWjsTk4WvekKD5V4zhsKrmJkCAa7c7okhMtQmrdyOnVVzMo_a8mxNGpBCFPrdEHtqWBlmXpant6ZpGp8mwBd_xIjOYKHBch-Nb4GSFNVwaMRgqX90tMKxEKwZdhFLwDgeWfOtiVZRepjOi4JXo2Bs4Mz-pyfaf7DNOOzs5uazGKCfQeS-addjs3JQ7662c3sjwk", "width": 2048}], "place_id": "ChIJe_5szvxyQQ0RZAuYyBpxjtE", "plus_code": {"compound_code": "MXR5+3C Collado Mediano, Spain", "global_code": "8CGQMXR5+3C"}, "reference": "ChIJe_5szvxyQQ0RZAuYyBpxjtE", "scope": "GOOGLE", "types": ["secondary_school", "school", "point_of_interest", "establishment"], "vicinity": "Calle de la Dehesa, s/n, Collado Mediano"}, {"business_status": "OPERATIONAL", "geometry": {"location": {"lat": 40.7416824, "lng": -4.049634}, "viewport": {"northeast": {"lat": 40.7430249302915, "lng": -4.048243519708498}, "southwest": {"lat": 40.74032696970851, "lng": -4.050941480291502}}}, "icon": "https://maps.gstatic.com/mapfiles/place_api/icons/v1/png_71/school-71.png", "icon_background_color": "#7B9EB0", "icon_mask_base_uri": "https://maps.gstatic.com/mapfiles/place_api/icons/v2/school_pinlet", "international_phone_number": "+34 608 07 02 83", "name": "Crecemos Juntos, psicopedagogía", "opening_hours": {"open_now": false}, "photos": [{"height": 2160, "html_attributions": ["<a href=\"https://maps.google.com/maps/contrib/109138462018047978174\">Crecemos Juntos, psicopedagogía</a>"], "photo_reference": "AWn5SU4JOVvPFSUk6gYnZS7VBihItbFgl7lrSwLhkkBNl1Mp1EOtoJ61cNyefnx9sZrVfrSIfY8bp6oYmL4TvyrC5a1rHXRqEVG_31w_5b8a4iX6Qw7wffBRi7vMy8MXyGDQU0k9hGRq_50EvY-9Ad-M8yMZm-20m7RxI22n7W3ck0w1bvUxK4wdIo6IIOaiXUrNrJCpnhxXRdb8JExMCBcSK-OjQOrt2RaSSt9tvtkAcJXllrKfVAdsHeUeDeii3rw1DOD8SDKDgfjtT5n7qMamjIiqrzX1zudYG0nLSjlJgCEqfY6A7tgf6MlQ2ihcgRMayfSjL_QEB2Q", "width": 3840}], "place_id": "ChIJ-cCtT9sTQQ0Rq33SB0XOjzs", "plus_code": {"compound_code": "PXR2+M4 Cercedilla, Spain", "global_code": "8CGQPXR2+M4"}, "reference": "ChIJ-cCtT9sTQQ0Rq33SB0XOjzs", "scope": "GOOGLE", "types": ["school", "point_of_interest", "establishment"], "vicinity": "Calle Almacenes entre, N°1 y 3, Cercedilla"}, {"business_status": "OPERATIONAL", "geometry": {"location": {"lat": 40.7407749, "lng": -4.0487036}, "viewport": {"northeast": {"lat": 40.7421184802915, "lng": -4.047457669708497}, "southwest": {"lat": 40.7394205197085, "lng": -4.050155630291502}}}, "icon": "https://maps.gstatic.com/mapfiles/place_api/icons/v1/png_71/school-71.png", "icon_background_color": "#7B9EB0", "icon_mask_base_uri": "https://maps.gstatic.com/mapfiles/place_api/icons/v2/school_pinlet", "international_phone_number": "+34 918 52 05 75", "name": "Roman Road Primary School", "photos": [{"height": 3024, "html_attributions": ["<a href=\"https://maps.google.com/maps/contrib/116088700405022731446\">María Ángeles Navarro Girón</a>"], "photo_reference": "AWn5SU50597f8I5tle-b-yd9rA66YqNAdiYnGFPOurHiC9i3NPBJ-if_YLWqgNwwA3tDiDHVTHD37CR9MgG1Gzn4oXmojhJ_LI11-Rhd67_ejFcad0B9PT7mkiWYZznGGpYp0_-P68IAx0STAQLvZImVgbAh-I0t2fJItuAPQcS8BjlyU_amDLscmJA7XUalljCBfFB0IYINRMG_ACtVqEbyZ-o0uZXdQfeSFPvz61h8P5g-NU7CtB-Yrz20cQYEehpxBAjK78fh36zkyHC7CNeTjHa1A_Rr9S82cP7UfXkYjm0mlRHRg2yeUCzmwHL09q91a8237CIdSPmofcXOo2x-z1ny1KPm-e6A2JPBpHdigda5IUKnAum2UT3UnnjTOXvTWzlprWf7JnUMH1h-qOiBOpURrsmXprw8EEsZe72ZBECar2-wGq-at7J-yl2uy1zh54SvBAuEvU65-uBeh21-wya85LE1qv8Ed_y6pYPCjAu_eBA5hF8HgLS0GdGHqAZdPmMZVHBMWVq1qLbkfzy0l3c9poTHlh8qYuLEwb1uvJfYlC958GqLyXFlE4uuktvUVvsOZv0wu8Z0vgZVMzZfYB2kpymWkUWLrtBh4g5jV5PBe4SB1KZwukV_fA1W1NBGIr2t8w", "width": 4032}], "place_id": "ChIJS5fA_GltQQ0RznVH7EpJSKs", "plus_code": {"compound_code": "PXR2+8G Cercedilla, Spain", "global_code": "8CGQPXR2+8G"}, "reference": "ChIJS5fA_GltQQ0RznVH7EpJSKs", "scope": "GOOGLE", "types": ["school", "point_of_interest", "establishment"], "vicinity": "Avenida de Blanca Fernández Ochoa, 5, Cercedilla"}, {"business_status": "OPERATIONAL", "geometry": {"location": {"lat": 40.73635029999999, "lng": -4.065402599999999}, "viewport": {"northeast": {"lat": 40.7376724302915, "lng": -4.064088969708497}, "southwest": {"lat": 40.7349744697085, "lng": -4.066786930291501}}}, "icon": "https://maps.gstatic.com/mapfiles/place_api/icons/v1/png_71/school-71.png", "icon_background_color": "#7B9EB0", "icon_mask_base_uri": "https://maps.gstatic.com/mapfiles/place_api/icons/v2/school_pinlet", "international_phone_number": "+49 6503 34554", "name": "Puntadas Nómadas", "place_id": "ChIJ1VTg7U1tQQ0RYgz27MpqqkY", "plus_code": {"compound_code": "PWPM+GR Cercedilla, Spain", "global_code": "8CGQPWPM+GR"}, "reference": "ChIJ1VTg7U1tQQ0RYgz27MpqqkY", "scope": "GOOGLE", "types": ["school", "point_of_interest", "establishment"], "vicinity": "Calle Auroriña, 48, Cercedilla"}, {"business_status": "OPERATIONAL", "geometry": {"location": {"lat": 40.73485900000001, "lng": -4.065826599999999}, "viewport": {"northeast": {"lat": 40.7362451802915, "lng": -4.064594819708497}, "southwest": {"lat": 40.73354721970851, "lng": -4.067292780291501}}}, "icon": "https://maps.gstatic.com/mapfiles/place_api/icons/v1/png_71/school-71.png", "icon_background_color": "#7B9EB0", "icon_mask_base_uri": "https://maps.gstatic.com/mapfiles/place_api/icons/v2/school_pinlet", "international_phone_number": "+34 918 52 39 40", "name": "Escuela Infantil - Casa de Niños Rincón Florido Centro Educativo Público", "opening_hours": {"open_now": false}, "photos": [{"height": 412, "html_attributions": ["<a href=\"https://maps.google.com/maps/contrib/117986500455572407770\">Escuela Infantil - Casa de Niños Rincón Florido Centro Educativo Público</a>"], "photo_reference": "AWn5SU5onG546-m9Uar6DA5DTw4WqIHUIU_EvrIX4_G3fDVD_Msi8hu6cJHfbAxQpcZxw-DGjjLRMZnf3vp5-x2D0pfi-0wlfvv0zMYpzHeNaFreDu21k5e_FhWon4oG_dvEhaveH9tyTMXhZRUxFmrqhNPlcGxyb1bgzTzXdyzqX9plmdydOXXH9Rzn0DrfmsAwJaQGAGEIH_yYaABNHQDLp3siKaci23XkGVI-Y_HbSqXpxOlzcFKkOBXyXMUk4MzeuJjbcriHynZpOPbhO1zgOOdRlbNV4nbXWA7RNlRfQ42-5uKz5ZShyflEsVjQi4nam1-UZzhV4WM", "width": 550}], "place_id": "ChIJjdYR4kxtQQ0RhGH3N6WWYYk", "plus_code": {"compound_code": "PWMM+WM Cercedilla, Spain", "global_code": "8CGQPWMM+WM"}, "rating": 4.2, "reference": "ChIJjdYR4kxtQQ0RhGH3N6WWYYk", "scope": "GOOGLE", "types": ["school", "point_of_interest", "establishment"], "user_ratings_total": 10, "vicinity": "Calle Carretera de los Molinos, 5, Cercedilla"}, {"business_status": "OPERATIONAL", "geometry": {"location": {"lat": 40.73357129999999, "lng": -4.0435431}, "viewport": {"northeast": {"lat": 40.7351402302915, "lng": -4.042572569708498}, "southwest": {"lat": 40.7324422697085, "lng": -4.045270530291503}}}, "icon": "https://maps.gstatic.com/mapfiles/place_api/icons/v1/png_71/school-71.png", "icon_background_color": "#7B9EB0", "icon_mask_base_uri": "https://maps.gstatic.com/mapfiles/place_api/icons/v2/school_pinlet", "international_phone_number": "+34 918 52 17 63", "name": "INSTITUTO La Dehesilla.", "place_id": "ChIJ86Z5NO1tQQ0RQAOkdLdZ97k", "plus_code": {"compound_code": "PXM4+CH Cercedilla, Spain", "global_code": "8CGQPXM4+CH"}, "reference": "ChIJ86Z5NO1tQQ0RQAOkdLdZ97k", "scope": "GOOGLE", "types": ["secondary_school", "school", "point_of_interest", "establishment"], "vicinity": "Camino Dehesilla y Rodeo, s/n, Cercedilla"}, {"business_status": "OPERATIONAL", "geometry": {"location": {"lat": 40.7278508, "lng": -4.054713}, "viewport": {"northeast": {"lat": 40.72910578029149, "lng": -4.053299169708497}, "southwest": {"lat": 40.7264078197085, "lng": -4.055997130291502}}}, "icon": "https://maps.gstatic.com/mapfiles/place_api/icons/v1/png_71/school-71.png", "icon_background_color": "#7B9EB0", "icon_mask_base_uri": "https://maps.gstatic.com/mapfiles/place_api/icons/v2/school_pinlet", "name": "Formación Gestión Y Proyectos", "place_id": "ChIJqVuoLV9tQQ0RO1P1n_87MRg", "plus_code": {"compound_code": "PWHW+44 Cercedilla, Spain", "global_code": "8CGQPWHW+44"}, "reference": "ChIJqVuoLV9tQQ0RO1P1n_87MRg", "scope": "GOOGLE", "types": ["school", "point_of_interest", "establishment"], "vicinity": "Calle de la Alondra, 24, Cercedilla"}, {"business_status": "OPERATIONAL", "geometry": {"location": {"lat": 40.75590259999999, "lng": -4.071043}, "viewport": {"northeast": {"lat": 40.7572988302915, "lng": -4.069697069708496}, "southwest": {"lat": 40.7546008697085, "lng": -4.072395030291501}}}, "icon": "https://maps.gstatic.com/mapfiles/place_api/icons/v1/png_71/school-71.png", "icon_background_color": "#7B9EB0", "icon_mask_base_uri": "https://maps.gstatic.com/mapfiles/place_api/icons/v2/school_pinlet", "international_phone_number": "+34 629 45 07 58", "name": "Granja escuela Arroyo Piñuela", "photos": [{"height": 1080, "html_attributions": ["<a href=\"https://maps.google.com/maps/contrib/101763097864912318807\">Manu Manu Climent</a>"], "photo_reference": "AWn5SU4ZI8E45rom7yH5pnZFAWJzfRvIiZbmdpiZuFZG8O_nFLM7kZ8I6l7EVeNp0qT_f3jPNb3B2gv-1qiqNv-Wl-S2QflydSh_WMAtz2kKU7KBOSaD-qbMEZApCrPO5MhFFM6IYPFPUbyzHj4WRMZRdo9z_PudRHctqAPUek52mv7H-5Vr_rIKCHYBih38s8NSXyEJ97Yndp8nj-GV2wT1fMuPgRmsIlEQFCXxhxj313TMlKfGeGCCqYg52hRuveb9uswZsR-W0emKykU0CqmDAOs51G7dIoEb99fqL4CAT4QTsk5LEo_jAXOHdDP8SATkVK8B66arIQeuG5PVUzJoogAicT7gjDf05n5dEaPHuCrQsYTQ0TaaM4ZX8WfnXtV5yAYNC45gs2Jcx2JGyB73GcEjEKAV7zBJ_ag6H8pMzEnGyNQrq79Mb0uP2_F9B4LUuMY9avJ_L0HmJvqMBPM8KNmUvV93KzOzA4LRNteHlkGLZsz4kf6pX5go1GHinr1R8Sc2fGp7VShs3EDm4Qsoy0lSGgMOm3fuh2cgfpaec1uyQq1L1QtV5d6Nr5oU_ulbRy-z8d6yyM-trtrd57OaKYsjcsSUaMCS9NFDp1iGUSjeRwjcB__yOF8jKrjjWbKA", "width": 1920}], "place_id": "ChIJ4aXIntISQQ0RVVHDUElaq0w", "plus_code": {"compound_code": "QW4H+9H Cercedilla, Spain", "global_code": "8CGQQW4H+9H"}, "rating": 4.8, "reference": "ChIJ4aXIntISQQ0RVVHDUElaq0w", "scope": "GOOGLE", "types": ["school", "point_of_interest", "establishment"], "user_ratings_total": 5, "vicinity": "Calle de la Peña del Águila, 1, Cercedilla"}, {"business_status": "OPERATIONAL", "geometry": {"location": {"lat": 40.7135721, "lng": -4.0753308}, "viewport": {"northeast": {"lat": 40.7148957302915, "lng": -4.073934069708498}, "southwest": {"lat": 40.7121977697085, "lng": -4.076632030291503}}}, "icon": "https://maps.gstatic.com/mapfiles/place_api/icons/v1/png_71/school-71.png", "icon_background_color": "#7B9EB0", "icon_mask_base_uri": "https://maps.gstatic.com/mapfiles/place_api/icons/v2/school_pinlet", "international_phone_number": "+34 918 98 21 28", "name": "Escuela Infantil Valle de Luz", "opening_hours": {"open_now": false}, "photos": [{"height": 540, "html_attributions": ["<a href=\"https://maps.google.com/maps/contrib/105158513966711133696\">Diana Lopez (Didy Low)</a>"], "photo_reference": "AWn5SU4tIOCM9nDhJDefUIjGKOXpkw8jOZ0rcu2IHoNgQiSU0gUBhvMoN7fUIrh04KWhQFwr3uvusd-fB3L74WajPqnJHoUhYtcIR_N8nEpND-cVvSAeXHCfcd83y9LACp2gqkYH2Vynr-OhexHyAcZUyPL3V1QW4XFmh9Rc7xbVdNhkFRS1H_KJ9nfSiUhWGIEJItW2mYKqaBN-IWRCgY5YlL5tpTf2uLbOfZ4e6uFpXMbabIsR8YkFXSbyfUHqcy7es-Aik7nusr2E-yVIuufLgQcACoEkNFrPagn_pT6tLO8XI4GN1yN2bpLSS3K5WnEDhmvUP0PXJ2kCFtrDkaykMgb-A9t2JcAwfcG2l993-PDel01c27dDRrg4SdZBBEcJ5Qis1kk2LBWfb9F86Vo0Jz_vrrHeuwX9cZa4B3zp2AthUnlzKxFILa0Vgaue8FLTzEntieCUfp6Hqr5mYffmDQiJbKDilK9oAc8lIqMLgBHkTGvmom8YmD-SyhtfdTVUGSaajVCPAnwhxXk3Q-yUvCqKHReQpywd5B7hYReAQ9pC1BitXP6fD5q06jHObxHcelbDPy4bNXWAwA_I-OQrieqv4m_hjoSIiLj7uSuI6N_2bp3qcbSoXcTsjtpL5wse", "width": 720}], "place_id": "ChIJ8zlI904NQQ0RbX1mW2oIDyw", "plus_code": {"compound_code": "PW7F+CV Los Molinos, Spain", "global_code": "8CGQPW7F+CV"}, "rating": 5, "reference": "ChIJ8zlI904NQQ0RbX1mW2oIDyw", "scope": "GOOGLE", "types": ["school", "point_of_interest", "establishment"], "user_ratings_total": 9, "vicinity": "Calle las Dalias, 3, Los Molinos"}, {"business_status": "OPERATIONAL", "geometry": {"location": {"lat": 40.7232613, "lng": -4.0198324}, "viewport": {"northeast": {"lat": 40.72464763029149, "lng": -4.018393369708498}, "southwest": {"lat": 40.72194966970849, "lng": -4.021091330291502}}}, "icon": "https://maps.gstatic.com/mapfiles/place_api/icons/v1/png_71/school-71.png", "icon_background_color": "#7B9EB0", "icon_mask_base_uri": "https://maps.gstatic.com/mapfiles/place_api/icons/v2/school_pinlet", "international_phone_number": "+34 918 53 51 29", "name": "Centro de Educacion Infantil y Primaria Principe de Asturias", "opening_hours": {"open_now": false}, "photos": [{"height": 3024, "html_attributions": ["<a href=\"https://maps.google.com/maps/contrib/104624358394364211038\">Laura Hale</a>"], "photo_reference": "AWn5SU5M4unVBTIkV8bCvxJ0mz_IDQoa3iQAcnyA4KAR0yW0mGbzZoR5S5X939cDCntjFBqsj72SRMIH_tTXBdezXRcxsKHNikGx4JIA7nOl09It6D_XJCp31VnS7l3pzSWfVT21jor1oAQPQwteCcz2AlzQi8UD6Bp8qcyqSfYXiS7UTibq_P0kYhhDro2OT-C24UtCyCrj_l6ALMvfTYtjQK_wKLI9xFlc1QONgNF48Lq5LGfZPv-RPkJQr3gGoEQZg9U3z1yKDJ-hLK5ZySWBu8er_s6t7iqw15F74H-VA4aOlOY5x50l7qKu227oWTacW4VjxXt8f2J-P8AD1_DJ4CH3wpyOvRRD6J838yPJz4397J1xp3LZjW6sHMm2BKBYk9VDtOXAw0bDJrjdfyJq3aDDJTmOHhXUzy_7kapBu0DFFLLfbn89LHlL9NeGqOdgPGgpS23CeugU7vhXuiMPt_XI-BaofowEQSbqlt2p4iqB3lDiP2jxaMDvCXyhV-cCnipjYrSE3PouE_E7RTR2SIjJ7U03zgoURb6fG3A00gDNoKuBTDQBJe1Zndcz2msmt0op8y2ZQ6lkt-BIpX5Q7msu8-P580uxeiOXVrZEYcAAhQOKpFH5DM50rXEzgH1JiKzX6w", "width": 4032}], "place_id": "ChIJcfbOFYltQQ0RSHyBXZn_gRg", "plus_code": {"compound_code": "PXFJ+83 Navacerrada, Spain", "global_code": "8CGQPXFJ+83"}, "reference": "ChIJcfbOFYltQQ0RSHyBXZn_gRg", "scope": "GOOGLE", "types": ["school", "point_of_interest", "establishment"], "vicinity": "Avenida del Rosal, 2, Navacerrada"}, {"business_status": "OPERATIONAL", "geometry": {"location": {"lat": 40.7302, "lng": -4.0148075}, "viewport": {"northeast": {"lat": 40.7315337302915, "lng": -4.013550319708497}, "southwest": {"lat": 40.7288357697085, "lng": -4.016248280291502}}}, "icon": "https://maps.gstatic.com/mapfiles/place_api/icons/v1/png_71/school-71.png", "icon_background_color": "#7B9EB0", "icon_mask_base_uri": "https://maps.gstatic.com/mapfiles/place_api/icons/v2/school_pinlet", "name": "Hogar Parroquial Natividad de Nuestra Señora", "place_id": "ChIJT3KheABtQQ0R8V2Vb8V3t1Y", "plus_code": {"compound_code": "PXJP+33 Navacerrada, Spain", "global_code": "8CGQPXJP+33"}, "reference": "ChIJT3KheABtQQ0R8V2Vb8V3t1Y", "scope": "GOOGLE", "types": ["school", "point_of_interest", "establishment"], "vicinity": "Calle de Abel, 2, Navacerrada"}, {"business_status": "OPERATIONAL", "geometry": {"location": {"lat": 40.7229267, "lng": -4.0197862}, "viewport": {"northeast": {"lat": 40.7241641302915, "lng": -4.018384919708498}, "southwest": {"lat": 40.7214661697085, "lng": -4.021082880291503}}}, "icon": "https://maps.gstatic.com/mapfiles/place_api/icons/v1/png_71/school-71.png", "icon_background_color": "#7B9EB0", "icon_mask_base_uri": "https://maps.gstatic.com/mapfiles/place_api/icons/v2/school_pinlet", "international_phone_number": "+34 918 56 06 77", "name": "Escuela de Educación Infantil Casa de Niños Navacerrada", "photos": [{"height": 3024, "html_attributions": ["<a href=\"https://maps.google.com/maps/contrib/104624358394364211038\">Laura Hale</a>"], "photo_reference": "AWn5SU5j1iid2zAZr6dmZ-yod6YS9sR_ostyc5eCxu6sbpVGM853nuNzqkX6x4hhIkrIfJlo0ftGVNe-E6czwN2H87UOE0D5IkOHEZJDPR3XrBMKHpAPHjbLtB40S2tPHreOdgSkh7ytlMpHUFK3mDkWa-BovGYEeNKEKqI1pvvf4xPhhLvBh_Y8mCXGsxgH0X3k8PzwIg6vFAGGAlrnWqOhQaPQct6TK83UeEjJJqGOhfywXxyyf1zpyg5sT6ZsA1IES6r4qQVm_feaKxpJ1Rs5oTqlOxKjjM7QRZXxLnDbPhajpRjZ2_YEr5nGTjU5lFQIu95fIeuG_27BtUR1vdXetCZZe2pSB8AVGMXn3su-1LkEjXy7NxiSlClPjpAqy4zq-GhOOtllwwq21A0yF4NerlKUFrZQv5Rf3xdSg2jIXP8-AfSfIXvbNTxQTU9lT5-0C8V2RHFkl9iRHO7jyBMNJ53SpraKwkOm2hvPcnG_NvRywzHZDIQNhaNGLxcgPqtNdxTdnqmzkzwDELIgLsSzNFKLoQaZoY6QXE0kIamW4yB_yXxKooDLTSKkuowjGd-dANQj0tZPVdlITwyrO2_v1b2sWnsokAo-NyBYh5OXX7wJz1NazJJJD0jDFcsnhpBd4kmpfSKo", "width": 4032}], "place_id": "ChIJs24cDIltQQ0RGRw6bymJdxY", "plus_code": {"compound_code": "PXFJ+53 Navacerrada, Spain", "global_code": "8CGQPXFJ+53"}, "reference": "ChIJs24cDIltQQ0RGRw6bymJdxY", "scope": "GOOGLE", "types": ["school", "point_of_interest", "establishment"], "vicinity": "Paseo de los Abetos, 4, Navacerrada"}, {"business_status": "OPERATIONAL", "geometry": {"location": {"lat": 40.6925123, "lng": -4.042000999999999}, "viewport": {"northeast": {"lat": 40.6938538302915, "lng": -4.040650169708499}, "southwest": {"lat": 40.6911558697085, "lng": -4.043348130291504}}}, "icon": "https://maps.gstatic.com/mapfiles/place_api/icons/v1/png_71/school-71.png", "icon_background_color": "#7B9EB0", "icon_mask_base_uri": "https://maps.gstatic.com/mapfiles/place_api/icons/v2/school_pinlet", "international_phone_number": "+34 611 43 64 76", "name": "Saltamontes. Grupo de Juego en la Naturaleza.", "opening_hours": {"open_now": false}, "photos": [{"height": 3072, "html_attributions": ["<a href=\"https://maps.google.com/maps/contrib/114612450079025607377\">La Habitación Compartida</a>"], "photo_reference": "AWn5SU7jrXDoeIQyEBUowVl3No9bFtEWdorCLEqtatU4DhpiU9qwrMPebZhjhQMn1l-aFcJc7Xq1Pfqj3bWiEG_fgqwbzWcF2igDbrhQhi6EutnA084dYq1km09PaDlEEo8b4o4X3a3uwhXqvZAM-XRg8RO_WYqxtz8s_hT6Z301cjg9r6lHPCpgTAsPa01Y4xM88h6J55WrbAMwO-_bbC_3g6xyF_2GNnsdK1cSVe-i1TTNkjS74-HdVlpRk-p0JDx-Bjtogiht8eDozhJ0w5eLM14FrcsHW_NKS8ff-UQKz_EPCbMVNnforbrB_xMy2xckGxgOgwfosEhX4xVB96UsRJ7iuv0m6t3yh5ud9faW6bHTTRK8eYbIXr8Z3lTFN5ENhNUgJDbZWZTLGZbd-EQJp2ScES8YsdszCx4FolgoR-yP-jAkATcyOY85QFKUXXN0IQ3-dECqOIG52IFzJDH0ypbZ3dBnCcGdEJ-dva0tVN_oNFI4A9iJfhhzpqNbUDTQLlxvEGwZR3uXoKMQmUxPYdPkzAPfLMUQjPDniA6bFJ9YzRsZagz7fsdjw2RTZrL1YsZnJ65RO6TyMkdcirGi6RkFnhGaGNMWDhVdU4cvNMIdnRKvYQtr31pOIlKO_9d4wQYW3Q", "width": 4080}], "place_id": "ChIJvXQS2-dzQQ0RYrrh0GTgRd8", "plus_code": {"compound_code": "MXV5+25 Collado Mediano, Spain", "global_code": "8CGQMXV5+25"}, "rating": 5, "reference": "ChIJvXQS2-dzQQ0RYrrh0GTgRd8", "scope": "GOOGLE", "types": ["school", "point_of_interest", "establishment"], "user_ratings_total": 11, "vicinity": "Paseo de María Cristina, 10A, Collado Mediano"}, {"business_status": "OPERATIONAL", "geometry": {"location": {"lat": 40.6939955, "lng": -4.0236809}, "viewport": {"northeast": {"lat": 40.6952985302915, "lng": -4.022315369708498}, "southwest": {"lat": 40.6926005697085, "lng": -4.025013330291503}}}, "icon": "https://maps.gstatic.com/mapfiles/place_api/icons/v1/png_71/school-71.png", "icon_background_color": "#7B9EB0", "icon_mask_base_uri": "https://maps.gstatic.com/mapfiles/place_api/icons/v2/school_pinlet", "international_phone_number": "+34 658 66 41 75", "name": "Sentidos - Madre de día", "opening_hours": {"open_now": false}, "photos": [{"height": 3120, "html_attributions": ["<a href=\"https://maps.google.com/maps/contrib/111486814451818627270\">Sentidos - Madre de día</a>"], "photo_reference": "AWn5SU6HrX5FuGr18forTq7Z-kjqeujJl5658Kh5nUGz4hjp1fkGHFrAfFWmGujLqBIu6dVzMWtTduT7grtOR14Ua7lADSeFwGXPhjnQm5CzwMS-6AjHNrQfPcnbMr6uSfcqxI8O0JnaHnvdxsQXaeaZHU4YhEfN2Kh79hV77yhCR6VTC-nywqOtzaqo9m-2QsIzc-Y_kQjJoeyoXr3YgCV6Z6UMVPpwIvlyNzmA-b9pH-k5TtKUYPXLs12LC_LRirEL0Irc62GNoZ0YGbzQoXVW-Aw32htZiiEGy_NmWeErb6_AgDvUHrV1DWqUyDHKfUxLdIu0ooJw7U8", "width": 4160}], "place_id": "ChIJD5R-YQ5zQQ0RIisIVtKIMOc", "plus_code": {"compound_code": "MXVG+HG Collado Mediano, Spain", "global_code": "8CGQMXVG+HG"}, "rating": 4.9, "reference": "ChIJD5R-YQ5zQQ0RIisIVtKIMOc", "scope": "GOOGLE", "types": ["school", "point_of_interest", "establishment"], "user_ratings_total": 9, "vicinity": "Calle de las Escuelas, 7, Collado Mediano"}, {"business_status": "OPERATIONAL", "geometry": {"location": {"lat": 40.693294, "lng": -4.025477}, "viewport": {"northeast": {"lat": 40.6945142302915, "lng": -4.024318519708498}, "southwest": {"lat": 40.6918162697085, "lng": -4.027016480291501}}}, "icon": "https://maps.gstatic.com/mapfiles/place_api/icons/v1/png_71/school-71.png", "icon_background_color": "#7B9EB0", "icon_mask_base_uri": "https://maps.gstatic.com/mapfiles/place_api/icons/v2/school_pinlet", "international_phone_number": "+34 918 59 88 72", "name": "ENGLISH KINGDOM", "opening_hours": {"open_now": false}, "photos": [{"height": 1512, "html_attributions": ["<a href=\"https://maps.google.com/maps/contrib/115142742623448728561\">ENGLISH KINGDOM</a>"], "photo_reference": "AWn5SU5FT5_6s1zFk36aCYwEzHVPzH1FCuO7IWRjk_lroOeZL-ffRy9zGU7LNPGJS9I2UOB9LDDqvRgjPAtlXBtsjvaAEftUOFg2S0Bjn4C3lgbibKUfhECBqf6_VnbdnTWKewa4nGPXFtkN8W-4RJR32Vi_faM91CHsnWXx7yIrF5e_BBolCvo3fiV80VQISR-ktzuzWhMW02_o-sse89A4TqccennaGsLSBD-8Xt3_hFlDUgd9EyC_BJmq0otC3Rq-1QGasF0ixGiQtsLmr9A39yvu9SZT_-6NRDxdMPhU1QklMrhZxHF-dYD_NcQvLm5CTkmzMnKq3mw", "width": 2016}], "place_id": "ChIJsx_f71ZyQQ0RNX-D1D-KGRo", "plus_code": {"compound_code": "MXVF+8R Collado Mediano, Spain", "global_code": "8CGQMXVF+8R"}, "rating": 5, "reference": "ChIJsx_f71ZyQQ0RNX-D1D-KGRo", "scope": "GOOGLE", "types": ["school", "point_of_interest", "establishment"], "user_ratings_total": 9, "vicinity": "Plazuela del Pozo, 1, Planta 1ª, Collado Mediano"}]