[{"business_status": "OPERATIONAL", "geometry": {"location": {"lat": 40.56710410000001, "lng": -3.506215399999999}, "viewport": {"northeast": {"lat": 40.56841393029151, "lng": -3.504923919708498}, "southwest": {"lat": 40.56571596970851, "lng": -3.507621880291502}}}, "icon": "https://maps.gstatic.com/mapfiles/place_api/icons/v1/png_71/bank-71.png", "icon_background_color": "#909CE1", "icon_mask_base_uri": "https://maps.gstatic.com/mapfiles/place_api/icons/v2/bank-intl_pinlet", "international_phone_number": "+34 916 20 70 77", "name": "BBVA", "opening_hours": {"open_now": false}, "photos": [{"height": 720, "html_attributions": ["<a href=\"https://maps.google.com/maps/contrib/103234548839776676588\">BBVA</a>"], "photo_reference": "AWn5SU7fq8wC7Mq9Ifc-8h54Ff9b5m8JMchk3UWtRKJ9J3fOmMmOxFsebrhcu98Lg-JRzZSUViZfgcYQ8TXKLtAYs9UttKCmb_-DgMtCy5fjKRDz-9KB7b-_vFqX1TkuhDeRQECeWtI7w1pDdCQ_FN-birTig9V4qaBBTF8iMypyjr32MwMv46NBicgZGMcT3kSzqa9gYpwCocFigdrqvH5Thtt5Aq2twjsgeph6lzMnY1VmkXqwB0VOfZGB5qheDVCNQYv4pkLrAeeoj5ynVoRncIcqEeQ0oROywUyBdJoVeVaRGHc2AkCH4rkr1_f_nmqnx0LYo_eGUzg", "width": 1280}], "place_id": "ChIJKUNAW1kzQg0Rq3-HZ2NdVgI", "plus_code": {"compound_code": "HF8V+RG Cobeña, Spain", "global_code": "8CGRHF8V+RG"}, "rating": 2.9, "reference": "ChIJKUNAW1kzQg0Rq3-HZ2NdVgI", "scope": "GOOGLE", "types": ["bank", "atm", "accounting", "finance", "point_of_interest", "establishment"], "user_ratings_total": 27, "vicinity": "Calle Madrid, 10, Cobeña"}, {"business_status": "OPERATIONAL", "geometry": {"location": {"lat": 40.5672379, "lng": -3.502275599999999}, "viewport": {"northeast": {"lat": 40.5686372302915, "lng": -3.501028619708498}, "southwest": {"lat": 40.5659392697085, "lng": -3.503726580291501}}}, "icon": "https://maps.gstatic.com/mapfiles/place_api/icons/v1/png_71/bank-71.png", "icon_background_color": "#909CE1", "icon_mask_base_uri": "https://maps.gstatic.com/mapfiles/place_api/icons/v2/bank-intl_pinlet", "international_phone_number": "+34 600 40 40 90", "name": "CaixaBank", "opening_hours": {"open_now": false}, "photos": [{"height": 900, "html_attributions": ["<a href=\"https://maps.google.com/maps/contrib/112979153409460573385\">CaixaBank</a>"], "photo_reference": "AWn5SU5LqkH7thEfyRvx66a66LFxFAmlJ2OSzvjOLk_BpO2TEVov9OGqmJ_p3Iap5VJE2VAj5sx2BjGIED_Ubbq_xOYOKLAo2ZqlzgtmSyYro0XO4CBqmgm0SxFGGFTMdEhfUE9ShnCIZJveDbPqN28hmj-nclMeQn3T4wQpMSrUGM2ARncO9hwwX4wTQbgL-E8LnFOP_qPkcPqT0_RVIrXBlGkbqvKa1ZzhuMQlNqi7qWcPmZRa4QFDVvsduh0bG0-aO5B44YbBXJA72zxtbbUoweGheQsXrA0qS4P8BY2Pr7KlIHtVt9yRlSKKogPa1FQb9xkPfi7XTnA", "width": 1600}], "place_id": "ChIJaTFyxFgzQg0RCtU_Evt8Rb8", "plus_code": {"compound_code": "HF8X+V3 Cobeña, Spain", "global_code": "8CGRHF8X+V3"}, "rating": 3, "reference": "ChIJaTFyxFgzQg0RCtU_Evt8Rb8", "scope": "GOOGLE", "types": ["bank", "finance", "point_of_interest", "establishment"], "user_ratings_total": 24, "vicinity": "Camino Guadalajara, Camino Alcalá, S/n, Cobeña"}, {"business_status": "OPERATIONAL", "geometry": {"location": {"lat": 40.5682876, "lng": -3.503879099999999}, "viewport": {"northeast": {"lat": 40.5696448802915, "lng": -3.502478969708498}, "southwest": {"lat": 40.5669469197085, "lng": -3.505176930291502}}}, "icon": "https://maps.gstatic.com/mapfiles/place_api/icons/v1/png_71/bank-71.png", "icon_background_color": "#909CE1", "icon_mask_base_uri": "https://maps.gstatic.com/mapfiles/place_api/icons/v2/bank-intl_pinlet", "international_phone_number": "+34 914 26 18 99", "name": "Banco Santander Agentes", "opening_hours": {"open_now": false}, "photos": [{"height": 720, "html_attributions": ["<a href=\"https://maps.google.com/maps/contrib/104897579979777399690\">Banco Santander Agentes</a>"], "photo_reference": "AWn5SU76Ih47mdIdDuLHff0QRwsTIffkl8zigfMhgSPye1Eu7gRTeMiR-Byd08fJ9O_TFgChDStoiPGRBiRkhZdtsnLdNxdoZKyNSeTaVmdDmaodBIwxUKey587z-yjS2zKDqJ0c7WghGGcAB0nOIJi1zyHNUpHgO6EwiqjBoz95ncXbnwGyQt166FpaqSJwmLGJwaprkv0FWwYKDbGcwKwR-JDyHFaEBNJ3SPfl-P8ZceQEk5cirmGrKUsyGaHrifQPLU4yJXun8eXt1kshfgXj4h57QlkDs3zWGg0zf59xi9yglh_Pec152g_M9P1eLmPOmweFMuODigE", "width": 1280}], "place_id": "ChIJq0tB3hkzQg0Ro-Qkef3i8Jw", "plus_code": {"compound_code": "HF9W+8C Cobeña, Spain", "global_code": "8CGRHF9W+8C"}, "rating": 2.6, "reference": "ChIJq0tB3hkzQg0Ro-Qkef3i8Jw", "scope": "GOOGLE", "types": ["bank", "atm", "finance", "point_of_interest", "establishment"], "user_ratings_total": 19, "vicinity": "Calle de los Huertos, 2, Cobeña"}]