[{"geometry": {"location": {"lat": 40.3453499, "lng": -4.1021346}, "viewport": {"northeast": {"lat": 40.34910087967738, "lng": -4.095051312176264}, "southwest": {"lat": 40.34236647172148, "lng": -4.108264103867247}}}, "icon": "https://maps.gstatic.com/mapfiles/place_api/icons/v1/png_71/geocode-71.png", "icon_background_color": "#7B9EB0", "icon_mask_base_uri": "https://maps.gstatic.com/mapfiles/place_api/icons/v2/generic_pinlet", "name": "Villanueva de Perales", "photos": [{"height": 3024, "html_attributions": ["<a href=\"https://maps.google.com/maps/contrib/116765567352143167279\">Emilio Jose Barrios Juarez</a>"], "photo_reference": "AWn5SU7YtiYzPAx0WUgc2d9-IZGj4PGIFCQqJr4BM1Kw-p3GvscPkDG5stp6LwZDkUUinHOJ3xErGL_juvcpDihZSGxVPdNBbpch6z40Nxq6OPRsGSUXfzrnrcctUlBtDtAKoHWcF2XDlnmEkJ0_kGJU_FR3BZ34AnflvgRcmrF87H3xOrqdDw_jX0CRkADaZVNMZPEb_mJ8M-R8SwjS4lftcVSV5YMXuyh9EnHZlbXT_OKkmAwbFWXAkX2OL8p5y5zF1_A_1XlA6HAhiGmeT2E0uBOAo8yvYcOX5U2vrr_gfmAdj0W1FzuNak8i0zGMF5XDx-IQg6rny6yn7hZwvpOBuv4p_JTZIUCM7A6jzMkHUx5mk4zBsu2UpcajK7XOBX7STE2XL4VOggWAk1AkNoz91wBEMEZMlW1sc_iw5flQlXbRyZRc21os1FZCuVHisgi6ukkse95gTXVHba7b3cbuCZg9WEre9ouxB4DgmrDMmcTnBKIhnRdU3tgVI2Lqdup-S5Le7aaLYOACrrRhKf7tMRn4P3BledlWQn_lYxVRA9NgoaHVTsDmcIOR5d8Y2q546S_PA3NbuVP0sEkTQzqLD_z0x8lRlAgu-BS2HeYySixrVc5GBmTSt3Z027NzoEWffNnBVQ", "width": 4032}], "place_id": "ChIJxdolj7C9QQ0RRxxl-mCMrPE", "reference": "ChIJxdolj7C9QQ0RRxxl-mCMrPE", "scope": "GOOGLE", "types": ["locality", "political"], "vicinity": "Villanueva de Perales"}, {"business_status": "OPERATIONAL", "geometry": {"location": {"lat": 40.3462863, "lng": -4.1031262}, "viewport": {"northeast": {"lat": 40.3476957802915, "lng": -4.101818719708498}, "southwest": {"lat": 40.3449978197085, "lng": -4.104516680291503}}}, "icon": "https://maps.gstatic.com/mapfiles/place_api/icons/v1/png_71/generic_business-71.png", "icon_background_color": "#7B9EB0", "icon_mask_base_uri": "https://maps.gstatic.com/mapfiles/place_api/icons/v2/generic_pinlet", "name": "Consultorio Local Villanueva de Perales", "opening_hours": {"open_now": false}, "place_id": "ChIJ9_Y2arC9QQ0RKXam4mJysic", "plus_code": {"compound_code": "8VWW+GP Villanueva de Perales, Spain", "global_code": "8CGQ8VWW+GP"}, "rating": 3.6, "reference": "ChIJ9_Y2arC9QQ0RKXam4mJysic", "scope": "GOOGLE", "types": ["point_of_interest", "establishment"], "user_ratings_total": 12, "vicinity": "Calle Carretas, 2, Calle Carretas, 16, Villanueva de Perales"}, {"business_status": "OPERATIONAL", "geometry": {"location": {"lat": 40.352005, "lng": -4.1036149}, "viewport": {"northeast": {"lat": 40.35326518029149, "lng": -4.102190969708498}, "southwest": {"lat": 40.3505672197085, "lng": -4.104888930291502}}}, "icon": "https://maps.gstatic.com/mapfiles/place_api/icons/v1/png_71/generic_business-71.png", "icon_background_color": "#7B9EB0", "icon_mask_base_uri": "https://maps.gstatic.com/mapfiles/place_api/icons/v2/generic_pinlet", "international_phone_number": "+34 916 32 23 13", "name": "VEMATOR MADRID, S.L.U", "opening_hours": {"open_now": false}, "photos": [{"height": 4032, "html_attributions": ["<a href=\"https://maps.google.com/maps/contrib/113499275485972860195\">VEMATOR MADRID, S.L.U</a>"], "photo_reference": "AWn5SU4RGAGRv_8ljZxe6Q1tyf7490gOTSsWeo4cHZQq2E91nImQMJnP_gb1NjIjtD61SJsvcNYK6c336JioFDDTEGmxyVIhfZeR5OH7yfDUDbrHq28HmjP8cyYkB24CC22l3lHwWzJIc_zzAfWXeH8dqEOPxOpkShtH1W1PRGJ3Afz93GxHqDJgdjxdLxvQPxVbUkH4elau91u1OdttyRgXB9SfAffoM9yDUVluHBocArWpoOR4ZqY0rxrRfA9rNcPs8I0ijPcrxe545A7zXEK5fq0SnYshzDJHD-FUkfmr8HHC7W_j3xAwAq4FYmjdLuV2Ivo6lCEdfQA", "width": 3024}], "place_id": "ChIJ-UNIcPWWQQ0RN915Xsg9yio", "plus_code": {"compound_code": "9V2W+RH Villanueva de Perales, Spain", "global_code": "8CGQ9V2W+RH"}, "rating": 4.7, "reference": "ChIJ-UNIcPWWQQ0RN915Xsg9yio", "scope": "GOOGLE", "types": ["point_of_interest", "establishment"], "user_ratings_total": 11, "vicinity": "Calle Ramon y Cajal, 34, Villanueva de Perales"}, {"business_status": "OPERATIONAL", "geometry": {"location": {"lat": 40.3473511, "lng": -4.102280599999999}, "viewport": {"northeast": {"lat": 40.3486518802915, "lng": -4.100932569708498}, "southwest": {"lat": 40.34595391970851, "lng": -4.103630530291502}}}, "icon": "https://maps.gstatic.com/mapfiles/place_api/icons/v1/png_71/school-71.png", "icon_background_color": "#7B9EB0", "icon_mask_base_uri": "https://maps.gstatic.com/mapfiles/place_api/icons/v2/school_pinlet", "international_phone_number": "+34 910 56 03 87", "name": "Escuela Infantil Villanueva De Perales", "place_id": "ChIJzcYOOLC9QQ0R2kAeu2JZ4eA", "plus_code": {"compound_code": "8VWX+W3 Villanueva de Perales, Spain", "global_code": "8CGQ8VWX+W3"}, "reference": "ChIJzcYOOLC9QQ0R2kAeu2JZ4eA", "scope": "GOOGLE", "types": ["point_of_interest", "school", "establishment"], "vicinity": "Calle Chapíneria, 14, Villanueva de Perales"}, {"business_status": "OPERATIONAL", "geometry": {"location": {"lat": 40.3458061, "lng": -4.1002902}, "viewport": {"northeast": {"lat": 40.34711053029151, "lng": -4.098966569708498}, "southwest": {"lat": 40.34441256970851, "lng": -4.101664530291502}}}, "icon": "https://maps.gstatic.com/mapfiles/place_api/icons/v1/png_71/restaurant-71.png", "icon_background_color": "#FF9E67", "icon_mask_base_uri": "https://maps.gstatic.com/mapfiles/place_api/icons/v2/restaurant_pinlet", "international_phone_number": "+34 918 13 74 29", "name": "Restaurante El Pely", "opening_hours": {"open_now": false}, "photos": [{"height": 1080, "html_attributions": ["<a href=\"https://maps.google.com/maps/contrib/115771022601078128545\">Cristian Cristiano</a>"], "photo_reference": "AWn5SU5MVPqK-Frr7P2F6XLUahLtE8lvpuDatPO7TwfXNSLSi83kUnqLIU2owOTmE-2jNW8gi1Kk2DTav1nVs_mshDEvMlC0bLq-JpDGIwCYKDPHuywDvL7alM0gsaMDzftgm-Wq_ZpvCs8SZqs92EywmjBBUfJQp68kgXMRN8tz_lemTH8ZgpQmSdpE-B5QYhvuIljhNP-gwgSn-bV1AK9lcdCLVKXua_NuKDc8meMypDu02MLeAM9b6XmIM8SdDxt3Zu61qth37zeefy6uf8gjzn6mxo8ZnAR20m5Kz1waCxYCWbgmeBBVtTT9jJ5o9JAT-oKw_YfydpoEMt90IHToqTAhNEI-Zn14TCId-DTtbpk8Osq5jF18RWEnKJfBuY968-vaAPMTT7lsxs1hD00tZhp_Cg6wCgRdWxyPYDWgXXa-SrsdaKz1d8VgWj158QIB1IyEnW6Nc1ghgRCCSlp6EIQQo8W4Czrhj33xq3Tg578Ie0XiC0jOXU2VOi5i-v4UdqO2fLRWiGVpgW7ERZslHMlr-dIuJImiUkbpxJKI7XFCuZhY11Mpx2VD8R16DJiQXeCjMVIj_Xj-QY1vC9rwLIYmEYbY_ni5xOwE9YzKD0i68V0gLxhGvioUyVQhKJxfwyxIajT1", "width": 1920}], "place_id": "ChIJVWKHgbC9QQ0R4uN8QFJcGeU", "plus_code": {"compound_code": "8VWX+8V Villanueva de Perales, Spain", "global_code": "8CGQ8VWX+8V"}, "price_level": 1, "rating": 4.5, "reference": "ChIJVWKHgbC9QQ0R4uN8QFJcGeU", "scope": "GOOGLE", "types": ["restaurant", "point_of_interest", "food", "establishment"], "user_ratings_total": 319, "vicinity": "Calle San Antonio, 21, Villanueva de Perales"}, {"business_status": "OPERATIONAL", "geometry": {"location": {"lat": 40.34607999999999, "lng": -4.10307}, "viewport": {"northeast": {"lat": 40.3473764302915, "lng": -4.101718769708497}, "southwest": {"lat": 40.3446784697085, "lng": -4.104416730291502}}}, "icon": "https://maps.gstatic.com/mapfiles/place_api/icons/v1/png_71/generic_business-71.png", "icon_background_color": "#7B9EB0", "icon_mask_base_uri": "https://maps.gstatic.com/mapfiles/place_api/icons/v2/generic_pinlet", "international_phone_number": "+34 918 13 77 04", "name": "Excavaciones Serpa", "opening_hours": {"open_now": false}, "photos": [{"height": 1536, "html_attributions": ["<a href=\"https://maps.google.com/maps/contrib/118281181838325939824\">Excavaciones Serpa</a>"], "photo_reference": "AWn5SU4171_gl_Ts5nfkP856vwSGgwncSO7uhijBaRjSgW8IwNQ9IETqQ5aLt4ywZTuePJOw5xx_GaVVL3xrSeF8BbaPlKllcfa9JjXWoQ0Tqbl2y4pzKHjtmqyQGEo3rwfOtdF9qm5BHxRHHjk3UioNircSzyjUHA14KQTQa-aQUo9z5oFZokMRXYzGvJrXyaFpZlOgiBlcpTkvxPGBTxFZtKtfwPfi3jZVBiEnpOE7awy-SYhs4060zovaZDQvKEjUOTeluBGW8ed4llxM5-L0R_0U2Eug9-XhBevEOPlGNmUHDu39DOdtTb__ANhzUoiHXmxaCD9vAa8", "width": 2048}], "place_id": "ChIJv5LMqbG9QQ0RvOg2oqR6smM", "plus_code": {"compound_code": "8VWW+CQ Villanueva de Perales, Spain", "global_code": "8CGQ8VWW+CQ"}, "rating": 4.4, "reference": "ChIJv5LMqbG9QQ0RvOg2oqR6smM", "scope": "GOOGLE", "types": ["point_of_interest", "general_contractor", "establishment"], "user_ratings_total": 7, "vicinity": "Calle San Antonio, 3, Villanueva de Perales"}, {"business_status": "OPERATIONAL", "geometry": {"location": {"lat": 40.3460001, "lng": -4.103356000000001}, "viewport": {"northeast": {"lat": 40.3473178802915, "lng": -4.102012869708497}, "southwest": {"lat": 40.3446199197085, "lng": -4.104710830291502}}}, "icon": "https://maps.gstatic.com/mapfiles/place_api/icons/v1/png_71/generic_business-71.png", "icon_background_color": "#7B9EB0", "icon_mask_base_uri": "https://maps.gstatic.com/mapfiles/place_api/icons/v2/generic_pinlet", "name": "Asociación la Chaparra", "opening_hours": {"open_now": false}, "place_id": "ChIJD0URqLG9QQ0RWhbfa0-T_kA", "plus_code": {"compound_code": "8VWW+CM Villanueva de Perales, Spain", "global_code": "8CGQ8VWW+CM"}, "rating": 5, "reference": "ChIJD0URqLG9QQ0RWhbfa0-T_kA", "scope": "GOOGLE", "types": ["point_of_interest", "establishment"], "user_ratings_total": 1, "vicinity": "Calle San Antonio, Villanueva de Perales"}, {"business_status": "OPERATIONAL", "geometry": {"location": {"lat": 40.34616329999999, "lng": -4.098305900000001}, "viewport": {"northeast": {"lat": 40.3475709302915, "lng": -4.096985919708498}, "southwest": {"lat": 40.3448729697085, "lng": -4.099683880291503}}}, "icon": "https://maps.gstatic.com/mapfiles/place_api/icons/v1/png_71/generic_business-71.png", "icon_background_color": "#7B9EB0", "icon_mask_base_uri": "https://maps.gstatic.com/mapfiles/place_api/icons/v2/generic_pinlet", "international_phone_number": "+34 660 67 68 10", "name": "PASA LA RISA", "opening_hours": {"open_now": false}, "photos": [{"height": 250, "html_attributions": ["<a href=\"https://maps.google.com/maps/contrib/104450849226779189460\">PASA LA RISA</a>"], "photo_reference": "AWn5SU53DZKDjirOpAIfWRqhfkCrfI-Y_xByH770w4-dS1uh1H-0AjCInK9aBonOB-cziMYJA3DDEJqoWMeNSaCTV-2muuuAVMqjJORfGMoYse9rWZXGY25Mm5Ayg4bQCkEzOGsOMry-Ia2MhZQHuuvcUruh2JXu3FG0WX7nV7qv5VGZe30J6vB62QyFaQHt7Cr4Gk_uzK80PFcP0NZ7OLarOfGWv4R4vnSR--94ZyrC_DR2MvljnZrt1eTwbuYkSQ2Hs8KvHpvgUcVO0ywyV5WjhrxFP0_sSBHdGNfNfLvZCpjk7jH5kH-DEocRPK4Yy7yhupyRgL3m8-Q", "width": 444}], "place_id": "ChIJi61oKFuUQQ0RHNqX5gpmxac", "plus_code": {"compound_code": "8WW2+FM Villanueva de Perales, Spain", "global_code": "8CGQ8WW2+FM"}, "rating": 5, "reference": "ChIJi61oKFuUQQ0RHNqX5gpmxac", "scope": "GOOGLE", "types": ["point_of_interest", "establishment"], "user_ratings_total": 25, "vicinity": "Calle Formentera, nº4, Madrid"}, {"business_status": "OPERATIONAL", "geometry": {"location": {"lat": 40.34638379999999, "lng": -4.0981219}, "viewport": {"northeast": {"lat": 40.3478025802915, "lng": -4.096550819708497}, "southwest": {"lat": 40.3451046197085, "lng": -4.099248780291501}}}, "icon": "https://maps.gstatic.com/mapfiles/place_api/icons/v1/png_71/generic_business-71.png", "icon_background_color": "#7B9EB0", "icon_mask_base_uri": "https://maps.gstatic.com/mapfiles/place_api/icons/v2/generic_pinlet", "international_phone_number": "+34 918 13 77 27", "name": "L.D. VILLAMOTOR", "opening_hours": {"open_now": false}, "photos": [{"height": 960, "html_attributions": ["<a href=\"https://maps.google.com/maps/contrib/111335079108330545716\">L.D. VILLAMOTOR</a>"], "photo_reference": "AWn5SU5KwIfopoOKiPT9uV6rY4mWl7d-uu9a5HHDKI3cGrBoZaUx_WWoPVD3PcQEDUNnGlNGFXKeqpWWfoP4oMYeIcHKZ9p2489m1DhlxzK4R3M1_7uuTOpL7reJ3fkOzjCSUOK4S7f7CQdG3enGLDyh40zJ9ziEvceQWTx8icNvt3xW792HCat_kq957wSbczuuMfiJKpUBiQo_N8RFvr8Ext2tlFlf7w4RygfIzVuoDT0lMHWxMdYOm8-rWroN4_3kSBooumOHL91Y6c892ZmqtTBFwLduIQ3vIcYusiVDWEI3gu9b-nww50blDWwjRzmtxzI43TX8", "width": 1368}], "place_id": "ChIJ1ZI8_Lq9QQ0RzEEfthnIMcs", "plus_code": {"compound_code": "8WW2+HQ Villanueva de Perales, Spain", "global_code": "8CGQ8WW2+HQ"}, "rating": 4.9, "reference": "ChIJ1ZI8_Lq9QQ0RzEEfthnIMcs", "scope": "GOOGLE", "types": ["car_repair", "point_of_interest", "store", "establishment"], "user_ratings_total": 63, "vicinity": "Calle Formentera, 3, Villanueva de Perales"}, {"business_status": "OPERATIONAL", "geometry": {"location": {"lat": 40.3447806, "lng": -4.0986064}, "viewport": {"northeast": {"lat": 40.34614088029149, "lng": -4.097349469708497}, "southwest": {"lat": 40.3434429197085, "lng": -4.100047430291502}}}, "icon": "https://maps.gstatic.com/mapfiles/place_api/icons/v1/png_71/shopping-71.png", "icon_background_color": "#4B96F3", "icon_mask_base_uri": "https://maps.gstatic.com/mapfiles/place_api/icons/v2/shopping_pinlet", "international_phone_number": "+34 607 46 44 54", "name": "Multipiensos", "opening_hours": {"open_now": true}, "photos": [{"height": 2019, "html_attributions": ["<a href=\"https://maps.google.com/maps/contrib/110853148410086259669\">Mario Barrientos</a>"], "photo_reference": "AWn5SU60BUdfeBXiADQHUi9lZTc2XzrNORSLdUnQWihmbz49uOFRbxJrvKzfEp-Ac_XSJmBd6X-ffSIMBQn9FlsCAQk6Havbj2Tikg-ImwBIGmt9B1K4Cz9tF7EtRYrPTvgpT7bYfikiWOYu4t6Vm6B56WnFIrio9_FO8Y4A_dx1VQstYQ6TLg0JqdeLauCWSzAhp5MwQ6MB0IY_Wwt9ibKxepXsyAvJZPF8tkkIf4Ye0zKmXzbzRkX5676VVVnCr4p0_mouLlrIrFK9-VTl1sPYTfPrdejEYn9dfXkInUwycpUY_So7gMqSSn0HJRbmXofBuZyxlx4FoAdgUtitickCMd8sVfN8Iu0iAXGHWrvPkHDssNS8QHNw0edvSiGHpv9Wd02phrqiZ0T6DJrvg_OnaZhvvREDDBlJXkR3g7zTDZhx9RV27obAWa9D4ULeHaZ87u0YB6zoXgfD7ak6vhyQYAcWVLt4xG0nkvsLIFB2Fl8Qkvk8FLvbHbYK22IEldNuNlsd1BiqmoirfmjpcCwuhY-3x9UfTi0zOxj1A9OnAKSz5IEeuKK4p1zraL57B9nEADEy01NA_n3Cl-QQYFDOMf17o9MktnXJhbxfNN-FMa_KRlWdXgmCCdCR2htdsknwXmugYw", "width": 4041}], "place_id": "ChIJlRZiqheSQQ0Rv8-N95OaclM", "plus_code": {"compound_code": "8WV2+WH Villanueva de Perales, Spain", "global_code": "8CGQ8WV2+WH"}, "rating": 5, "reference": "ChIJlRZiqheSQQ0Rv8-N95OaclM", "scope": "GOOGLE", "types": ["pet_store", "point_of_interest", "food", "store", "establishment"], "user_ratings_total": 3, "vicinity": "Calle Río Jarama, 3, Villanueva de Perales"}, {"business_status": "OPERATIONAL", "geometry": {"location": {"lat": 40.3478419, "lng": -4.0968108}, "viewport": {"northeast": {"lat": 40.34908228029151, "lng": -4.095378969708499}, "southwest": {"lat": 40.34638431970851, "lng": -4.098076930291503}}}, "icon": "https://maps.gstatic.com/mapfiles/place_api/icons/v1/png_71/generic_business-71.png", "icon_background_color": "#7B9EB0", "icon_mask_base_uri": "https://maps.gstatic.com/mapfiles/place_api/icons/v2/generic_pinlet", "name": "Campo de futbol Villanueva de Perales", "photos": [{"height": 4000, "html_attributions": ["<a href=\"https://maps.google.com/maps/contrib/112522523836319626100\">Daniel Cano Garcia</a>"], "photo_reference": "AWn5SU563zButfntZ4KHtl3JJsoF_JgnSz5Q9ZwaltC6sImRJ_nxJok0SxlgM5oXFChOB4FVIzj9jE-g-V5KOjK6GxNl8Jiw-LEUdXiQ0-Z4GAgTEfJRj41a2RyOyL5Aw84eeOkYx-mk_3Et3dWPj_38OZtvlbj_TN5L2UE5fp7E7YQRulFIalCwWk9xXdotyBv9Zye-dM9rqI8QIrZn0gLYlUtzbJ4XYrhofveXJGfyEGHWhJplGt9UaKhdWksXhwqcGwKJNf3nYhUS6hCwYZexvHFulWow1REgjYFqWAzEKVNyUds7thFE5O5SMVWIqHo8NhHccZ1DlSpNoQRqJeSiRJT7HciV75gU6cm7s_e_d3bj2z-OscZxu5JYdfoiZRnS5NSj06IIweFbktlsxNmUU50VMefi8TnJSC5O0PF2NXWAwTM4GbPcGSi5t9lSnJ2cG5UFgkSxyp54HqTMC7PEbyNnYZDF-YWMYmo6NZ9LfmdD5KU1P0jslc2Lwiu8LYqG0dxjIovUPSfONsXWVqcnPUfJsguHpl0KSRHVqmSE16Mk1uq4Rx1ZN9vcqaoSVA-sKHH9NyRqUvuGUVx4YpMBrRpHqaUrJ6Nob8SupBY_BY2pgN-5EgB85aYu20MUZ0Yq3o32_g", "width": 6016}], "place_id": "ChIJA9FsJru9QQ0RoB99BvqnAd8", "plus_code": {"compound_code": "8WX3+47 Villanueva de Perales, Spain", "global_code": "8CGQ8WX3+47"}, "rating": 4.1, "reference": "ChIJA9FsJru9QQ0RoB99BvqnAd8", "scope": "GOOGLE", "types": ["point_of_interest", "establishment"], "user_ratings_total": 44, "vicinity": "Paseo de Castilla, 1, Villanueva de Perales"}, {"business_status": "OPERATIONAL", "geometry": {"location": {"lat": 40.34795689999999, "lng": -4.0961614}, "viewport": {"northeast": {"lat": 40.3492598302915, "lng": -4.094778569708498}, "southwest": {"lat": 40.3465618697085, "lng": -4.097476530291503}}}, "icon": "https://maps.gstatic.com/mapfiles/place_api/icons/v1/png_71/school-71.png", "icon_background_color": "#7B9EB0", "icon_mask_base_uri": "https://maps.gstatic.com/mapfiles/place_api/icons/v2/school_pinlet", "international_phone_number": "+34 918 13 78 94", "name": "C.E.I.P. Cristo de La Campana", "opening_hours": {"open_now": false}, "photos": [{"height": 473, "html_attributions": ["<a href=\"https://maps.google.com/maps/contrib/104499203534283143714\">Cp Inf Pri Cristo De La Campana</a>"], "photo_reference": "AWn5SU7ADatfwkfWqrA37xO3ICvMCOj623hzpwuPOLYvaSn1M2JGDWRGuWZPT580vruny4uJJa-RsN8COkgZKMrs4Lx6QfiLIxL25P8vShTnib1Y9eiI1iBGnnlubFwvkP00kXlWVMkrL-0V7epMaCFsoplS2m9qUdKHSCeo9hxNYTqnKZMcV6UbqJr5PlZboZrADG8GV6-uj6PB6b6uFVJlm3bGMZFczuPlKYu8CquVEdI3J8MtfHmUCbd9VsalB6bmumP6ZUsDDSEYGdEgx_7GU2NaJBhWUP8O1y70R_dXW7a4vE57k1KNdIEvaSZx2WEM0ZiqGMGrgLE", "width": 940}], "place_id": "ChIJ5bn6zLq9QQ0R42Hr5oA2nEQ", "plus_code": {"compound_code": "8WX3+5G Villanueva de Perales, Spain", "global_code": "8CGQ8WX3+5G"}, "reference": "ChIJ5bn6zLq9QQ0R42Hr5oA2nEQ", "scope": "GOOGLE", "types": ["point_of_interest", "school", "establishment"], "vicinity": "Paseo de Castilla, S/N, Villanueva de Perales"}, {"business_status": "OPERATIONAL", "geometry": {"location": {"lat": 40.3528531, "lng": -4.102127599999999}, "viewport": {"northeast": {"lat": 40.3541347302915, "lng": -4.100916669708497}, "southwest": {"lat": 40.3514367697085, "lng": -4.103614630291501}}}, "icon": "https://maps.gstatic.com/mapfiles/place_api/icons/v1/png_71/generic_business-71.png", "icon_background_color": "#7B9EB0", "icon_mask_base_uri": "https://maps.gstatic.com/mapfiles/place_api/icons/v2/generic_pinlet", "international_phone_number": "+34 918 13 71 20", "name": "Punto Limpio Villanueva de Perales", "opening_hours": {"open_now": false}, "place_id": "ChIJcWXTOq-9QQ0R0lLYg9MWQQ8", "plus_code": {"compound_code": "9V3X+44 Villanueva de Perales, Spain", "global_code": "8CGQ9V3X+44"}, "rating": 1, "reference": "ChIJcWXTOq-9QQ0R0lLYg9MWQQ8", "scope": "GOOGLE", "types": ["point_of_interest", "establishment"], "user_ratings_total": 1, "vicinity": "Calle Isaac Peral, 1, Villanueva de Perales"}, {"business_status": "OPERATIONAL", "geometry": {"location": {"lat": 40.35282350000001, "lng": -4.1028103}, "viewport": {"northeast": {"lat": 40.3542275802915, "lng": -4.101348369708498}, "southwest": {"lat": 40.3515296197085, "lng": -4.104046330291502}}}, "icon": "https://maps.gstatic.com/mapfiles/place_api/icons/v1/png_71/generic_business-71.png", "icon_background_color": "#7B9EB0", "icon_mask_base_uri": "https://maps.gstatic.com/mapfiles/place_api/icons/v2/generic_pinlet", "international_phone_number": "+34 918 13 75 99", "name": "Lavandería Y Planchado Integral S L", "place_id": "ChIJVVVV5bC9QQ0R0vFqangX5mU", "plus_code": {"compound_code": "9V3W+4V Villanueva de Perales, Spain", "global_code": "8CGQ9V3W+4V"}, "rating": 4, "reference": "ChIJVVVV5bC9QQ0R0vFqangX5mU", "scope": "GOOGLE", "types": ["laundry", "point_of_interest", "establishment"], "user_ratings_total": 4, "vicinity": "Calle Isaac Peral, 7, Villanueva de Perales"}, {"business_status": "OPERATIONAL", "geometry": {"location": {"lat": 40.3401336, "lng": -4.0882682}, "viewport": {"northeast": {"lat": 40.3415541802915, "lng": -4.087201419708498}, "southwest": {"lat": 40.3388562197085, "lng": -4.089899380291502}}}, "icon": "https://maps.gstatic.com/mapfiles/place_api/icons/v1/png_71/school-71.png", "icon_background_color": "#7B9EB0", "icon_mask_base_uri": "https://maps.gstatic.com/mapfiles/place_api/icons/v2/school_pinlet", "international_phone_number": "+34 625 50 73 08", "name": "Hípica Happy Horse", "opening_hours": {"open_now": false}, "photos": [{"height": 3024, "html_attributions": ["<a href=\"https://maps.google.com/maps/contrib/115588614327899229074\">Hípica Happy Horse</a>"], "photo_reference": "AWn5SU4R3iescc3MemEcbdqjOIgnvfK7L_uDd5OB7w95vbJsbnSioPSVnous5A2N1Pon8EpNxq4vY_0vqZXB986H_VHo-703C4ajoYXN3BeZwIi7DY6IlaUqBzj0IkOyRhJX5JzqfgAC4bZrTUrE4OHNOgM6Y8lND8CqDXhvBOkHIm3Jm8EG2JjdcK1IxnxQYNCRrtbMi4OlL-oa_TIJm4SkqSSmBWP86VrqDXli1Qxu37SUMtNsUqjwHmuIwaSD9voxjJIxMVehfgy0Kb1KlvcqRCF12xyiuyZwesnqvKiW7yycTGv9Y-ZHmTtV8budlQKo48SkHIZfXRg", "width": 4032}], "place_id": "ChIJa5tSoR2-QQ0RMpoQWZPHBOc", "plus_code": {"compound_code": "8WR6+3M Villanueva de Perales, Spain", "global_code": "8CGQ8WR6+3M"}, "rating": 4.5, "reference": "ChIJa5tSoR2-QQ0RMpoQWZPHBOc", "scope": "GOOGLE", "types": ["point_of_interest", "establishment"], "user_ratings_total": 62, "vicinity": "M523 km 7,400, Villanueva de Perales"}, {"business_status": "OPERATIONAL", "geometry": {"location": {"lat": 40.34542479999999, "lng": -4.1279469}, "viewport": {"northeast": {"lat": 40.34649693029149, "lng": -4.126666719708498}, "southwest": {"lat": 40.34379896970849, "lng": -4.129364680291502}}}, "icon": "https://maps.gstatic.com/mapfiles/place_api/icons/v1/png_71/school-71.png", "icon_background_color": "#7B9EB0", "icon_mask_base_uri": "https://maps.gstatic.com/mapfiles/place_api/icons/v2/school_pinlet", "international_phone_number": "+34 918 13 75 21", "name": "Colegio Público San Miguel", "place_id": "ChIJzbook0K8QQ0Rwj9Vc0o5ac0", "plus_code": {"compound_code": "8VWC+5R Villamantilla, Spain", "global_code": "8CGQ8VWC+5R"}, "reference": "ChIJzbook0K8QQ0Rwj9Vc0o5ac0", "scope": "GOOGLE", "types": ["point_of_interest", "school", "establishment"], "vicinity": "Calle de las Viñas, 9, Villamantilla"}, {"business_status": "CLOSED_TEMPORARILY", "geometry": {"location": {"lat": 40.3498191, "lng": -4.099254}, "viewport": {"northeast": {"lat": 40.35116643029149, "lng": -4.097908919708498}, "southwest": {"lat": 40.34846846970849, "lng": -4.100606880291503}}}, "icon": "https://maps.gstatic.com/mapfiles/place_api/icons/v1/png_71/school-71.png", "icon_background_color": "#7B9EB0", "icon_mask_base_uri": "https://maps.gstatic.com/mapfiles/place_api/icons/v2/school_pinlet", "international_phone_number": "+34 918 13 71 57", "name": "El Acebo", "permanently_closed": true, "photos": [{"height": 728, "html_attributions": ["<a href=\"https://maps.google.com/maps/contrib/105377802132873815016\">Granja Escuela El Acebo</a>"], "photo_reference": "AWn5SU6TVQsnZ8MBX1KLiVTP3dCl4vb5kH69ohsafzpNjzptVYd1GWrIvwKnaDX2E8b1wakZJjzb2DshHXXRPZwsViN0_tmHT8BBkq-yzi1ePH_hwoLhL5KmYs9eNghGPx-UPp_3dA09eKyW8cFE97SZbikBUA8psVRWzrNvyj9IvyVpeLwrBhHdPZrGvBgUm-q-QrV6hhkSXSaJXc7WjXIbwQiO-82jjSksdNz6Jb6tf3p1DSeZ4WMB6H3ViQkF5qs7gO3cvdssp54ToAtMCCUGMrGUuJWlg8kEPmLKcnDSf_syXKGvRytSOkjDwjkq7UHDpNgNdh9ynkcYFjxeYwIHdIGuxDTxub1hVnvfJeg9n24A5IQeylAVg8Z9VqlGkXzT-I6Q9M9n-TdUfx7juJTcYDg4ar0Con8u1Iaf-EF-PEQWX032LaylTRgzTurjC7h549ySdTGjv0VxT3wBPZXHcFoAovCRinft04M8V5KiVYCJTtJukdEBwyst4p0vpB_Um-lk4V0OU6xc_dDA1fN_bI5ML081TNyCfcY8YnL5DsmFS78uya9qBwLcRDEgCX8DSQt8CqZgR9waoKcWus2kIfDTzxXxqYoQLKwqI1Qz6oAnZChBLehjpoA9GzW8dHi7HFWNuwt3", "width": 1296}], "place_id": "ChIJFUPtY6W9QQ0Rd2sdgB0yBPg", "plus_code": {"compound_code": "8WX2+W7 Villanueva de Perales, Spain", "global_code": "8CGQ8WX2+W7"}, "rating": 4.8, "reference": "ChIJFUPtY6W9QQ0Rd2sdgB0yBPg", "scope": "GOOGLE", "types": ["point_of_interest", "school", "establishment"], "user_ratings_total": 8, "vicinity": "Paseo de Enrique Tierno Galván, 4, Villanueva de Perales"}, {"business_status": "OPERATIONAL", "geometry": {"location": {"lat": 40.3506452, "lng": -4.098405999999999}, "viewport": {"northeast": {"lat": 40.3520247302915, "lng": -4.097119169708498}, "southwest": {"lat": 40.3493267697085, "lng": -4.099817130291502}}}, "icon": "https://maps.gstatic.com/mapfiles/place_api/icons/v1/png_71/generic_business-71.png", "icon_background_color": "#7B9EB0", "icon_mask_base_uri": "https://maps.gstatic.com/mapfiles/place_api/icons/v2/generic_pinlet", "international_phone_number": "+34 676 73 68 96", "name": "Campa Ocio y tiempo libre", "place_id": "ChIJvx3HD6W9QQ0R0SnxuFd4h-M", "plus_code": {"compound_code": "9W22+7J Villanueva de Perales, Spain", "global_code": "8CGQ9W22+7J"}, "rating": 5, "reference": "ChIJvx3HD6W9QQ0R0SnxuFd4h-M", "scope": "GOOGLE", "types": ["point_of_interest", "establishment"], "user_ratings_total": 1, "vicinity": "Paseo de Enrique Tierno Galván, 4, Villanueva de Perales"}, {"business_status": "OPERATIONAL", "geometry": {"location": {"lat": 40.3532223, "lng": -4.1026379}, "viewport": {"northeast": {"lat": 40.3545385802915, "lng": -4.101355969708496}, "southwest": {"lat": 40.3518406197085, "lng": -4.104053930291501}}}, "icon": "https://maps.gstatic.com/mapfiles/place_api/icons/v1/png_71/generic_business-71.png", "icon_background_color": "#7B9EB0", "icon_mask_base_uri": "https://maps.gstatic.com/mapfiles/place_api/icons/v2/generic_pinlet", "international_phone_number": "+34 918 13 75 73", "name": "Aislamientos Madrid", "opening_hours": {"open_now": false}, "photos": [{"height": 540, "html_attributions": ["<a href=\"https://maps.google.com/maps/contrib/106075252119303273093\">Aislamientos Madrid</a>"], "photo_reference": "AWn5SU4-ef3p1NkNgmGDhzFTqQ4OXb93Qu3-VrkpBfJVKqF9ltjbzEBa4KSQk0BOpVpev_8-vcr-yIyMLexahUn2Kkfa_aMj9d7Y4cEDx5uP0500Jsg5GUe5LxwJDQS4FvTVPof2wiCKEP8pcasCTIHht_Z5HHYRAcXLnc_4iZFCLnNrnt2phXnNov7QOX8Czazyyljp-dauM1S8lVkQ-XIq_FUPovUDDM8hNnQzfO_vC_hx_iGHzIzXHuPOilWevEmKHWhfjTbzGRkt3uGVaUwzf4dJiCvr15Xnm1PpyS-Cu19w3hcqBmS4-1StKB5E4_BNNNYT3v9RHYc", "width": 960}], "place_id": "ChIJr9PXKa-9QQ0RbrlrMfqJw-4", "plus_code": {"compound_code": "9V3W+7W Villanueva de Perales, Spain", "global_code": "8CGQ9V3W+7W"}, "rating": 5, "reference": "ChIJr9PXKa-9QQ0RbrlrMfqJw-4", "scope": "GOOGLE", "types": ["point_of_interest", "establishment"], "user_ratings_total": 4, "vicinity": "Calle Isaac Peral, 23, Villanueva de Perales"}, {"geometry": {"location": {"lat": 40.3418042, "lng": -4.1302671}, "viewport": {"northeast": {"lat": 40.34960293707457, "lng": -4.125811938725464}, "southwest": {"lat": 40.33572178942874, "lng": -4.134648339469273}}}, "icon": "https://maps.gstatic.com/mapfiles/place_api/icons/v1/png_71/geocode-71.png", "icon_background_color": "#7B9EB0", "icon_mask_base_uri": "https://maps.gstatic.com/mapfiles/place_api/icons/v2/generic_pinlet", "name": "Villamantilla", "photos": [{"height": 1800, "html_attributions": ["<a href=\"https://maps.google.com/maps/contrib/101321764474141234821\">ricardo fernández del Blanco</a>"], "photo_reference": "AWn5SU7p55xK3UZUobSqWf9mKvQM7edsVAYr4L9LaSwo4WDWMUKDdeYwzUZ2w-4Yj6MjfegH6ov7SXo9x0WhZWsjglpSkaNz9eL5PUW4ifNCtYGUfZXmCUP_hb3ObTQ3cmnAHNaN-UieC6VzEuaP19qW8oiDwelNv7Jj4CYwLfgl1USuRkEUlMmOxB-wxkaeJ-Qt6B87ic5yS2GyI3MV2BzToChFjlofOQsrlsDwiqeOiwlSQ6Yoy4dXuIAY375vumJxSg4zvhHvDK0yQNUDEaNV3Fr9ZLl4tEXkkVwUQjYEaUpdUQ3uD9lyueAuLYEsuRIsJXnzZdKsPV28wZbxm81CYtDYAGHraeHOaU_PBDvd6vqArtuRC2B6ovHF0IpJ7Ms1HDTu-gdOFwb11O1hy39Halk9wB3fPFuD1nyrwN7Z-2FsDGR-FyS9kc7rctL-ndemCuBbZDJCJD1ei-Jm6Zq2s9n9LkY7wywJzTtlGsSvCnYCkRzt4P_T7eCO9Q1W5IyhzrDd-DIuHLLjRODv_FzeF_-uu4yvI1Ypg5lUPV2A-9Bxyl6VmnZMF58SBUFvwVOGf0aTw_UWVFfNpdCR96UEkShaMV0bUcBuz96oOc_8AeBMj5vlFizNigvIs6fHBNYq", "width": 4000}], "place_id": "ChIJ5zlq5kG8QQ0RpkG9HTJSPpk", "reference": "ChIJ5zlq5kG8QQ0RpkG9HTJSPpk", "scope": "GOOGLE", "types": ["locality", "political"], "vicinity": "Villamantilla"}]