[{"business_status": "OPERATIONAL", "geometry": {"location": {"lat": 40.3666801, "lng": -4.405698699999999}, "viewport": {"northeast": {"lat": 40.36791778029149, "lng": -4.404277719708498}, "southwest": {"lat": 40.36521981970849, "lng": -4.406975680291502}}}, "icon": "https://maps.gstatic.com/mapfiles/place_api/icons/v1/png_71/school-71.png", "icon_background_color": "#7B9EB0", "icon_mask_base_uri": "https://maps.gstatic.com/mapfiles/place_api/icons/v2/school_pinlet", "international_phone_number": "+34 918 61 19 88", "name": "Colegio Público San Martín de Tours", "place_id": "ChIJbQNZwDdNQA0RVZuouarGRvg", "plus_code": {"compound_code": "9H8V+MP San Martín de Valdeiglesias, Spain", "global_code": "8CGQ9H8V+MP"}, "reference": "ChIJbQNZwDdNQA0RVZuouarGRvg", "scope": "GOOGLE", "types": ["school", "point_of_interest", "establishment"], "vicinity": "Camino de la Aliseda, s/n, San Martín de Valdeiglesias"}, {"business_status": "OPERATIONAL", "geometry": {"location": {"lat": 40.35595899999999, "lng": -4.378901799999999}, "viewport": {"northeast": {"lat": 40.35874885000001, "lng": -4.378153569708497}, "southwest": {"lat": 40.35502904999998, "lng": -4.380851530291501}}}, "icon": "https://maps.gstatic.com/mapfiles/place_api/icons/v1/png_71/school-71.png", "icon_background_color": "#7B9EB0", "icon_mask_base_uri": "https://maps.gstatic.com/mapfiles/place_api/icons/v2/school_pinlet", "international_phone_number": "+34 624 07 10 03", "name": "Centro de Actividades y Granja Escuela Nuestra Tierra", "opening_hours": {"open_now": false}, "photos": [{"height": 1375, "html_attributions": ["<a href=\"https://maps.google.com/maps/contrib/107810339514503415171\">Centro de Actividades y Granja Escuela Nuestra Tierra</a>"], "photo_reference": "AWn5SU77_aZWTDEV1zESMbGWK_1HRyc-uWMpe8py0wloOczsxxXXdEITwA-en_ygJowqt2ZgKTUa-9DIMpo1WprSHZXUBCnd2flDY7ErfmQNlatM26HeN4wX3YbJEpnVb7gcmOE5qhK769Xb3SUGEmJpH9CBBRaG5qbZjmGqR1ocxHRytwemdc_lRqmViijB17jTjjqrup_zpsiK3THBPBpdul26YbrWRQHLuVaKK9mLrqyLrjxy8EhlkcPb7_-juKSi_f-9MsHylTPHLi0jYK0SecBg8KuIgT18V1P3VvP_fn4Xj6gCuO6CkA0HsxXk2ufIUKj3lUAFFTE", "width": 2048}], "place_id": "ChIJ3eGkqd2yQQ0R2Lz9IJ_Vs8s", "plus_code": {"compound_code": "9J4C+9C San Martín de Valdeiglesias, Spain", "global_code": "8CGQ9J4C+9C"}, "rating": 4.5, "reference": "ChIJ3eGkqd2yQQ0R2Lz9IJ_Vs8s", "scope": "GOOGLE", "types": ["lodging", "school", "point_of_interest", "establishment"], "user_ratings_total": 139, "vicinity": "Camino del Riscadero, S/N, San Martín de Valdeiglesias"}, {"business_status": "OPERATIONAL", "geometry": {"location": {"lat": 40.3611661, "lng": -4.394011}, "viewport": {"northeast": {"lat": 40.3624444302915, "lng": -4.392651419708498}, "southwest": {"lat": 40.3597464697085, "lng": -4.395349380291503}}}, "icon": "https://maps.gstatic.com/mapfiles/place_api/icons/v1/png_71/school-71.png", "icon_background_color": "#7B9EB0", "icon_mask_base_uri": "https://maps.gstatic.com/mapfiles/place_api/icons/v2/school_pinlet", "international_phone_number": "+34 918 62 83 45", "name": "Highgrove Academy", "place_id": "ChIJ434PZlmtQQ0R3O-1NoImdh8", "plus_code": {"compound_code": "9J64+F9 San Martín de Valdeiglesias, Spain", "global_code": "8CGQ9J64+F9"}, "reference": "ChIJ434PZlmtQQ0R3O-1NoImdh8", "scope": "GOOGLE", "types": ["school", "point_of_interest", "establishment"], "vicinity": "Spain"}, {"business_status": "OPERATIONAL", "geometry": {"location": {"lat": 40.35858, "lng": -4.400539999999999}, "viewport": {"northeast": {"lat": 40.3599459302915, "lng": -4.399048019708498}, "southwest": {"lat": 40.3572479697085, "lng": -4.401745980291502}}}, "icon": "https://maps.gstatic.com/mapfiles/place_api/icons/v1/png_71/school-71.png", "icon_background_color": "#7B9EB0", "icon_mask_base_uri": "https://maps.gstatic.com/mapfiles/place_api/icons/v2/school_pinlet", "international_phone_number": "+34 918 61 22 03", "name": "Escuela Infantil El Olivar", "place_id": "ChIJ2Q-0YjJNQA0RZVqj932tMPU", "plus_code": {"compound_code": "9H5X+CQ San Martín de Valdeiglesias, Spain", "global_code": "8CGQ9H5X+CQ"}, "reference": "ChIJ2Q-0YjJNQA0RZVqj932tMPU", "scope": "GOOGLE", "types": ["school", "point_of_interest", "establishment"], "vicinity": "Calle las Afiladeras, 18, San Martín de Valdeiglesias"}, {"business_status": "OPERATIONAL", "geometry": {"location": {"lat": 40.36247369999999, "lng": -4.4048029}, "viewport": {"northeast": {"lat": 40.3640497802915, "lng": -4.403217319708498}, "southwest": {"lat": 40.3613518197085, "lng": -4.405915280291502}}}, "icon": "https://maps.gstatic.com/mapfiles/place_api/icons/v1/png_71/school-71.png", "icon_background_color": "#7B9EB0", "icon_mask_base_uri": "https://maps.gstatic.com/mapfiles/place_api/icons/v2/school_pinlet", "international_phone_number": "+34 918 61 01 45", "name": "IES Pedro de Tolosa", "opening_hours": {"open_now": false}, "photos": [{"height": 568, "html_attributions": ["<a href=\"https://maps.google.com/maps/contrib/107911062651099056149\">IES Pedro de Tolosa</a>"], "photo_reference": "AWn5SU7iM4zqlMQZLu6pGTSixr9kNvuvSm9opjknP-l_aifCewQ3NIb8LM9nlj2eNQ0_msG4bzPXb9mKW81-y3Tf4XYXwWbKfEnu4IWdS1USeqtily0wgykTWWpgaZV2IhFwS8PB4YZXiZWobkIoEdKWvSiwytvJWf2b_2q7JKrjtBRUKdkIom-EwMSSuPsPoR6SMXJOFKr96I4kiDphbIK8m8xKmJb1hf2CZW71fO72cONucmrpJ_BpvYmCkubiawzj-DTqzeOw9ECZFmfnA8TrAgRlfmAutL-qrQIUcw5xuW4VAfJFi64-G2CbKnnpGV19Vg-MY5Nb00k", "width": 960}], "place_id": "ChIJfa3TMDFNQA0RL3w4sRSu72I", "plus_code": {"compound_code": "9H6W+X3 San Martín de Valdeiglesias, Spain", "global_code": "8CGQ9H6W+X3"}, "reference": "ChIJfa3TMDFNQA0RL3w4sRSu72I", "scope": "GOOGLE", "types": ["secondary_school", "school", "point_of_interest", "establishment"], "vicinity": "Calle de los Estudios, 1, San Martín de Valdeiglesias"}, {"business_status": "OPERATIONAL", "geometry": {"location": {"lat": 40.3630055, "lng": -4.328660199999999}, "viewport": {"northeast": {"lat": 40.36428383029149, "lng": -4.327269769708497}, "southwest": {"lat": 40.3615858697085, "lng": -4.329967730291502}}}, "icon": "https://maps.gstatic.com/mapfiles/place_api/icons/v1/png_71/school-71.png", "icon_background_color": "#7B9EB0", "icon_mask_base_uri": "https://maps.gstatic.com/mapfiles/place_api/icons/v2/school_pinlet", "international_phone_number": "+34 918 64 52 47", "name": "Colegio Público Río Alberche", "opening_hours": {"open_now": false}, "place_id": "ChIJ014bLjqyQQ0RDu9-zERREQo", "plus_code": {"compound_code": "9M7C+6G Pelayos de la Presa, Spain", "global_code": "8CGQ9M7C+6G"}, "reference": "ChIJ014bLjqyQQ0RDu9-zERREQo", "scope": "GOOGLE", "types": ["school", "point_of_interest", "establishment"], "vicinity": "Avenida Arquitecto Mariano García Benito, 1, Pelayos de la Presa"}, {"business_status": "OPERATIONAL", "geometry": {"location": {"lat": 40.36381149999999, "lng": -4.3999386}, "viewport": {"northeast": {"lat": 40.36505528029149, "lng": -4.398824169708497}, "southwest": {"lat": 40.36235731970849, "lng": -4.401522130291501}}}, "icon": "https://maps.gstatic.com/mapfiles/place_api/icons/v1/png_71/school-71.png", "icon_background_color": "#7B9EB0", "icon_mask_base_uri": "https://maps.gstatic.com/mapfiles/place_api/icons/v2/school_pinlet", "international_phone_number": "+34 918 61 05 52", "name": "Colegio Publico Virgen de la Nueva", "photos": [{"height": 6144, "html_attributions": ["<a href=\"https://maps.google.com/maps/contrib/101289206021694224875\">Zanther Bull</a>"], "photo_reference": "AWn5SU47TqOlTVf9Rl33ymT-vwr9rF2vUJJ7cGywEnB6gB6yX9EbtFm9-NjisHsRvIuF7B_LUr_59AAuvq1deFh0oX1J2i6HA7dTnTH6mu45Ba0cdcCvHBk_982v71uuvSrhIk8RFwVUkfakmJLR5i3zPgTnmn6ksEabKA7cFBVlmOK7doSRKLBotmAyD_P7yl_2Pi8P6d8drPrg-ZAS5k0hvpZN2yw7_RYk3-WKojD74aN1tRFC-JNgaE96JRcQ3i4hSNeX6sAPAhqQUWEAWnNrxGR4xVTkAo0GN-AW2U7SKqx1CimssWuUf0nick3zV3jEQhqS2Q7xVzCz2GR_-JffDUSyo6_fd12lXhpLnbrelBfAZiwXGiXqiBvF3_KYE08kIH-ajRBr_T7Z8DBK_YrglR_B21n3oTkxc_DlVcaUl4oLVL03-S7QS2prM2_-p1XczwEHEkqdVbHolZIoz3UvU-W6E-ur_6NRTiB5nInqNlbSif_AfPm71TyQSzo5rvN34BJsFB9tIWxzvzDk8OJh-istMjAJ99Jw6stxnN-hgGQCzalHC8SehdDJrZU6ZEYMKW3Te1vZHTKfluoRAvkZAU3NrqpRoWi_bpLU6dZMFuRcpcBn0NEOigwEGmKmeY5Xya8XqQ", "width": 8160}], "place_id": "ChIJbeIDnDRNQA0R4V5kq6VQl50", "plus_code": {"compound_code": "9J72+G2 San Martín de Valdeiglesias, Spain", "global_code": "8CGQ9J72+G2"}, "reference": "ChIJbeIDnDRNQA0R4V5kq6VQl50", "scope": "GOOGLE", "types": ["school", "point_of_interest", "establishment"], "vicinity": "Avenida del, Calle del Doctor Félix Rodríguez de la Fuente, 2, San Martín de Valdeiglesias"}, {"business_status": "OPERATIONAL", "geometry": {"location": {"lat": 40.3654465, "lng": -4.3982111}, "viewport": {"northeast": {"lat": 40.3667349302915, "lng": -4.396857719708497}, "southwest": {"lat": 40.3640369697085, "lng": -4.399555680291502}}}, "icon": "https://maps.gstatic.com/mapfiles/place_api/icons/v1/png_71/school-71.png", "icon_background_color": "#7B9EB0", "icon_mask_base_uri": "https://maps.gstatic.com/mapfiles/place_api/icons/v2/school_pinlet", "international_phone_number": "+34 918 61 08 08", "name": "Escuela De Educación Infantil Casa De Niños La Luna", "photos": [{"height": 1548, "html_attributions": ["<a href=\"https://maps.google.com/maps/contrib/112169660466648202642\">Ayuntamiento San Martín de Valdeiglesias</a>"], "photo_reference": "AWn5SU4hfYSqfKgViMgSaEuS50YK5NGndsYpG1FlRr67vI1waAYyWFsNFXHLA9VnKYbKgUqfTAlKms-nD7I6XLsOZsbW7HOsZuTrr6s9zhEjtmCoQxgiMFrGpuyFxxAO_VLPNPgOT8OJqA-kcg2nJCZbH_-g-XD8rDDmpmL57_13HgzeddyAockroTxqnMND2xnqxKkVkQSumodSf2Ie1NmZ9Oz3-F0__QcS4c6guGbyMYu6iWu8AauBfXC7CADe4uf68WmxLt0XOpPzc0VU5a4V-y9oxYQ2czntRrgtS1JgrhC6YwABq-dGKDykJJVFX_9_I-oJImgnhvOAKNQn3NwOZPryOvO6JVqzwwSWq_tsvU6dYKytFs3RtAVS4UoDpwM7xB2LCbl_cEPKsX9ZOAUzNSz6FUavHHO97Yy-YW-aDC8hxM1yydMl404zmvm_Jlj2xaMDB-mwfNRHCJ4zfyRi_xfBxt90B4Eme5BUbFGrFtl_bUTbGzsguMYhZv9f8MQTgpSCW1uJh5Nm6RaYDLPJpWSyZuVwQMRBTf5eRkiq4-gvLXiSWnH5tukXHMJJxZx0pVyele7gY4f2aNtE0dRbw5e9KXPoea4LQwK8RL5LaXHCpmBoWxLBshMBp_OIRrjkRR3TXw", "width": 2064}], "place_id": "ChIJDRbos8uyQQ0RF01O1mIAy9M", "plus_code": {"compound_code": "9J82+5P San Martín de Valdeiglesias, Spain", "global_code": "8CGQ9J82+5P"}, "reference": "ChIJDRbos8uyQQ0RF01O1mIAy9M", "scope": "GOOGLE", "types": ["school", "point_of_interest", "establishment"], "vicinity": "Avenida del Ferrocarril, 0, San Martín de Valdeiglesias"}, {"business_status": "OPERATIONAL", "geometry": {"location": {"lat": 40.3601539, "lng": -4.404324400000001}, "viewport": {"northeast": {"lat": 40.3616037802915, "lng": -4.402965669708498}, "southwest": {"lat": 40.3589058197085, "lng": -4.405663630291503}}}, "icon": "https://maps.gstatic.com/mapfiles/place_api/icons/v1/png_71/school-71.png", "icon_background_color": "#7B9EB0", "icon_mask_base_uri": "https://maps.gstatic.com/mapfiles/place_api/icons/v2/school_pinlet", "international_phone_number": "+34 918 61 01 45", "name": "Escuela de Hostelería IES Pedro de Tolosa", "opening_hours": {"open_now": false}, "photos": [{"height": 590, "html_attributions": ["<a href=\"https://maps.google.com/maps/contrib/109729906742489804791\">Escuela de Hostelería IES Pedro de Tolosa</a>"], "photo_reference": "AWn5SU7EycQ1w65iIBNTNUgKfpuGS5vBQ8hhnhcEvFyAeK137ZQUjNScaAi_sZoVlhYwwBBeBSyfW5oKKiK_apHbUe7ndl7qJEz06rR_wBbtZMPm9ZscJvGi4DRplo9--n_dUC7FEq-sM0dNAf25lAUqzvcXpQjU8Wai0X9T8dLbd0gQTL3YznWkq9WRv6Wht0VbdqY6EUewvk7R5bb6m2oJNvIRRVoftlVQuasRzuiWzmS9Y7KX4NQu5izowCdHJPkKjW2IThhtZbL8Ul5IZDtYkd6pFiZZeg7O-WI_hYBweKlJq4NdT-CIcdc2h3afJPdmD3oyhzgz4Mg", "width": 1080}], "place_id": "ChIJLV8a-3RNQA0RdxcDaYooxmA", "plus_code": {"compound_code": "9H6W+37 San Martín de Valdeiglesias, Spain", "global_code": "8CGQ9H6W+37"}, "reference": "ChIJLV8a-3RNQA0RdxcDaYooxmA", "scope": "GOOGLE", "types": ["school", "point_of_interest", "establishment"], "vicinity": "Carretera de Toledo, San Martín de Valdeiglesias"}, {"business_status": "OPERATIONAL", "geometry": {"location": {"lat": 40.3637513, "lng": -4.330867599999999}, "viewport": {"northeast": {"lat": 40.3651163802915, "lng": -4.329523819708498}, "southwest": {"lat": 40.3624184197085, "lng": -4.332221780291502}}}, "icon": "https://maps.gstatic.com/mapfiles/place_api/icons/v1/png_71/school-71.png", "icon_background_color": "#7B9EB0", "icon_mask_base_uri": "https://maps.gstatic.com/mapfiles/place_api/icons/v2/school_pinlet", "international_phone_number": "+34 918 64 55 32", "name": "Escuela de Educación Infantil Casa de Niños Los Cascabeles", "place_id": "ChIJoab31zuyQQ0RBQVeOq3MxJA", "plus_code": {"compound_code": "9M79+GM Pelayos de la Presa, Spain", "global_code": "8CGQ9M79+GM"}, "reference": "ChIJoab31zuyQQ0RBQVeOq3MxJA", "scope": "GOOGLE", "types": ["school", "point_of_interest", "establishment"], "vicinity": "Camino San Ramón, 2, Pelayos de la Presa"}, {"business_status": "OPERATIONAL", "geometry": {"location": {"lat": 40.3704382, "lng": -4.321283800000001}, "viewport": {"northeast": {"lat": 40.3716820302915, "lng": -4.319917269708499}, "southwest": {"lat": 40.3689840697085, "lng": -4.322615230291504}}}, "icon": "https://maps.gstatic.com/mapfiles/place_api/icons/v1/png_71/school-71.png", "icon_background_color": "#7B9EB0", "icon_mask_base_uri": "https://maps.gstatic.com/mapfiles/place_api/icons/v2/school_pinlet", "international_phone_number": "+34 606 60 91 81", "name": "Navega San Juan", "photos": [{"height": 1267, "html_attributions": ["<a href=\"https://maps.google.com/maps/contrib/116727688072695075005\">Navega San Juan</a>"], "photo_reference": "AWn5SU7rz__uHgMD1CVeDBkjk_Du3vVgryGhn6CjwUcJS6wyAdMm7KYzcSPgwbmn4Y3S7EWmrfTu-RhSEvZZjKIfYMcHRHxx4UfMrI-1NZL2srzrfvRjKc9DuHvR922TmnVpI3xH_073b6Xs4dYTy8CfBygYoMgU8i3WaHh3zCpXseBDGyFQPZBcMbHiJp-21QtuPbb-AzYtozA0DjNT10TtLLKD4YDL2opKTT-JGfCwWnRa_s-KSDeF0CkxZxMKujAdTS29pMDhTyMde5bmKx1Dl9YVLNTKRqkXRjhv9ypWu3B3Rn68AFz2TjGlBnIaDEMNxLXxQ9oDdYc", "width": 1900}], "place_id": "ChIJLwXSYF-zQQ0R9zM8z-KEV20", "plus_code": {"compound_code": "9MCH+5F Pelayos de la Presa, Spain", "global_code": "8CGQ9MCH+5F"}, "reference": "ChIJLwXSYF-zQQ0R9zM8z-KEV20", "scope": "GOOGLE", "types": ["school", "point_of_interest", "establishment"], "vicinity": "Carretera del Pantano"}, {"business_status": "OPERATIONAL", "geometry": {"location": {"lat": 40.3700839, "lng": -4.3207869}, "viewport": {"northeast": {"lat": 40.3714252802915, "lng": -4.319457619708497}, "southwest": {"lat": 40.3687273197085, "lng": -4.322155580291501}}}, "icon": "https://maps.gstatic.com/mapfiles/place_api/icons/v1/png_71/school-71.png", "icon_background_color": "#7B9EB0", "icon_mask_base_uri": "https://maps.gstatic.com/mapfiles/place_api/icons/v2/school_pinlet", "international_phone_number": "+34 623 58 70 90", "name": "Wakeboard Madrid - Water Sports in Madrid", "opening_hours": {"open_now": false}, "photos": [{"height": 3472, "html_attributions": ["<a href=\"https://maps.google.com/maps/contrib/108552759973525221658\">H2O Aventura</a>"], "photo_reference": "AWn5SU5falEmkUHXLQgrfIVEnEMG0Hsrw2qSeAi91tvZN8Tcatl_HkdKV42IvpOac-bujG2CA6XLuKMklGLUO9KzowjO9aQBJJfiQKyKXhX6c9hq_UVSeg2x2QAwqE7PYz4CoGkBmB67MzFJKsh1Kpbr81Mu8Ax9dW2z50IwjypCRkltvE7zstzjtNf9AN88QGI4g88J6QaSsyFd-Mg8jTVVwNn2toRBUstVC53CdQ3KJ7tC0LVuOJqofwcsQok7XXJVZpaz_ZAM96AYTt4g9Q-6WS5Pf8WkQiAKQrysiz-Vca1DZKGpUY92ANmgKyBQemOfChO6ErbwgJssMpVtCdBa_OWBH5KcaneEqXxdQntQ4GAM6fY23ZKFVVi9_aj66kG4DJOGg5BPyrs3SXWS_8hWe_mlDmXonYNRWm-AZJSyOUbD81ifM8h3ToKEVfldaEGfqkGP7yG-DnloQPQebXPrj8hM5yr6wdhChptRYAFO0_YZY8IL2qoctnJLCIc9FUohNiInoR2ds0v8W2dgaP_BCL1pjEK7QRyBami5ICOqXsZs064MicYXs_Z5aVxUKczK8-qGp5TC2uTCCNAGaNxyxLuUCFXbrqAgAOFgxmg1TFo3srDQ9lWiXTQ2BfIOqv_LhfxsOw", "width": 3472}], "place_id": "ChIJ22-8bwizQQ0Rpa1NLJJC30E", "plus_code": {"compound_code": "9MCH+2M Pelayos de la Presa, Spain", "global_code": "8CGQ9MCH+2M"}, "rating": 5, "reference": "ChIJ22-8bwizQQ0Rpa1NLJJC30E", "scope": "GOOGLE", "types": ["school", "point_of_interest", "establishment"], "user_ratings_total": 1, "vicinity": "Carretera del Pantano, Pelayos de la Presa"}]