[{"geometry": {"location": {"lat": 41.0117046, "lng": -3.4451018}, "viewport": {"northeast": {"lat": 41.01423834550244, "lng": -3.443486506415927}, "southwest": {"lat": 41.00931233165103, "lng": -3.446890022020551}}}, "icon": "https://maps.gstatic.com/mapfiles/place_api/icons/v1/png_71/geocode-71.png", "icon_background_color": "#7B9EB0", "icon_mask_base_uri": "https://maps.gstatic.com/mapfiles/place_api/icons/v2/generic_pinlet", "name": "Puebla de la Sierra", "photos": [{"height": 3000, "html_attributions": ["<a href=\"https://maps.google.com/maps/contrib/113004244440901844299\">Gabriel Martin Alvarez</a>"], "photo_reference": "AWn5SU6YfqfaCVN3827MrnBndJAJKScI95NhkQMZWiu2ZXZPoH_RCKVgw_Q5lS5NrdSXChKPb3iRW3UvR2zp9GBxWgnuFXKr-AtseDzBRGIO9EXLaqjXNPAlokT_ODNCPSFnxFUFEutc9QA81l5DYUlGqMbRxN8Ak7krzYivDGaP7KsxnS1o0sNbEFnoWH4Euv_caPrD772XJRXDgPsQ-fZAaEjFaqoCUEoCV_-m0I1l6wcAQfVB2O_PWXjiUJidpzXDIDrK7-FISlIdcsuwI7vssN2hov8NERcd9AqWGaq4iWopSFAzM4Trx0shajl1eGrEe-VIIv6LTjsRy96yLcqsJhxrqQ6KMxIM3n_p54cnzxSuA0dzSd9XBcXpdqRpOtTglhkZsM67uuILCweStrbbafCcyPj8eyD8GhH-5BZXzxISWvFgi8u2mrYstEGvoZb9mDAhgygSZrBPue5GwJBi72UrABtoeeL87XABeACbE9HTjKGZm3os82wm4XpICZeBTRz1xL6ZXLD90AjkrTTWWV3Jef-mZc8HTXKZKfzj-KWZLGpcuUEomJTdVGaFpLkkoRrjPlt1fUOSRZmEBVZg85w3qTsy6Vq8F7DyV3PJ374TuqjSW8-VgGPVqeFeq0oiQr8c-k67", "width": 4000}], "place_id": "ChIJQ89-cezsQw0RB9HBm2frLD4", "reference": "ChIJQ89-cezsQw0RB9HBm2frLD4", "scope": "GOOGLE", "types": ["locality", "political"], "vicinity": "Puebla de la Sierra"}, {"business_status": "OPERATIONAL", "geometry": {"location": {"lat": 41.0134205, "lng": -3.4518399}, "viewport": {"northeast": {"lat": 41.0160155, "lng": -3.450491819708498}, "southwest": {"lat": 41.0125555, "lng": -3.453189780291502}}}, "icon": "https://maps.gstatic.com/mapfiles/place_api/icons/v1/png_71/generic_business-71.png", "icon_background_color": "#7B9EB0", "icon_mask_base_uri": "https://maps.gstatic.com/mapfiles/place_api/icons/v2/generic_pinlet", "international_phone_number": "+34 689 43 21 88", "name": "El Molino De Arriba", "opening_hours": {"open_now": true}, "photos": [{"height": 1080, "html_attributions": ["<a href=\"https://maps.google.com/maps/contrib/116351559179025422978\">Yanqi Song</a>"], "photo_reference": "AWn5SU5P5UTSHkDKZfKYDqBiiOmAVmyyZQGDoKmY0aGVQBuvq_QZumO6Z5ZJTTIceAX3Dl8Z0c-CMVhYI0c6XXPQneYYyeTJrW6DL-FIPsJeAuhdHGnczOrcjKTZzwev_C0AMXSRl87DsDTHBWeT9N8TOv29EtgGe9HT7TKNJBtqLGY1dCk2m0jmOrBdKTfQFmOumG9pFGnGHYAxeTPaMwwc15z88pd5Wq03BWS9DQlqZ2SB55KGbttSPrNU1X9t0bEOrnYHahrG4a2wwoRsXU61FnLGV2XDXMx8PXTdFaW-0hXNtmZY5r7WVezH5r3v5bdKxXvpK2j7b7B1aN3Pcx1pLsMJmZqSaUQlssp1ItYoOtsDukS7ZUZCY16My-jJZ0TC3h3YNRt6NhjXcZtJ3NpA2jD1c4vrZSuyKkWxMrb2_PJ652m5bpsHxzFByozcq20KpZFXLER0tCLBrj411tXU8upU5E6aUc0uWMDBE4k0ZucGwGrAfKDjDM7yzb5-fasblXdAt6zJADQ1Mi2OrW3d9wqE8iOt8W_21mSR2Ib3VQ6iYXVb-W9t1LuiVrIQ9F5GM_MafRaO5oB40sQKsaOaKoCk66YpgKy-k5RExepw20aNxd_3lLSGsdBT0ced2H5vXbfhPg", "width": 1920}], "place_id": "ChIJG9cQHuzsQw0RzqqMyYPq2VM", "plus_code": {"compound_code": "2G7X+97 Puebla de la Sierra, Spain", "global_code": "8CHR2G7X+97"}, "rating": 5, "reference": "ChIJG9cQHuzsQw0RzqqMyYPq2VM", "scope": "GOOGLE", "types": ["point_of_interest", "food", "establishment"], "user_ratings_total": 10, "vicinity": "Carretera Pradena, Km. 18, 800, Puebla de la Sierra"}, {"business_status": "OPERATIONAL", "geometry": {"location": {"lat": 41.0120847, "lng": -3.4443856}, "viewport": {"northeast": {"lat": 41.0134335802915, "lng": -3.443037069708498}, "southwest": {"lat": 41.01073561970851, "lng": -3.445735030291502}}}, "icon": "https://maps.gstatic.com/mapfiles/place_api/icons/v1/png_71/lodging-71.png", "icon_background_color": "#909CE1", "icon_mask_base_uri": "https://maps.gstatic.com/mapfiles/place_api/icons/v2/hotel_pinlet", "international_phone_number": "+34 679 42 39 09", "name": "Madre Tierra", "opening_hours": {"open_now": true}, "photos": [{"height": 1152, "html_attributions": ["<a href=\"https://maps.google.com/maps/contrib/108771876686855005670\">MADRE TERRA</a>"], "photo_reference": "AWn5SU5qPOILIyzZF600Cr45g9gWO4mq7X1HI3IOrBisJT8u3OXyYSSsYX-fIUjRsaXoYBYjyIdeYFazLbkwIuYCwWINs2kfy0VNSV-z_NWBYUQ5G5ARquXdjO40NpIsR7iFjIRAHLDnKJD9v4tpByM6Z1iwqQAgRsucTlKn7Y_n8VsLDYrKY8gRlZARqdRePlJ7uFbaMAQPAPBMo7gsqDEmjuMan274VrWcTb96JR1WtHrKzKWi7XUXBrmdJ1U8b8oXfN_vdahFvC4hd79i4kPJeCsZs18FuoIVy2iEcx2fu_5zhwec2gdr_sazqXdsTrCmjEkFEl5mgEk", "width": 2048}], "place_id": "ChIJeWI28-vsQw0RGkH6FqcZ9U0", "plus_code": {"compound_code": "2H64+R6 Puebla de la Sierra, Spain", "global_code": "8CHR2H64+R6"}, "rating": 3, "reference": "ChIJeWI28-vsQw0RGkH6FqcZ9U0", "scope": "GOOGLE", "types": ["lodging", "point_of_interest", "establishment"], "user_ratings_total": 17, "vicinity": "Calle del Pradillo, 3, Puebla de la Sierra"}, {"business_status": "OPERATIONAL", "geometry": {"location": {"lat": 41.0120435, "lng": -3.4449096}, "viewport": {"northeast": {"lat": 41.01337323029149, "lng": -3.443532369708498}, "southwest": {"lat": 41.01067526970849, "lng": -3.446230330291502}}}, "icon": "https://maps.gstatic.com/mapfiles/place_api/icons/v1/png_71/generic_business-71.png", "icon_background_color": "#7B9EB0", "icon_mask_base_uri": "https://maps.gstatic.com/mapfiles/place_api/icons/v2/generic_pinlet", "name": "Puebla De La Sierra", "place_id": "ChIJByLSCuzsQw0RRN-YnQeQ3sM", "plus_code": {"compound_code": "2H64+R2 Puebla de la Sierra, Spain", "global_code": "8CHR2H64+R2"}, "reference": "ChIJByLSCuzsQw0RRN-YnQeQ3sM", "scope": "GOOGLE", "types": ["transit_station", "point_of_interest", "establishment"], "vicinity": "Spain"}, {"business_status": "OPERATIONAL", "geometry": {"location": {"lat": 41.0121059, "lng": -3.4450118}, "viewport": {"northeast": {"lat": 41.01342693029149, "lng": -3.443580469708498}, "southwest": {"lat": 41.0107289697085, "lng": -3.446278430291501}}}, "icon": "https://maps.gstatic.com/mapfiles/place_api/icons/v1/png_71/park-71.png", "icon_background_color": "#4DB546", "icon_mask_base_uri": "https://maps.gstatic.com/mapfiles/place_api/icons/v2/tree_pinlet", "name": "Puebla de la Sierra", "opening_hours": {"open_now": false}, "photos": [{"height": 4080, "html_attributions": ["<a href=\"https://maps.google.com/maps/contrib/114941907585238090395\">Silvia A</a>"], "photo_reference": "AWn5SU7NAyd6HINcdkqDqw0kVb3n0W8ElGvT75pFdJG8PvPpjm2PnoHtknk9AyKa2I-6ivMLjgZvjn6CseklFfjzVaC8EdjXS7KmkkwOGDfa9X0UuL2R5XitS74vhpZV2ghdebZPx0pcBa7s3R7HfYlXDlSpvvx38tx90ziFcav9vcpWSzG_ZGA1DYMfSmYVNA1Bl-OQnQInrjjgH-Yqk42c05uWsk-sPyiVTztXU02IwqyJPqjsQu7fUMmKiipF-r9DBSi23fUeJfkEYxXSkBl8xVCYzSQkLZMbaEy2GNod0W52uM3jqVuoZ7L_QbA4jPwEf530hWxk5qxKkBK2EcMbI-UXT9KKGOdblZSdKvGA2cWLcf0GefwvViY3Gw_OtSRem49y8evceuNfv6k9maU13f-WvEwzgE9m4RRzKyiHFfY51PXO05sA3TppEKF3-XL--NRYJ1mK41BZftTkZhsuPihVZCkYJD7_svbE8tpGrXxwlD2Bze1ksNuN49yvFx8rLFghUqSx5fCxMM-g4U9D9tPDJair6tt8z5rHC1-znGpWmriTqGz2_uL9Vy-qwskldDvkMhsu0Ik-pcvbqW6tHRB7YlB_gBEbeiZjvggcNiZx634tw5PC5CGijDCXNABQJh9By0mF9Djb8x3Szf1ABlYDRZc", "width": 3060}], "place_id": "ChIJ1zkjcfrtQw0Rw_J8DB0-XdU", "plus_code": {"compound_code": "2H63+RX Puebla de la Sierra, Spain", "global_code": "8CHR2H63+RX"}, "rating": 4.6, "reference": "ChIJ1zkjcfrtQw0Rw_J8DB0-XdU", "scope": "GOOGLE", "types": ["park", "point_of_interest", "establishment"], "user_ratings_total": 590, "vicinity": "Plaza de Carlos Ruiz, 1, Puebla de la Sierra"}, {"business_status": "OPERATIONAL", "geometry": {"location": {"lat": 41.0122056, "lng": -3.4449988}, "viewport": {"northeast": {"lat": 41.01346668029149, "lng": -3.443580269708499}, "southwest": {"lat": 41.0107687197085, "lng": -3.446278230291502}}}, "icon": "https://maps.gstatic.com/mapfiles/place_api/icons/v1/png_71/museum-71.png", "icon_background_color": "#13B5C7", "icon_mask_base_uri": "https://maps.gstatic.com/mapfiles/place_api/icons/v2/museum_pinlet", "name": "Museo de Dibujo, Obra Gráfica y Obra Contemporánea Japonesa", "photos": [{"height": 2448, "html_attributions": ["<a href=\"https://maps.google.com/maps/contrib/117514813937331350318\">yuichiro yoshida</a>"], "photo_reference": "AWn5SU5V-nVF0Md0s1Ydpg7YxHRhAupZU5UPMd4Gry4u4zXSOzYPTgbDvioLLEOg979RKcFKbphFCk_32cbBOznkkEekzchvTg000Dt0p5XugSwqMU1Ox-dUFdZv-7rP0PV68AYaJ1tmkiGexKo0TvzBByn3DPrbXhtbYX-qnmOvb7IVEtmZBB2Rtv1WdtizY808ORZsbk0-M3luRLjtGGknHpATezURe1pHkO67qWIoGw7qoHpLUgAwb4DvAjnU6YftDxmTU-ejA7DEUSbXOMBMMEr9qC3D4IuoK2Y6y-P-i9-j8ZN1FhG9nhQF4lu72dE8LgCQGSFxleZjPJolVSxVEjVk25YThUUzSB3N6tg1LKI3hzGGBryNS98crgnUIDmgSHHarqA1i3_ASC5p5kDwhjjYqxukvr6-IzcUxTqPguUCY2ypIfJYWVtCOPItceUFfkg3-oooczSNx7OFcTUQ5fg6LC2lx8djN48Dd02JMzSFJWlhQE7CsmpFCBffStJVQDnDgsmMREN8ig7JYOXWHfCRZocNZcDc0GwRRXs1yIjY0KSF_4w31xLacyBLXHPIA6s-CWQQmis2X_KSyi3M809M3CFNt9QgF6irEtcRStmAA1CKx_OLdd1EhhPemj6Ii-0FBTQWU8ReP2bzyg1gvspl0WY", "width": 3264}], "place_id": "ChIJYfvLCADtQw0RZT7Qqh6oKmI", "plus_code": {"compound_code": "2H64+V2 Puebla de la Sierra, Spain", "global_code": "8CHR2H64+V2"}, "reference": "ChIJYfvLCADtQw0RZT7Qqh6oKmI", "scope": "GOOGLE", "types": ["museum", "point_of_interest", "establishment"], "vicinity": "Plaza de Carlos Ruiz, 1, Puebla de la Sierra"}, {"business_status": "OPERATIONAL", "geometry": {"location": {"lat": 41.0122281, "lng": -3.4449845}, "viewport": {"northeast": {"lat": 41.01347793029149, "lng": -3.443574569708499}, "southwest": {"lat": 41.0107799697085, "lng": -3.446272530291502}}}, "icon": "https://maps.gstatic.com/mapfiles/place_api/icons/v1/png_71/civic_building-71.png", "icon_background_color": "#7B9EB0", "icon_mask_base_uri": "https://maps.gstatic.com/mapfiles/place_api/icons/v2/civic-bldg_pinlet", "international_phone_number": "+34 918 69 72 54", "name": "Ayuntamiento", "opening_hours": {"open_now": false}, "photos": [{"height": 2972, "html_attributions": ["<a href=\"https://maps.google.com/maps/contrib/101099853662667138786\">Miguel Lucio-V.M.</a>"], "photo_reference": "AWn5SU7KyXw0zDhWkO5I0Vha4c8ovkszljnEdfy5lSUcL3bLvwNgeUH5BLOjtEBlls2KMNLHl09RgZ3deTp-rRCFd-swNBuDANz_ouzEvS-IUdFpH7Px_Vf7DFKn6fhPNNOXKy-wjQ4_k2Vfyt-zLltENecu3Uni42FHBUaPF1PiuQMqZ6N8tthS6mcNbIHvQJSHICi5LMT-kkaY2ggXH3HuY833G_4eRFvNOtPGmLMf1Aq1CzgB2mxQKHp9ad6FDIK_P5KFCKzzrMTpXvi_84AS4RfrorIPdrQKXqJidCFQcqRQup4ddpDRVLM8ORqjooREce23CnHJHSwAHN8Ht3prnZa-vNhCCQPHdVh0hR_8Zkxpx_WOGCiuuRVTBKM5PZzLGm_7fKKUDgLsVNINB0WkDxHFJPA--K-Msn02krUhscW3eD28ijWJnFDw3zo0Dya6UDANKC4IjDJhTHG46ss7R3AIAsn8x-ZNVuImYIV-73LCR5Hxtt_4U_rRQSPQ9yvXBsgfOIevRTa438qICJyCB_CLFg9ZbZ_9Bv_sd37tbwY-v1bgZLrNGvrFqAjNRAHzft-a069YThQ953uC654vUl9el4P1l6uXDcANq53gXo6eysU_qU5L-sczxJvxd_wQOU2D4g", "width": 2550}], "place_id": "ChIJ8wjv14DtQw0RIqtunm7CX1M", "plus_code": {"compound_code": "2H64+V2 Puebla de la Sierra, Spain", "global_code": "8CHR2H64+V2"}, "rating": 5, "reference": "ChIJ8wjv14DtQw0RIqtunm7CX1M", "scope": "GOOGLE", "types": ["point_of_interest", "establishment"], "user_ratings_total": 1, "vicinity": "Plaza de Carlos Ruiz, 1, Puebla de la Sierra"}, {"business_status": "OPERATIONAL", "geometry": {"location": {"lat": 41.0120483, "lng": -3.4450894}, "viewport": {"northeast": {"lat": 41.0133775302915, "lng": -3.443616969708498}, "southwest": {"lat": 41.0106795697085, "lng": -3.446314930291502}}}, "icon": "https://maps.gstatic.com/mapfiles/place_api/icons/v1/png_71/restaurant-71.png", "icon_background_color": "#FF9E67", "icon_mask_base_uri": "https://maps.gstatic.com/mapfiles/place_api/icons/v2/restaurant_pinlet", "international_phone_number": "+34 910 29 24 04", "name": "La Posada de la Puebla", "opening_hours": {"open_now": false}, "photos": [{"height": 2268, "html_attributions": ["<a href=\"https://maps.google.com/maps/contrib/102217636275959917491\">óSKAr Contreras</a>"], "photo_reference": "AWn5SU7IfsnM5b4aPrND8QCQzKYlBxmRufQWWGWQIqZBcMtHZJeWoNsHqz7LjGWjGAyCjs6cJ8Yr7RzDEn1g0SC0HpgdtB-bMym5KnPL86HNeXd_mrEoyHfVw9BIaTVz8VjtreMV7iCp53ps6y1pxTmCI6k4O02M4Erc48Uy-6knasmR6w7cZgI1Twh-I9Ri6FCijRDCz1FhZ8BEpOZt9i06xxvCPeTorAzgjztU4-NXNrhK1WqG15Hawea7rzwKMnDnadnodw_GijRnwcdsmxpUmigajjVsx92zT4TWQlRkPIWj2Eh7B1ByjQ3UtnJQqTtYepXNG4nz-jNv9itH48g_3dpMGuerTANPwRftAfQPz_WAOyJdR4NavA-zMKiRUv4maLK-OmL4ZMJI-q72QPmcWIjakbUzjyWJPJcnmnmLMFwkEp-0Z5WAo9OWkutmjP_66SJSDWajj9LJcaaFqIixQljGiM9bCgWryznJRSIqZeCYUZCHt_LDavyCnFs5BSYGTxX457ckNMiZj8bTZqvCP-eUSXqpZ28gmTHmut-KKDS3mpPoM6fRRBcPc_jXEsEhQGSI2Hz1h1zVl7Wkpe2_SAfOZy7jrYw_LapwYTu7SeREMgYJZJWyFFLe_ctH5153", "width": 4032}], "place_id": "ChIJc0sGtNHtQw0ROaO7mWPP6qc", "plus_code": {"compound_code": "2H63+RX Puebla de la Sierra, Spain", "global_code": "8CHR2H63+RX"}, "rating": 4.6, "reference": "ChIJc0sGtNHtQw0ROaO7mWPP6qc", "scope": "GOOGLE", "types": ["restaurant", "point_of_interest", "food", "establishment"], "user_ratings_total": 73, "vicinity": "Plaza de Carlos Ruiz, Puebla de la Sierra"}, {"business_status": "OPERATIONAL", "geometry": {"location": {"lat": 41.0122061, "lng": -3.4450507}, "viewport": {"northeast": {"lat": 41.0134850802915, "lng": -3.443871769708498}, "southwest": {"lat": 41.0107871197085, "lng": -3.446569730291501}}}, "icon": "https://maps.gstatic.com/mapfiles/place_api/icons/v1/png_71/civic_building-71.png", "icon_background_color": "#7B9EB0", "icon_mask_base_uri": "https://maps.gstatic.com/mapfiles/place_api/icons/v2/civic-bldg_pinlet", "international_phone_number": "+34 918 69 72 54", "name": "Oficina de turismo Puebla de la Sierra", "opening_hours": {"open_now": false}, "place_id": "ChIJvTiRhjntQw0Rsb-YpupjcR0", "plus_code": {"compound_code": "2H63+VX Puebla de la Sierra, Spain", "global_code": "8CHR2H63+VX"}, "rating": 5, "reference": "ChIJvTiRhjntQw0Rsb-YpupjcR0", "scope": "GOOGLE", "types": ["local_government_office", "point_of_interest", "establishment"], "user_ratings_total": 4, "vicinity": "Puebla de la Sierra"}, {"business_status": "OPERATIONAL", "geometry": {"location": {"lat": 41.0122084, "lng": -3.4452086}, "viewport": {"northeast": {"lat": 41.0134862302915, "lng": -3.443945519708497}, "southwest": {"lat": 41.0107882697085, "lng": -3.446643480291501}}}, "icon": "https://maps.gstatic.com/mapfiles/place_api/icons/v1/png_71/worship_general-71.png", "icon_background_color": "#7B9EB0", "icon_mask_base_uri": "https://maps.gstatic.com/mapfiles/place_api/icons/v2/worship_christian_pinlet", "international_phone_number": "+34 918 69 70 42", "name": "Iglesia de la Purísima Concepción", "photos": [{"height": 2448, "html_attributions": ["<a href=\"https://maps.google.com/maps/contrib/111137210642009861686\">Manuel Lax</a>"], "photo_reference": "AWn5SU5T08Y9hcvuq1j5ZxfZEIvrbqHlXNHYRw0Au7jv_A-r4ykXd30AhlPEV8rX_GyHDPKEQ0L9drFXdPqnW3M__e99QV8cyG8-BZdTIlOTbPw_kch-Eu5S2H58gFAllPnMB97WJlNOiAogvj5BwqiRVBpkCTZocDGSmP7m13EeWI5T-p4M9rpTzxTgQsA4a5e4kmN4Wq8ee2tJOD-V23FkUuMWLhsAxlftI1WeeS3zkXplePPDjlHc13O9vgt4DV-vacly2fcpkSf9zeRTyltIYp59VfwuzKbYU5IoHPkwtzvKUBlwOaa1s7PFGLwNfmwQhfpirCqnV6TmC3jC1BDpmyiLTHmm8KrRI4zSeAV--KmrwxRGNs2r2fOMEB8M7p0T27t022wvEi8htv4tZTceffWrtUIPl0oYXPzfs5yzv1ih9se35y7kHHUB9OPyLpO3XaeSzR12NtZy4bV1rKJ7o4wzo7pMKLL4sOy8CjZjnqV33H_wmTMrhl0fl20krg6VDluCkDalEHoJeuFqNxuAYjjdXY7zG68AW2KabHYzpHgjqh3ckKEHG_gmxfDxMPhkF1D3RZi8hzFlW9-mYkK4p1IATE2M8TaP9dm_uvkuUOj5WGzFltSlp_EtDT9XIf-I", "width": 3856}], "place_id": "ChIJaSJbDOzsQw0RCZJ26pMJUb8", "plus_code": {"compound_code": "2H63+VW Puebla de la Sierra, Spain", "global_code": "8CHR2H63+VW"}, "rating": 4.8, "reference": "ChIJaSJbDOzsQw0RCZJ26pMJUb8", "scope": "GOOGLE", "types": ["church", "place_of_worship", "point_of_interest", "establishment"], "user_ratings_total": 8, "vicinity": "Plaza de la Iglesia, 1, Puebla de la Sierra"}, {"business_status": "OPERATIONAL", "geometry": {"location": {"lat": 41.011729, "lng": -3.4446}, "viewport": {"northeast": {"lat": 41.01308508029149, "lng": -3.443238819708498}, "southwest": {"lat": 41.01038711970849, "lng": -3.445936780291502}}}, "icon": "https://maps.gstatic.com/mapfiles/place_api/icons/v1/png_71/generic_business-71.png", "icon_background_color": "#13B5C7", "icon_mask_base_uri": "https://maps.gstatic.com/mapfiles/place_api/icons/v2/generic_pinlet", "name": "Fuente de Montejana", "opening_hours": {"open_now": true}, "photos": [{"height": 4000, "html_attributions": ["<a href=\"https://maps.google.com/maps/contrib/117308318678286719385\">Miguel Angel Moncholi Chaparro (mmoncholi)</a>"], "photo_reference": "AWn5SU4QpMMfMT-pzKQSHX_LerF6TtKjo77TjgqeQXLId578uTWSYVtDZiV8-kRWI-_V4tkPB-jIKDURnUhiRzR8uFR-Q4HMd1UT26xUnAqdLWNqzx6C38ZrWaFJtnIy9q6u0afluBzJoPZwirxTpfQth52Folnfy1Ff7I8ccICI3oVF111EmERiZOUaaW1JkNukv5c6mHi6O1Kw1FPYkNK78u5cQK7js2SkhW69ELQd8wRPbKxbYu48r8VwpsB4v-Rpq9i0lFqCGgqjzkKqVVNfaEccKJ9U3PWZvaji9JZ_oxw858xxB8qlgbPEm9iak5en4h9k-Of2mOGfR5kQjR4tu-b-b78kUhNIAwWQ9iJAOWuJYkbW4xoyeEaYyZ92SBfbAIpPdVY_O1BncTIBd9BtPRELSp0JyGYuWGP3DIlFpw-7FXcdAMinSe3x8kdxkzqZNldYTdYJID0ZF4hsA7sYUczOgwla0GPfpfuy5hSBb2eIjo6P5BJIh2AxBQlnPIDSZdB4WKfjE43kvFhBjGLaUxT2i2mCgWfNHQ03I6hxjKyXKKcgVwwy1ekfTALY18fp2X3IUQuUkLJzlhb82mKTkFnkhHYeYnHLn2RXDqCrvL1qM0_eJNOzztfj6jz-Gu3jUPDLFJ-5", "width": 2252}], "place_id": "ChIJ72OBTQDtQw0RQpDUXaCimWU", "plus_code": {"compound_code": "2H64+M5 Puebla de la Sierra, Spain", "global_code": "8CHR2H64+M5"}, "reference": "ChIJ72OBTQDtQw0RQpDUXaCimWU", "scope": "GOOGLE", "types": ["tourist_attraction", "point_of_interest", "establishment"], "vicinity": "Calle Mayor, 11, Puebla de la Sierra"}, {"business_status": "OPERATIONAL", "geometry": {"location": {"lat": 41.0117342, "lng": -3.4451166}, "viewport": {"northeast": {"lat": 41.0130838302915, "lng": -3.443770219708498}, "southwest": {"lat": 41.0103858697085, "lng": -3.446468180291502}}}, "icon": "https://maps.gstatic.com/mapfiles/place_api/icons/v1/png_71/bar-71.png", "icon_background_color": "#FF9E67", "icon_mask_base_uri": "https://maps.gstatic.com/mapfiles/place_api/icons/v2/bar_pinlet", "international_phone_number": "+34 918 69 72 53", "name": "Bar Bravo", "opening_hours": {"open_now": false}, "photos": [{"height": 2240, "html_attributions": ["<a href=\"https://maps.google.com/maps/contrib/111137210642009861686\">Manuel Lax</a>"], "photo_reference": "AWn5SU4EjryhT2ojGnSFXrmQd6dayZA0xxFRiS7yIbKXL1Z-_TglJ5EiOU6ApILdyhEY6fHOymB0_D3ScgEpR3BHBIP6B3yiBzVGxILTHLyDdhRAGiq5McLG_cg7AVFeIhJviaNIchFSgFTCD-w5aBK_GT-1FzN1adknCzdJ0p58pHuS5BJji9EEVQ0yIeKaaRtBCVvogNpe3WT_mNS7vPDC66e5xUbkb4S66RAmwVHb_1H8OrnKjX6F_DdOQ3Ia1h1JW3SUe-hzcIUoQPVnKwYPQmec_Zb6q6VzIkZmfRnIgl_IBMfzLhlGayYGDF3OI_4efPYD9HHXSn1iGNvKr87w_2vFIT-vbclJX2ml87FmmmQ3hIn6yXNRXHnMTY8UvwTJPXARkr0H7JDA_M-yKcxKSVzqpqyK9f8GgqwIW3MiByfw88tLx0KllOmx0CJLymY-mGbxRhhudZgRwWATUcD2tSbLEKiZ8JeSG373oGKpFLidrFNEz0-2sIdJq5f9YhEVY5DjrWkomMhc0fvhLda8OpZyguR0Eex6JuDWz7boFujgv0dNYIFQLHLfrn_IWlO5RL6kmoT7dq50rXKlICl4MOGj5RaD_DvKgwISlZYba-yhfYea4HLCsHwFvc5zO-g4wNAn_A", "width": 3968}], "place_id": "ChIJh5_5c-zsQw0RpAMLbSgou7U", "plus_code": {"compound_code": "2H63+MX Puebla de la Sierra, Spain", "global_code": "8CHR2H63+MX"}, "price_level": 1, "rating": 4.1, "reference": "ChIJh5_5c-zsQw0RpAMLbSgou7U", "scope": "GOOGLE", "types": ["bar", "point_of_interest", "establishment"], "user_ratings_total": 57, "vicinity": "Calle de la Placetilla, 8, Puebla de la Sierra"}, {"business_status": "OPERATIONAL", "geometry": {"location": {"lat": 41.01255829999999, "lng": -3.4443383}, "viewport": {"northeast": {"lat": 41.0139171302915, "lng": -3.442990469708498}, "southwest": {"lat": 41.0112191697085, "lng": -3.445688430291502}}}, "icon": "https://maps.gstatic.com/mapfiles/place_api/icons/v1/png_71/park-71.png", "icon_background_color": "#4DB546", "icon_mask_base_uri": "https://maps.gstatic.com/mapfiles/place_api/icons/v2/tree_pinlet", "name": "Nogal del Pradillo", "opening_hours": {"open_now": true}, "place_id": "ChIJ801TCvftQw0Rofwuhun56Rg", "plus_code": {"compound_code": "2H74+27 Puebla de la Sierra, Spain", "global_code": "8CHR2H74+27"}, "reference": "ChIJ801TCvftQw0Rofwuhun56Rg", "scope": "GOOGLE", "types": ["park", "point_of_interest", "establishment"], "vicinity": "Camino de la Pazuela, 8, Puebla de la Sierra"}, {"business_status": "OPERATIONAL", "geometry": {"location": {"lat": 41.01139169999999, "lng": -3.4445515}, "viewport": {"northeast": {"lat": 41.01279678029149, "lng": -3.443122619708498}, "southwest": {"lat": 41.0100988197085, "lng": -3.445820580291501}}}, "icon": "https://maps.gstatic.com/mapfiles/place_api/icons/v1/png_71/generic_business-71.png", "icon_background_color": "#7B9EB0", "icon_mask_base_uri": "https://maps.gstatic.com/mapfiles/place_api/icons/v2/generic_pinlet", "international_phone_number": "+34 918 69 60 04", "name": "Sociedad Cooperativa Madrileña los Apisquillos", "opening_hours": {"open_now": true}, "photos": [{"height": 2268, "html_attributions": ["<a href=\"https://maps.google.com/maps/contrib/101966479821010040652\">benedicto blazquez</a>"], "photo_reference": "AWn5SU7x4T_83XgM-zDzUEDIdsrDExYzfb3dgOBz_sLuP6WAE-kga7yGE30RdTRHrRZKScUL3Ph8YNax0UWdWJgEfUU2DLOKU6CMH0QgCro-TtHQvnF7xm3iw3kESonZl6lCOb5rTc3R1u-SixZ3LrOVmTWc6sUk9ycyxV4EHi_dZBz56xyIlW3pDbjUerCG8tY04x5bvs_7ONXbzc88GYy7jDc1sIc8ttaDK4sE5oUbqhT8cYiPJb6lZxjMovwHZEx12Wig1gBwQxuP5xMR0aX01sOCoD7XQ1HkLjPz7pqbd3cd3yE9exdUKgEinByzKkR1myx9Xjodgvt9V69_7Rq2MrxXp0shMBOPAUxTNCRwGHqxAHWlb2W95wMhETUVm_tndAMbhySOs-lbK8UQ8C90nGLrRChbU_49J0pxBwSUx8C6_bNDykOkJS9OwuEGI9dBv1rD_hY521AAh5xT8YWPsaufCnxPPuLfe2fdOWlevidNl9V7ts1QU11RNBh-ozx6JIrXloTAoJRIyVsiz61xr0oPLWcWXzDIL8oAc4E7J3KmdUhotwx7iK2SMRuOtR8Tsqm6rcZxq2CCM_NovXqAwB-C6SRPmET9i9Qczsl-vIGwWrzhC_rrpw-kC-5tlWNKeA_hyA", "width": 4032}], "place_id": "ChIJv73vh-vsQw0Rts6M1FJWpmE", "plus_code": {"compound_code": "2H64+H5 Puebla de la Sierra, Spain", "global_code": "8CHR2H64+H5"}, "rating": 4.8, "reference": "ChIJv73vh-vsQw0Rts6M1FJWpmE", "scope": "GOOGLE", "types": ["point_of_interest", "establishment"], "user_ratings_total": 6, "vicinity": "Calle Mayor, 50, Puebla de la Sierra"}, {"business_status": "OPERATIONAL", "geometry": {"location": {"lat": 41.01274889999999, "lng": -3.4443606}, "viewport": {"northeast": {"lat": 41.01405948029151, "lng": -3.443007669708498}, "southwest": {"lat": 41.01136151970851, "lng": -3.445705630291501}}}, "icon": "https://maps.gstatic.com/mapfiles/place_api/icons/v1/png_71/park-71.png", "icon_background_color": "#4DB546", "icon_mask_base_uri": "https://maps.gstatic.com/mapfiles/place_api/icons/v2/tree_pinlet", "name": "Senda por los Robles Centenarios", "opening_hours": {"open_now": true}, "photos": [{"height": 4624, "html_attributions": ["<a href=\"https://maps.google.com/maps/contrib/104499842413799843097\">Susana Rivas</a>"], "photo_reference": "AWn5SU52WRd83JOYk8VRyG464CDrYVh35r91L7wz4zc9tFG_bfxfkkv3daJaYtDxze1c4_DzuOd06lK_kLjRnlugtGyF-Sx6iBzUD1lknBUZ--UvY9h-R03M3S0fRF9uvbx8qjDknbq7rMqzK3mQxam7myiHM5IZVuk2qw_H0wnIDclTiFcco3vtuZkAi9MUUHTEVU0RjbLGD0PeIs3b5hhYNgSf0LpRHXHXCw5M4rJ_IkTlp8gvRes4A87rv_656ZsrYuDHsE19fs4Viz3j12Mp3IaY_FD3dxAzG8GBD4203BSZlvC0nnzkH0cs5VZRCiUDW5E154zOZtJVx7RomGfigSmdtlCxcuqPMokvk8Ykg8-dc1syBQT6BAu2UpnIG5SS0pujvZFo8yc6w1VccSOMGniZ3LUyLJA45qbxwgTvdHCgCHKTlrAlztzAIM0dp2mAPumW94k29_27lgHnSIyvKhs7OIDz8lyGNOGKzu_TDXT69h0du9A0H785AnYQ8INdu2o0wvKgvqryyaDlpNVNRvyd-Mtr0sLq0NNfbF_DSVwcCX6zCSgTrFNTw_jdRdGOsEP11L5nBjnAVEnc7E0AeysF_tsYEWKcnhZEo-HY9SAjvzYjDcImqse2KqhW9D6w_990vg", "width": 2136}], "place_id": "ChIJlWxlfNftQw0Rrb0YFS426A0", "plus_code": {"compound_code": "2H74+37 Puebla de la Sierra, Spain", "global_code": "8CHR2H74+37"}, "rating": 4.4, "reference": "ChIJlWxlfNftQw0Rrb0YFS426A0", "scope": "GOOGLE", "types": ["park", "point_of_interest", "establishment"], "user_ratings_total": 9, "vicinity": "Calle del Pradillo, 16, Puebla de la Sierra"}, {"business_status": "OPERATIONAL", "geometry": {"location": {"lat": 41.0111506, "lng": -3.4446322}, "viewport": {"northeast": {"lat": 41.0124934302915, "lng": -3.443277519708498}, "southwest": {"lat": 41.0097954697085, "lng": -3.445975480291501}}}, "icon": "https://maps.gstatic.com/mapfiles/place_api/icons/v1/png_71/museum-71.png", "icon_background_color": "#13B5C7", "icon_mask_base_uri": "https://maps.gstatic.com/mapfiles/place_api/icons/v2/museum_pinlet", "name": "Galería Museo El Candil", "opening_hours": {"open_now": false}, "photos": [{"height": 1600, "html_attributions": ["<a href=\"https://maps.google.com/maps/contrib/106716242307510800434\">Silvia Nogal</a>"], "photo_reference": "AWn5SU6kiGEqlo0dhmzjS2CZJ3kfA9BrBkd-44AkjnU25h-3UlheD4GjZ1u6TvCifIl6e2XhAqOp5Tc9zYZ3mBhhvPFg8LXiEI7pOPXcsKNnCr8DZZl4ps_t9n45qp6GeLwezm49QaxyjdgJ8MHXboqh3qrbD2-rHVlXfz7T3xYhP92jweiv3_-V6vLaYVYFPie5sWT9Fltqy2AwhFouzZJB49aqxZekup4BTb9WGmtgIvKoiwU8ZFBGWKOrw48E1nUFvZOZjYVAq8mkZt0anMKi2ExYHFJVNnUgeMpT5tTIIhC8LWdQ4D2RXa81_YDTRTzHOEG4XejWwvpS2ebMsN-UNeckYvVEk3HO1LNZEni1U-M4b2r_nmsAE-8pm1Yh4rYO1MSp5sUy2ffTP9eOGcd-I4Pk055sxj5U4vwE3-jfjoXHJ-WpOxG4jX9VviTr3bkdMLQJp6iSdbKWLbV_s5jPuHVP_3mqGBgD-Qb96uU5gewAWVdEzkARsJyFcBoQoopPrl-trZoRQvd3nrv22AK0uwbLscr2Aq_V7pc1_NtfDqb-zecGGSGgsDX7gey8kJdlItXE-rS1wQmJ3iNXkAsnaW3yoUhTkcEWQ2sk-VNHZfIGPDFGj0frr5wNCNlfTiJK4tb4dy3m", "width": 1200}], "place_id": "ChIJK3vRNJftQw0RXeWkeWguB5U", "plus_code": {"compound_code": "2H64+F4 Puebla de la Sierra, Spain", "global_code": "8CHR2H64+F4"}, "rating": 5, "reference": "ChIJK3vRNJftQw0RXeWkeWguB5U", "scope": "GOOGLE", "types": ["museum", "point_of_interest", "establishment"], "user_ratings_total": 2, "vicinity": "Calle del Prado, 3, Puebla de la Sierra"}, {"business_status": "OPERATIONAL", "geometry": {"location": {"lat": 41.011194, "lng": -3.4437622}, "viewport": {"northeast": {"lat": 41.0125332302915, "lng": -3.442422469708498}, "southwest": {"lat": 41.0098352697085, "lng": -3.445120430291502}}}, "icon": "https://maps.gstatic.com/mapfiles/place_api/icons/v1/png_71/generic_business-71.png", "icon_background_color": "#7B9EB0", "icon_mask_base_uri": "https://maps.gstatic.com/mapfiles/place_api/icons/v2/generic_pinlet", "name": "fuente con pilón", "place_id": "ChIJecNyRQDtQw0R9I9AIHe5s0o", "plus_code": {"compound_code": "2H64+FF Puebla de la Sierra, Spain", "global_code": "8CHR2H64+FF"}, "rating": 5, "reference": "ChIJecNyRQDtQw0R9I9AIHe5s0o", "scope": "GOOGLE", "types": ["point_of_interest", "establishment"], "user_ratings_total": 1, "vicinity": "M130, 54-56, Puebla de la Sierra"}, {"business_status": "OPERATIONAL", "geometry": {"location": {"lat": 41.01306789999999, "lng": -3.4458189}, "viewport": {"northeast": {"lat": 41.01438033029149, "lng": -3.444473269708498}, "southwest": {"lat": 41.0116823697085, "lng": -3.447171230291502}}}, "icon": "https://maps.gstatic.com/mapfiles/place_api/icons/v1/png_71/civic_building-71.png", "icon_background_color": "#7B9EB0", "icon_mask_base_uri": "https://maps.gstatic.com/mapfiles/place_api/icons/v2/civic-bldg_pinlet", "name": "Base incendios Puebla de la Sierra (Bomberos Comunidad de Madrid)", "place_id": "ChIJy8KX1jPtQw0R1QNXUtf5Bw0", "plus_code": {"compound_code": "2H73+6M Puebla de la Sierra, Spain", "global_code": "8CHR2H73+6M"}, "reference": "ChIJy8KX1jPtQw0R1QNXUtf5Bw0", "scope": "GOOGLE", "types": ["point_of_interest", "establishment"], "vicinity": "Calle de las Delicias, 2X, Puebla de la Sierra"}, {"business_status": "OPERATIONAL", "geometry": {"location": {"lat": 41.0125258, "lng": -3.446600499999999}, "viewport": {"northeast": {"lat": 41.01403373029149, "lng": -3.445255169708498}, "southwest": {"lat": 41.0113357697085, "lng": -3.447953130291502}}}, "icon": "https://maps.gstatic.com/mapfiles/place_api/icons/v1/png_71/generic_business-71.png", "icon_background_color": "#7B9EB0", "icon_mask_base_uri": "https://maps.gstatic.com/mapfiles/place_api/icons/v2/generic_pinlet", "name": "Sports Field", "place_id": "ChIJ__-_OuzsQw0RA56VmhdMZs0", "plus_code": {"compound_code": "2H73+29 Puebla de la Sierra, Spain", "global_code": "8CHR2H73+29"}, "reference": "ChIJ__-_OuzsQw0RA56VmhdMZs0", "scope": "GOOGLE", "types": ["point_of_interest", "establishment"], "vicinity": "Calle de las Delicias, 5, Puebla de la Sierra"}, {"geometry": {"location": {"lat": 41.0375, "lng": -3.397222}, "viewport": {"northeast": {"lat": 41.04591571075954, "lng": -3.381214576228582}, "southwest": {"lat": 41.02908321314309, "lng": -3.413229423771417}}}, "icon": "https://maps.gstatic.com/mapfiles/place_api/icons/v1/png_71/geocode-71.png", "icon_background_color": "#7B9EB0", "icon_mask_base_uri": "https://maps.gstatic.com/mapfiles/place_api/icons/v2/generic_pinlet", "name": "La Vihuela", "place_id": "ChIJg3OcqeeSQw0RdAimb7VIA5w", "reference": "ChIJg3OcqeeSQw0RdAimb7VIA5w", "scope": "GOOGLE", "types": ["locality", "political"], "vicinity": "La Vihuela"}]