[{"business_status": "OPERATIONAL", "geometry": {"location": {"lat": 40.6323435, "lng": -3.5107439}, "viewport": {"northeast": {"lat": 40.63369243029149, "lng": -3.509352969708498}, "southwest": {"lat": 40.63099446970849, "lng": -3.512050930291502}}}, "icon": "https://maps.gstatic.com/mapfiles/place_api/icons/v1/png_71/generic_business-71.png", "icon_background_color": "#7B9EB0", "icon_mask_base_uri": "https://maps.gstatic.com/mapfiles/place_api/icons/v2/generic_pinlet", "name": "Calle Algete N 18", "place_id": "ChIJp6Ax_2_MQw0RwasdH-_ToO0", "plus_code": {"compound_code": "JFJQ+WP Fuente el Saz de Jarama, Spain", "global_code": "8CGRJFJQ+WP"}, "reference": "ChIJp6Ax_2_MQw0RwasdH-_ToO0", "scope": "GOOGLE", "types": ["transit_station", "point_of_interest", "establishment"], "vicinity": "Spain"}, {"business_status": "OPERATIONAL", "geometry": {"location": {"lat": 40.637619, "lng": -3.5106986}, "viewport": {"northeast": {"lat": 40.63896768029149, "lng": -3.509380619708499}, "southwest": {"lat": 40.6362697197085, "lng": -3.512078580291503}}}, "icon": "https://maps.gstatic.com/mapfiles/place_api/icons/v1/png_71/generic_business-71.png", "icon_background_color": "#7B9EB0", "icon_mask_base_uri": "https://maps.gstatic.com/mapfiles/place_api/icons/v2/generic_pinlet", "name": "Ctra.Torrelaguna-Las Clarisas", "place_id": "ChIJKdHJ_m3MQw0R7wJm2VklhLE", "plus_code": {"compound_code": "JFQQ+2P Fuente el Saz de Jarama, Spain", "global_code": "8CGRJFQQ+2P"}, "rating": 5, "reference": "ChIJKdHJ_m3MQw0R7wJm2VklhLE", "scope": "GOOGLE", "types": ["transit_station", "point_of_interest", "establishment"], "user_ratings_total": 2, "vicinity": "Spain"}, {"business_status": "OPERATIONAL", "geometry": {"location": {"lat": 40.6375106, "lng": -3.5109106}, "viewport": {"northeast": {"lat": 40.6388602302915, "lng": -3.509491019708498}, "southwest": {"lat": 40.6361622697085, "lng": -3.512188980291502}}}, "icon": "https://maps.gstatic.com/mapfiles/place_api/icons/v1/png_71/generic_business-71.png", "icon_background_color": "#7B9EB0", "icon_mask_base_uri": "https://maps.gstatic.com/mapfiles/place_api/icons/v2/generic_pinlet", "name": "Fuente Saz - C/ Torrelaguna 47", "photos": [{"height": 3000, "html_attributions": ["<a href=\"https://maps.google.com/maps/contrib/110345981312608448505\">Lae Cascadorul</a>"], "photo_reference": "AWn5SU6uy9DB1fwl1bZcIwaecddW_XrXuFuf5quxVz5ylLMV40_2Vv4ffWYmxTu1MM2z9CxITFp4F6lysIQq5DJ-xvx78Dn14HlqnrI9n60ABJMBx8nY6ENiPn3r2w5ZgiTumK4aIjAuGK-YAN0AHBAzvGZuZ9Ft8gaGOQHwtkxKt_slBTdhcHOnvFAhgCcw9Fy2vfmYk5RNAVxQkas9P8_kyfiqZ3ko86auV3Kg8jlHXH0jiHqCUroMt3wIQXAlmjcqzxWT7e0swPa61Tpcwc-Hg-JFW8p1XhdE7rIjVZIx1OJPokvbyE294kIarnT1URW16HgsIwpKvzh0cwvtRWlPehedf-ZgBs33vaIatE9DyUIchj7Hyx8meSgtmAf1qDnCKMnE3SSMbRigXzR1867pNbS49__jV6TXdUvTuBcg4YM6Oj8WH5aEZpeYETfPjWggpIPL5gVpsRcRVSHRnDrMD407Af7Mz-aBfocMlJZ8LUu226sqalLZgFOlWpbPWC2HOwUX4PSvVQE5BTk5Nm0-tRWVZv8Dr4g_YL94jach2IeRig5wN86QOKr1KJxrFdsGkNjhgmRuKuzdH6IQKSHzA3sb_FynQ4b-UNkf1uDvuiJ1q2d75LBzV6xplLaWwUI_ys-JBefJZInB2N9rvPXzRmOsl3U", "width": 4000}], "place_id": "ChIJ329Z_G3MQw0R-6NJQEN1tfE", "plus_code": {"compound_code": "JFQQ+2J Fuente el Saz de Jarama, Spain", "global_code": "8CGRJFQQ+2J"}, "rating": 5, "reference": "ChIJ329Z_G3MQw0R-6NJQEN1tfE", "scope": "GOOGLE", "types": ["transit_station", "point_of_interest", "establishment"], "user_ratings_total": 2, "vicinity": "Spain"}, {"business_status": "OPERATIONAL", "geometry": {"location": {"lat": 40.63743970000001, "lng": -3.5108628}, "viewport": {"northeast": {"lat": 40.6387891302915, "lng": -3.509466519708498}, "southwest": {"lat": 40.6360911697085, "lng": -3.512164480291502}}}, "icon": "https://maps.gstatic.com/mapfiles/place_api/icons/v1/png_71/generic_business-71.png", "icon_background_color": "#7B9EB0", "icon_mask_base_uri": "https://maps.gstatic.com/mapfiles/place_api/icons/v2/generic_pinlet", "name": "Ctra.Torrelaguna-Las Clarisas", "place_id": "ChIJcWq4_W3MQw0RJs_dEgHbKiY", "plus_code": {"compound_code": "JFPQ+XM Fuente el Saz de Jarama, Spain", "global_code": "8CGRJFPQ+XM"}, "reference": "ChIJcWq4_W3MQw0RJs_dEgHbKiY", "scope": "GOOGLE", "types": ["transit_station", "point_of_interest", "establishment"], "vicinity": "Spain"}, {"business_status": "OPERATIONAL", "geometry": {"location": {"lat": 40.6374493, "lng": -3.5105084}, "viewport": {"northeast": {"lat": 40.6387970802915, "lng": -3.509289369708498}, "southwest": {"lat": 40.6360991197085, "lng": -3.511987330291502}}}, "icon": "https://maps.gstatic.com/mapfiles/place_api/icons/v1/png_71/generic_business-71.png", "icon_background_color": "#7B9EB0", "icon_mask_base_uri": "https://maps.gstatic.com/mapfiles/place_api/icons/v2/generic_pinlet", "name": "Fuente Saz - C/ Torrelaguna 16", "place_id": "ChIJEfOb_23MQw0R9Ot8E20eFHU", "plus_code": {"compound_code": "JFPQ+XQ Fuente el Saz de Jarama, Spain", "global_code": "8CGRJFPQ+XQ"}, "rating": 4, "reference": "ChIJEfOb_23MQw0R9Ot8E20eFHU", "scope": "GOOGLE", "types": ["transit_station", "point_of_interest", "establishment"], "user_ratings_total": 2, "vicinity": "Spain"}, {"business_status": "OPERATIONAL", "geometry": {"location": {"lat": 40.6334764, "lng": -3.5145575}, "viewport": {"northeast": {"lat": 40.63482413029149, "lng": -3.513231019708498}, "southwest": {"lat": 40.6321261697085, "lng": -3.515928980291502}}}, "icon": "https://maps.gstatic.com/mapfiles/place_api/icons/v1/png_71/generic_business-71.png", "icon_background_color": "#7B9EB0", "icon_mask_base_uri": "https://maps.gstatic.com/mapfiles/place_api/icons/v2/generic_pinlet", "name": "Fuente Saz - c/ Talamanca 5", "photos": [{"height": 3104, "html_attributions": ["<a href=\"https://maps.google.com/maps/contrib/105975763230375332648\">kurt lemke</a>"], "photo_reference": "AWn5SU65iUba_amMEW2OJKiyzVJoCSUv2B0ON4NJchuawuceesMlmb4C7XFtkE1kZOWeUkTfbXD51NetAhvPoi7_3X611UM9-4Mm_90wZDg2uLTGiPKcVsCp4Lc44RaPh5qQ9MMc_65Grlo6NH6BQa63Kg-BHwPi40AjDQPOZ0lFat-uz6QoCA5MPeDDui5epkL8LCdRYU1RGR4_lRIBLKwQQhpYNohNC1JY74CjakL6fWM3v7tqi3w0N9LSDi5U0GIuurqfXlcakYZ18ZsSCl_EAq6_RZl4vcD_gZT9ZL-Nnu9tWXBXargjd3bkfekHKNe80MLmjA8gCYP16e6YwKyVhS4-G1DBF_CzEpuuP1fyBUuHQSL3BJ9TG-fX6-EgC7gzl2_aeO6K0Dr3FF8_PLPhhpD9rPZtqlYxdzb2TcplXlaijimkvnYFMh4yNjYt8wm0XgFFk2Ih30Lmj1RcS4VUhnKqm57dEiA89TWgV2oGXL7j_Rcn3SWFaRchERBQenuK8d2osaeq3LFZ8x-wljkFCr_xmvu5sFnC4IBmB7lmZXZA9rOTPDJ0xUjEZ5m8L1AThzKtcevQOhPxxXgsX9gTAIeIDMGWaRk-PD-v_ZEAjVnh0nVySiNDfjwKGRkJtujorxK6HQ", "width": 1746}], "place_id": "ChIJG9k0P2_MQw0R1cTaHXhSQWA", "plus_code": {"compound_code": "JFMP+95 Fuente el Saz de Jarama, Spain", "global_code": "8CGRJFMP+95"}, "rating": 2.5, "reference": "ChIJG9k0P2_MQw0R1cTaHXhSQWA", "scope": "GOOGLE", "types": ["transit_station", "point_of_interest", "establishment"], "user_ratings_total": 2, "vicinity": "Spain"}, {"business_status": "OPERATIONAL", "geometry": {"location": {"lat": 40.6334008, "lng": -3.5145936}, "viewport": {"northeast": {"lat": 40.6347509302915, "lng": -3.513224119708498}, "southwest": {"lat": 40.6320529697085, "lng": -3.515922080291502}}}, "icon": "https://maps.gstatic.com/mapfiles/place_api/icons/v1/png_71/generic_business-71.png", "icon_background_color": "#7B9EB0", "icon_mask_base_uri": "https://maps.gstatic.com/mapfiles/place_api/icons/v2/generic_pinlet", "name": "F.Saz Urb Consol", "place_id": "ChIJUcKoOG_MQw0Rbli1gsXIa2o", "plus_code": {"compound_code": "JFMP+95 Fuente el Saz de Jarama, Spain", "global_code": "8CGRJFMP+95"}, "reference": "ChIJUcKoOG_MQw0Rbli1gsXIa2o", "scope": "GOOGLE", "types": ["transit_station", "point_of_interest", "establishment"], "vicinity": "Spain"}, {"business_status": "OPERATIONAL", "geometry": {"location": {"lat": 40.6333315, "lng": -3.5146509}, "viewport": {"northeast": {"lat": 40.6346808302915, "lng": -3.513307669708499}, "southwest": {"lat": 40.6319828697085, "lng": -3.516005630291502}}}, "icon": "https://maps.gstatic.com/mapfiles/place_api/icons/v1/png_71/generic_business-71.png", "icon_background_color": "#7B9EB0", "icon_mask_base_uri": "https://maps.gstatic.com/mapfiles/place_api/icons/v2/generic_pinlet", "name": "Fuente Saz - Julian Sanchez 6", "place_id": "ChIJSw9pR2_MQw0RCwDrOuxMYHQ", "plus_code": {"compound_code": "JFMP+84 Fuente el Saz de Jarama, Spain", "global_code": "8CGRJFMP+84"}, "rating": 3, "reference": "ChIJSw9pR2_MQw0RCwDrOuxMYHQ", "scope": "GOOGLE", "types": ["transit_station", "point_of_interest", "establishment"], "user_ratings_total": 1, "vicinity": "Spain"}, {"business_status": "OPERATIONAL", "geometry": {"location": {"lat": 40.6323666, "lng": -3.510859599999999}, "viewport": {"northeast": {"lat": 40.6337154802915, "lng": -3.509452269708498}, "southwest": {"lat": 40.6310175197085, "lng": -3.512150230291501}}}, "icon": "https://maps.gstatic.com/mapfiles/place_api/icons/v1/png_71/generic_business-71.png", "icon_background_color": "#7B9EB0", "icon_mask_base_uri": "https://maps.gstatic.com/mapfiles/place_api/icons/v2/generic_pinlet", "name": "C/ Algete 18", "place_id": "ChIJ-_Pm-G_MQw0RfsdDIinv-XY", "plus_code": {"compound_code": "JFJQ+WM Fuente el Saz de Jarama, Spain", "global_code": "8CGRJFJQ+WM"}, "reference": "ChIJ-_Pm-G_MQw0RfsdDIinv-XY", "scope": "GOOGLE", "types": ["transit_station", "point_of_interest", "establishment"], "vicinity": "Spain"}, {"business_status": "OPERATIONAL", "geometry": {"location": {"lat": 40.6323316, "lng": -3.510622999999999}, "viewport": {"northeast": {"lat": 40.6336806802915, "lng": -3.509334019708497}, "southwest": {"lat": 40.63098271970851, "lng": -3.512031980291501}}}, "icon": "https://maps.gstatic.com/mapfiles/place_api/icons/v1/png_71/generic_business-71.png", "icon_background_color": "#7B9EB0", "icon_mask_base_uri": "https://maps.gstatic.com/mapfiles/place_api/icons/v2/generic_pinlet", "name": "Algete-Ctra.Alalpardo", "place_id": "ChIJ9QsL_2_MQw0RXmo62rvIA2E", "plus_code": {"compound_code": "JFJQ+WQ Fuente el Saz de Jarama, Spain", "global_code": "8CGRJFJQ+WQ"}, "reference": "ChIJ9QsL_2_MQw0RXmo62rvIA2E", "scope": "GOOGLE", "types": ["transit_station", "point_of_interest", "establishment"], "vicinity": "Spain"}, {"business_status": "OPERATIONAL", "geometry": {"location": {"lat": 40.6458792, "lng": -3.5109862}, "viewport": {"northeast": {"lat": 40.6472284302915, "lng": -3.509575519708498}, "southwest": {"lat": 40.6445304697085, "lng": -3.512273480291502}}}, "icon": "https://maps.gstatic.com/mapfiles/place_api/icons/v1/png_71/generic_business-71.png", "icon_background_color": "#7B9EB0", "icon_mask_base_uri": "https://maps.gstatic.com/mapfiles/place_api/icons/v2/generic_pinlet", "name": "Ctra.M103-Pol.Ind.La Cuesta", "place_id": "ChIJCcLjERLMQw0RT_SFZ4UEIy8", "plus_code": {"compound_code": "JFWQ+9J Fuente el Saz de Jarama, Spain", "global_code": "8CGRJFWQ+9J"}, "reference": "ChIJCcLjERLMQw0RT_SFZ4UEIy8", "scope": "GOOGLE", "types": ["transit_station", "point_of_interest", "establishment"], "vicinity": "Spain"}, {"business_status": "OPERATIONAL", "geometry": {"location": {"lat": 40.64469999999999, "lng": -3.505209999999999}, "viewport": {"northeast": {"lat": 40.6460238302915, "lng": -3.503821669708498}, "southwest": {"lat": 40.6433258697085, "lng": -3.506519630291502}}}, "icon": "https://maps.gstatic.com/mapfiles/place_api/icons/v1/png_71/generic_business-71.png", "icon_background_color": "#7B9EB0", "icon_mask_base_uri": "https://maps.gstatic.com/mapfiles/place_api/icons/v2/generic_pinlet", "name": "Ctra.M117-Urb.Los Manantiales", "place_id": "ChIJA3E6eAvMQw0Rw-kuTaCRPVg", "plus_code": {"compound_code": "JFVV+VW Fuente el Saz de Jarama, Spain", "global_code": "8CGRJFVV+VW"}, "reference": "ChIJA3E6eAvMQw0Rw-kuTaCRPVg", "scope": "GOOGLE", "types": ["transit_station", "point_of_interest", "establishment"], "vicinity": "Spain"}, {"business_status": "OPERATIONAL", "geometry": {"location": {"lat": 40.64628549999999, "lng": -3.510740999999999}, "viewport": {"northeast": {"lat": 40.64763508029149, "lng": -3.509453919708498}, "southwest": {"lat": 40.6449371197085, "lng": -3.512151880291502}}}, "icon": "https://maps.gstatic.com/mapfiles/place_api/icons/v1/png_71/generic_business-71.png", "icon_background_color": "#7B9EB0", "icon_mask_base_uri": "https://maps.gstatic.com/mapfiles/place_api/icons/v2/generic_pinlet", "name": "Ctra.M103-Pol.Ind.La Cuesta", "place_id": "ChIJmztkCxLMQw0RX-ny-P5obSU", "plus_code": {"compound_code": "JFWQ+GP Fuente el Saz de Jarama, Spain", "global_code": "8CGRJFWQ+GP"}, "reference": "ChIJmztkCxLMQw0RX-ny-P5obSU", "scope": "GOOGLE", "types": ["transit_station", "point_of_interest", "establishment"], "vicinity": "Spain"}, {"business_status": "OPERATIONAL", "geometry": {"location": {"lat": 40.64462, "lng": -3.505059999999999}, "viewport": {"northeast": {"lat": 40.6459876802915, "lng": -3.503740269708498}, "southwest": {"lat": 40.64328971970851, "lng": -3.506438230291502}}}, "icon": "https://maps.gstatic.com/mapfiles/place_api/icons/v1/png_71/generic_business-71.png", "icon_background_color": "#7B9EB0", "icon_mask_base_uri": "https://maps.gstatic.com/mapfiles/place_api/icons/v2/generic_pinlet", "name": "Ctra.M117-Urb.Los Manantiales", "place_id": "ChIJ5ZVxdwvMQw0RUmy429sjars", "plus_code": {"compound_code": "JFVV+RX Fuente el Saz de Jarama, Spain", "global_code": "8CGRJFVV+RX"}, "reference": "ChIJ5ZVxdwvMQw0RUmy429sjars", "scope": "GOOGLE", "types": ["transit_station", "point_of_interest", "establishment"], "vicinity": "Spain"}, {"business_status": "OPERATIONAL", "geometry": {"location": {"lat": 40.6464138, "lng": -3.510872199999999}, "viewport": {"northeast": {"lat": 40.6477623302915, "lng": -3.509477019708497}, "southwest": {"lat": 40.6450643697085, "lng": -3.512174980291501}}}, "icon": "https://maps.gstatic.com/mapfiles/place_api/icons/v1/png_71/generic_business-71.png", "icon_background_color": "#7B9EB0", "icon_mask_base_uri": "https://maps.gstatic.com/mapfiles/place_api/icons/v2/generic_pinlet", "name": "Fuente El Saz De Jarama", "place_id": "ChIJQ6M4DBLMQw0R0edBUokj5XU", "plus_code": {"compound_code": "JFWQ+HM Fuente el Saz de Jarama, Spain", "global_code": "8CGRJFWQ+HM"}, "rating": 5, "reference": "ChIJQ6M4DBLMQw0R0edBUokj5XU", "scope": "GOOGLE", "types": ["transit_station", "point_of_interest", "establishment"], "user_ratings_total": 1, "vicinity": "Spain"}, {"business_status": "OPERATIONAL", "geometry": {"location": {"lat": 40.6311198, "lng": -3.5117013}, "viewport": {"northeast": {"lat": 40.6324871302915, "lng": -3.510353269708498}, "southwest": {"lat": 40.6297891697085, "lng": -3.513051230291502}}}, "icon": "https://maps.gstatic.com/mapfiles/place_api/icons/v1/png_71/generic_business-71.png", "icon_background_color": "#7B9EB0", "icon_mask_base_uri": "https://maps.gstatic.com/mapfiles/place_api/icons/v2/generic_pinlet", "name": "Fuente Saz - Yerbas Dulces 18", "place_id": "ChIJoy0tbWXMQw0RITZ_NUj1U3Q", "plus_code": {"compound_code": "JFJQ+C8 Fuente el Saz de Jarama, Spain", "global_code": "8CGRJFJQ+C8"}, "reference": "ChIJoy0tbWXMQw0RITZ_NUj1U3Q", "scope": "GOOGLE", "types": ["transit_station", "point_of_interest", "establishment"], "vicinity": "Spain"}, {"business_status": "OPERATIONAL", "geometry": {"location": {"lat": 40.6309462, "lng": -3.5122324}, "viewport": {"northeast": {"lat": 40.6322919802915, "lng": -3.510883069708498}, "southwest": {"lat": 40.6295940197085, "lng": -3.513581030291502}}}, "icon": "https://maps.gstatic.com/mapfiles/place_api/icons/v1/png_71/generic_business-71.png", "icon_background_color": "#7B9EB0", "icon_mask_base_uri": "https://maps.gstatic.com/mapfiles/place_api/icons/v2/generic_pinlet", "name": "Av.Yerbas Dulces-Cuatro Calles", "place_id": "ChIJoy0tbWXMQw0RazCXxg1hlsI", "plus_code": {"compound_code": "JFJQ+94 Fuente el Saz de Jarama, Spain", "global_code": "8CGRJFJQ+94"}, "rating": 3, "reference": "ChIJoy0tbWXMQw0RazCXxg1hlsI", "scope": "GOOGLE", "types": ["transit_station", "point_of_interest", "establishment"], "user_ratings_total": 1, "vicinity": "Spain"}, {"business_status": "OPERATIONAL", "geometry": {"location": {"lat": 40.6330536, "lng": -3.5184685}, "viewport": {"northeast": {"lat": 40.63440518029149, "lng": -3.516956669708498}, "southwest": {"lat": 40.6317072197085, "lng": -3.519654630291502}}}, "icon": "https://maps.gstatic.com/mapfiles/place_api/icons/v1/png_71/generic_business-71.png", "icon_background_color": "#7B9EB0", "icon_mask_base_uri": "https://maps.gstatic.com/mapfiles/place_api/icons/v2/generic_pinlet", "name": "Av.Pilar-Madrid", "photos": [{"height": 4160, "html_attributions": ["<a href=\"https://maps.google.com/maps/contrib/111911360549968873529\">JOSE MARIA HUERTAS</a>"], "photo_reference": "AWn5SU76Wl518vJfnWcI8aj5UD9eN7nb23zEqaLYzsxvaLCZnEX3Z2z020HASfGC1bXCkXhyrXbaqOPy7GarnRpDKghCSNGtp2C1ysvEx_8uwlvYWKB189OQNJ06cimUm1upjtW-ZwtICM7QeuWr8a8_CLGA-_TvxhZx6x_oMRva2i_14pWsiOPsHF7BOmtQ7CpjhEB-90rBw73n9f-y76NHC2ilgnTEB6sfVazO-4LcBxJF6uXjPqjE9-mjc7PrE_gVgBougVZ9PWeyt55dSGRD9-0iH1gKlOvm3q6_smfDUCoJRhkm8BBeRSgTVn5DJFtY5Z1hZHfKUYavPRzmto0F_1vlJmwLrk9VtZ6UIXfHlmNinsg4FbyXFFhc90LtsCOJCCijJaBVgp7GCfgBMV4yiq_mX_XqnPqItRWNm-xfXukzrV_FGymSPeNre7fpUIMkp3njey-ldgMcHgxr1X1Rdsoqe6ahAcOsyDvJpxgKE-huJT3U-b0LiDDjebgBgtYBLz007ALzhmlS6R4X7bJPyYp7nP09NkbeErRi9cKz71ZbxO8PFIyXFwTAx3yxkxaz95MIgPkjMnbG2ZRIUh_em76xFN0suyx-bX3fJDnNx6Bh5XeewQ9sCPm0AnZqVVo0y8R0QZbJ", "width": 3120}], "place_id": "ChIJnwfyZmjMQw0RojHzdkV_4H8", "plus_code": {"compound_code": "JFMJ+6J Fuente el Saz de Jarama, Spain", "global_code": "8CGRJFMJ+6J"}, "rating": 3.5, "reference": "ChIJnwfyZmjMQw0RojHzdkV_4H8", "scope": "GOOGLE", "types": ["transit_station", "point_of_interest", "establishment"], "user_ratings_total": 2, "vicinity": "Spain"}, {"business_status": "OPERATIONAL", "geometry": {"location": {"lat": 40.6331682, "lng": -3.5189423}, "viewport": {"northeast": {"lat": 40.63449248029151, "lng": -3.517593419708498}, "southwest": {"lat": 40.63179451970851, "lng": -3.520291380291502}}}, "icon": "https://maps.gstatic.com/mapfiles/place_api/icons/v1/png_71/generic_business-71.png", "icon_background_color": "#7B9EB0", "icon_mask_base_uri": "https://maps.gstatic.com/mapfiles/place_api/icons/v2/generic_pinlet", "name": "Fuente Saz - Avda del Pilar 19", "photos": [{"height": 3264, "html_attributions": ["<a href=\"https://maps.google.com/maps/contrib/114504583695482729545\">J.J.M.</a>"], "photo_reference": "AWn5SU6p8-wDnmKv24RsMmnAtvx_bqxNbUD_N6dQ0q-J7buKa1YwmJx2GVZBBCZQRaZoiHtyvc77W3-gxhn5T6zIcUnh_YR93sgk-oPt_Q7S3VTRa_pOBRKcwJ0xZ3KgiGyuQjmI3xG_6n0hlde3WdrSqcWJfVY9i8q-WUXo2JyoQiXFAocb3f08be5gH78DjGce8O0zBnEOSqsLOiSPk9v20sg9aSI6AB2bV8oyvCVe_Eky9TC03X7IHS3229P5dY5lR_awTBhF3K2i8I5d9j002DKQ48j5enuO_01oBQEnnYTRirVThWQg6MEje87nSjSUVB_aRoEAGATqsbviHstHU9a9YokJFyXntVqv07KmOPuie57dZfVJoW1XTIn9GIRcT4UDI2QSmeRqX5taxv-KVtu7MhIa2O4-GRRplX8ZyegV6hp-WZgcmnX82s3ErfGHyVYVGVk0IJDtBmzlop4udQZwk7zP7s1jrIbF8DHv9cdnvj8_W0t7K4mMYm0spteIWYmfemNjQcXxGHg_j9uDNs4ElE18-Dk0f40HRXIfHKBdQ-YqECDZdToYTWNZQ_hn0JOA9FP0TKj2k1lLH-3z_t7r-QdO1mnwZZa1VvAgF8wJG8MK6ewqOchg2sx7-xFr", "width": 2448}], "place_id": "ChIJ5ZmSaWjMQw0RJRvzs0xFZrU", "plus_code": {"compound_code": "JFMJ+7C Fuente el Saz de Jarama, Spain", "global_code": "8CGRJFMJ+7C"}, "rating": 2.3, "reference": "ChIJ5ZmSaWjMQw0RJRvzs0xFZrU", "scope": "GOOGLE", "types": ["transit_station", "point_of_interest", "establishment"], "user_ratings_total": 3, "vicinity": "Spain"}, {"business_status": "OPERATIONAL", "geometry": {"location": {"lat": 40.65489999999999, "lng": -3.49376}, "viewport": {"northeast": {"lat": 40.65622423029149, "lng": -3.492359419708498}, "southwest": {"lat": 40.65352626970849, "lng": -3.495057380291501}}}, "icon": "https://maps.gstatic.com/mapfiles/place_api/icons/v1/png_71/generic_business-71.png", "icon_background_color": "#7B9EB0", "icon_mask_base_uri": "https://maps.gstatic.com/mapfiles/place_api/icons/v2/generic_pinlet", "name": "Ctra.M117-CÂºViejo del Casar", "place_id": "ChIJmysCT_rLQw0R04l0EB6hN7U", "plus_code": {"compound_code": "MG34+XF Fuente el Saz de Jarama, Spain", "global_code": "8CGRMG34+XF"}, "reference": "ChIJmysCT_rLQw0R04l0EB6hN7U", "scope": "GOOGLE", "types": ["transit_station", "point_of_interest", "establishment"], "vicinity": "Spain"}]