[{"business_status": "OPERATIONAL", "geometry": {"location": {"lat": 40.3754449, "lng": -4.2114196}, "viewport": {"northeast": {"lat": 40.37681748029149, "lng": -4.210157719708499}, "southwest": {"lat": 40.3741195197085, "lng": -4.212855680291502}}}, "icon": "https://maps.gstatic.com/mapfiles/place_api/icons/v1/png_71/school-71.png", "icon_background_color": "#7B9EB0", "icon_mask_base_uri": "https://maps.gstatic.com/mapfiles/place_api/icons/v2/school_pinlet", "international_phone_number": "+34 626 24 23 14", "name": "Alavida", "opening_hours": {"open_now": false}, "photos": [{"height": 510, "html_attributions": ["<a href=\"https://maps.google.com/maps/contrib/107268957754842414450\">ALAVIDA. Colegio respetuoso y de EDUCACIÓN ACTIVA en Madrid</a>"], "photo_reference": "AWn5SU4oQBJsLTv5av4BGkPVeTrUms5AB1IkOFVQzznt41KOJ8visvae477jD5ZV2EpivpmBbp-VSSQ6bgQwzbYMr3wtU4GQHgL0zmGUrKtsxOn8-IusU_U9UcURdYYXkPbdgOXAT_XTKejyiKrh5qlg1jWfL8S7CHwyYc2ve7zmwzAjZqmED8RRLuOfkRCODksSGKwfwsbzSrGQ-4a2ormpPPzUOJ__zzfx5AmBZAQjDHIeZzGFz6mUJ1ABChKxw6OpruDEPiXMUVbHB36p7AeapmY_sNg9E_yymJg2Lmlp7i4gT01dy2WXiAUgh_oLMG1p34p248Iyq2o", "width": 680}], "place_id": "ChIJOwRNIsC6QQ0RkBQciatcXeo", "plus_code": {"compound_code": "9QGQ+5C Chapinería, Spain", "global_code": "8CGQ9QGQ+5C"}, "rating": 4.9, "reference": "ChIJOwRNIsC6QQ0RkBQciatcXeo", "scope": "GOOGLE", "types": ["primary_school", "school", "point_of_interest", "establishment"], "user_ratings_total": 47, "vicinity": "Calle de Prudencio Melo, 37, Chapinería"}, {"business_status": "OPERATIONAL", "geometry": {"location": {"lat": 40.3803691, "lng": -4.2168889}, "viewport": {"northeast": {"lat": 40.3817709802915, "lng": -4.215554169708498}, "southwest": {"lat": 40.37907301970851, "lng": -4.218252130291503}}}, "icon": "https://maps.gstatic.com/mapfiles/place_api/icons/v1/png_71/school-71.png", "icon_background_color": "#7B9EB0", "icon_mask_base_uri": "https://maps.gstatic.com/mapfiles/place_api/icons/v2/school_pinlet", "international_phone_number": "+34 918 65 25 21", "name": "Escuela Infantil Sol Y Luna", "opening_hours": {"open_now": false}, "place_id": "ChIJKSmCq766QQ0RFtd5HZnZJLY", "plus_code": {"compound_code": "9QJM+46 Chapinería, Spain", "global_code": "8CGQ9QJM+46"}, "reference": "ChIJKSmCq766QQ0RFtd5HZnZJLY", "scope": "GOOGLE", "types": ["school", "point_of_interest", "establishment"], "vicinity": "Calle Marqués de Villanueva de la Sagra, 1, Chapinería"}, {"business_status": "OPERATIONAL", "geometry": {"location": {"lat": 40.3769099, "lng": -4.210359399999999}, "viewport": {"northeast": {"lat": 40.3782226802915, "lng": -4.209011819708497}, "southwest": {"lat": 40.3755247197085, "lng": -4.211709780291502}}}, "icon": "https://maps.gstatic.com/mapfiles/place_api/icons/v1/png_71/school-71.png", "icon_background_color": "#7B9EB0", "icon_mask_base_uri": "https://maps.gstatic.com/mapfiles/place_api/icons/v2/school_pinlet", "international_phone_number": "+34 918 65 20 30", "name": "Farm School El Palomar", "opening_hours": {"open_now": false}, "photos": [{"height": 1086, "html_attributions": ["<a href=\"https://maps.google.com/maps/contrib/114571339561667097881\">Granja Escuela El Palomar</a>"], "photo_reference": "AWn5SU774DL7tcmDGQAeAraAKjrY8e3bdDerHlw9cKKzEUTU5FgAMSkhd55WFLvsjXvC9774CxL2g57RjbsOpPDAVZDpZEIEqhjojH50zi9IRJgEywqxUjJDfnVbXCBezWabk3DfdGUwWVDN6FFToltxix4jONmV2jXpX1-261BENKEYzGSl7o7aWbAm4hzqj914scgqgJ53U50J_HMG2plWnElChD-55198Lgjx_IBvlfiXteAYTJh16ULVQzN1OpOrsVEORie3qPFRFjrfaNkN0OJitnzApOoMELwI4WJbE4BLrKHEpd5c4dA0MnXj2Faz5Ekv_AFK66k", "width": 2048}], "place_id": "ChIJU3ab--q6QQ0RZjUAtQSiU14", "plus_code": {"compound_code": "9QGQ+QV Chapinería, Spain", "global_code": "8CGQ9QGQ+QV"}, "rating": 4.7, "reference": "ChIJU3ab--q6QQ0RZjUAtQSiU14", "scope": "GOOGLE", "types": ["school", "point_of_interest", "establishment"], "user_ratings_total": 655, "vicinity": "Calle de la Fuente Abajo, Chapinería"}, {"business_status": "OPERATIONAL", "geometry": {"location": {"lat": 40.3794407, "lng": -4.2094457}, "viewport": {"northeast": {"lat": 40.3807844802915, "lng": -4.208093969708497}, "southwest": {"lat": 40.3780865197085, "lng": -4.210791930291502}}}, "icon": "https://maps.gstatic.com/mapfiles/place_api/icons/v1/png_71/school-71.png", "icon_background_color": "#7B9EB0", "icon_mask_base_uri": "https://maps.gstatic.com/mapfiles/place_api/icons/v2/school_pinlet", "international_phone_number": "+34 667 95 29 81", "name": "Patricia Mateo Villena", "opening_hours": {"open_now": false}, "photos": [{"height": 4000, "html_attributions": ["<a href=\"https://maps.google.com/maps/contrib/111058200037988970793\">Patricia Mateo Villena</a>"], "photo_reference": "AWn5SU538hbl7CxAzzMcUWaHcbQyefUw1j10gU2WItpnXz0qyJ_OPjZe92PeBzK6Kl-pzXPsgheTJ4r7qwL2gs0b8IKB2RaR4DhkFdC9knWtFFPf1u7JmhNBrz8OqxthmfHpK-6YitVlfyajZqMVrH3LZ3wx6TU6PDRaiUoFIy36NCtxWzx6ENM1X4CQt8dTB0B7fPZ1dRpMibaun94nUEovuOkfH5GRHOEdyKba8DY1pdyxz2uHMpc0ORY8jM1DQpKg8hwFJYULMbFIOi5LvmcrfrOoXH5qlA0PfcDxSzc4LLZk8aNL8a3PbNteJJclOdi8MD_DJYVLlJM", "width": 6000}], "place_id": "ChIJb86_elGnQQ0RKXpTj-Tu878", "plus_code": {"compound_code": "9QHR+Q6 Chapinería, Spain", "global_code": "8CGQ9QHR+Q6"}, "rating": 5, "reference": "ChIJb86_elGnQQ0RKXpTj-Tu878", "scope": "GOOGLE", "types": ["school", "store", "point_of_interest", "establishment"], "user_ratings_total": 20, "vicinity": "Calle de Jesús y María, 1, Chapinería"}, {"business_status": "OPERATIONAL", "geometry": {"location": {"lat": 40.3777925, "lng": -4.2056608}, "viewport": {"northeast": {"lat": 40.37912178029151, "lng": -4.204354569708497}, "southwest": {"lat": 40.37642381970851, "lng": -4.207052530291501}}}, "icon": "https://maps.gstatic.com/mapfiles/place_api/icons/v1/png_71/school-71.png", "icon_background_color": "#7B9EB0", "icon_mask_base_uri": "https://maps.gstatic.com/mapfiles/place_api/icons/v2/school_pinlet", "international_phone_number": "+34 918 65 22 88", "name": "Public School Santo Angel de la Guarda", "opening_hours": {"open_now": false}, "place_id": "ChIJSTyAysO6QQ0RDfMcCWxc8UU", "plus_code": {"compound_code": "9QHV+4P Chapinería, Spain", "global_code": "8CGQ9QHV+4P"}, "reference": "ChIJSTyAysO6QQ0RDfMcCWxc8UU", "scope": "GOOGLE", "types": ["school", "point_of_interest", "establishment"], "vicinity": "Calle Rodetas, 17, Chapinería"}, {"business_status": "OPERATIONAL", "geometry": {"location": {"lat": 40.3748424, "lng": -4.211128899999999}, "viewport": {"northeast": {"lat": 40.37615458029151, "lng": -4.209802719708496}, "southwest": {"lat": 40.37345661970851, "lng": -4.212500680291501}}}, "icon": "https://maps.gstatic.com/mapfiles/place_api/icons/v1/png_71/generic_business-71.png", "icon_background_color": "#7B9EB0", "icon_mask_base_uri": "https://maps.gstatic.com/mapfiles/place_api/icons/v2/generic_pinlet", "international_phone_number": "+34 690 74 65 86", "name": "Sheila Carrasco", "opening_hours": {"open_now": false}, "photos": [{"height": 4032, "html_attributions": ["<a href=\"https://maps.google.com/maps/contrib/115233876372129449280\">Sheila Carrasco</a>"], "photo_reference": "AWn5SU7bnN8pVrVoHRR4sWxOD9-QaGUyKa_brJMF9yBm0W9TNWrlXqxcXv2HJGjxvSQflKrPu-Iq_XRWxR-Gmk6iIjQYWWlbLHTNXvSLl1Izu26gMMQROIb3fECNaHCFhgqOVOyOih8irEu7whyggf0OBtjpZ9sspMtDdFdOExfY58DZjTKz_CFWXP8q0FcLWlVv3TRHCExpJVE2aLI7YpTs_IqYtxVjVnVrh00gWo2f88MEGOiAJQWXVH_yBTbotkKlpyk-sVTXk7uzmLlCFtHV6q3izgHgO74kWbUiafdUSd5SnThsa55mfFonhJIsQ3Ua69ELCHziXxk", "width": 3024}], "place_id": "ChIJ8d6Eegu7QQ0R6y_tzrltblg", "plus_code": {"compound_code": "9QFQ+WG Chapinería, Spain", "global_code": "8CGQ9QFQ+WG"}, "rating": 5, "reference": "ChIJ8d6Eegu7QQ0R6y_tzrltblg", "scope": "GOOGLE", "types": ["health", "school", "point_of_interest", "establishment"], "user_ratings_total": 2, "vicinity": "Calle Nailon, 3, Chapinería"}]