[{"geometry": {"location": {"lat": 40.7933686, "lng": -3.6004878}, "viewport": {"northeast": {"lat": 40.80367617384653, "lng": -3.593742393654017}, "southwest": {"lat": 40.78711624384531, "lng": -3.614622717316707}}}, "icon": "https://maps.gstatic.com/mapfiles/place_api/icons/v1/png_71/geocode-71.png", "icon_background_color": "#7B9EB0", "icon_mask_base_uri": "https://maps.gstatic.com/mapfiles/place_api/icons/v2/generic_pinlet", "name": "Cotos de Monterrey", "photos": [{"height": 2448, "html_attributions": ["<a href=\"https://maps.google.com/maps/contrib/116043713429691480191\">Gonzalo</a>"], "photo_reference": "AWn5SU4mqQpBShWrUqhisz4fHizOnu2VTksIYA287zk-niL2AQiNCcrWX-0JZsq926ggqkwajf7upudapqe0xzdo92Y86E_MbvZ5AmqM9njTur3Qz7KbvNMo_gSUZd-rdObRsyAcv_K_jDbeeHBglsX_Mhsiqn6NrBYzgl7c1q4W4ugIZP9B4KNwfdGYowuvTt5FRIS9IhCs6bB3cn57OLf8Nz3mPF0QdrCzkrjLhpiYtj4ghqPHKpmBORX7asC6Rar3u2TR3NIVzXNAkkWCDPG5EWpA_VkjKNGQ6Wa7MULEvrHGsKsLuNjENCmYeje1o7cxr1j1Hc1hel4XyjuJv7qF3eIBHaXnxMhLM5SYniIRvaXfgGfUD1ox5NCTnHJ7cxcslF6rfRpnkSkf-cFdFp9JaUKAaO9h5cktblNlNjtJ0AlV5khjB0DiSfHL1fBSIC8vQs2VFKVTWSSKqzA5SOWIu6lM5LYSy2SYBKd4eoJSrN-sxLGr7PbdpP933VD6yUB0GfeAtI0KfHOschm0Z7VgPnwOEX9uhwsE_8bUMj5IIQAF0mbJu0WpeL-m1AH7dLem25XyXiXSJr29-N2ynqcMUU1jBajh-bb2o93Zf94K87iOHMiGHNaA14SdxgiwJfyH", "width": 3264}], "place_id": "ChIJe0TXZj3bQw0RGPNvdopTS8U", "reference": "ChIJe0TXZj3bQw0RGPNvdopTS8U", "scope": "GOOGLE", "types": ["locality", "political"], "vicinity": "Cotos de Monterrey"}, {"business_status": "OPERATIONAL", "geometry": {"location": {"lat": 40.81628989999999, "lng": -3.6167146}, "viewport": {"northeast": {"lat": 40.8180307302915, "lng": -3.614849350000001}, "southwest": {"lat": 40.8153327697085, "lng": -3.62231035}}}, "icon": "https://maps.gstatic.com/mapfiles/place_api/icons/v1/png_71/generic_business-71.png", "icon_background_color": "#7B9EB0", "icon_mask_base_uri": "https://maps.gstatic.com/mapfiles/place_api/icons/v2/generic_pinlet", "international_phone_number": "+34 609 14 59 76", "name": "TAUproiecta estudios y servicios, SL", "photos": [{"height": 3120, "html_attributions": ["<a href=\"https://maps.google.com/maps/contrib/117991879938317947115\">Nuria</a>"], "photo_reference": "AWn5SU4JI_cZsxCu2T2L_924xOItYS46DPOlkwrlYnqliCssEOCx4SMOyxEG6Qp-I36gPQugamQhvC20c2BygGGKrMljP4Lr3xu8O5S4lOD5kszVijPfvWUbSVmJcCC_V0YAALHRFDvEvyKoaKi2RORSR_CBnmalbPMNvQ95BIdpZzuuzNr8fd1UbFx931Srj95_1zrNJLBCwJ0cctjIVpOlyjcsPeu5-m2oeONiZ1ZmBCjoR5W7pEZIHRRz3fLQomeShur-y1DVg-0-cXLfoGCBcRSKRwSmdQ33g0yyujYYUm2M2R0Rz9EiXv9OvIq1bnX4T9_cJSbrWPsBs1Aj412uWepbUZVKUdsMW4bo9HhwZsW25sQU-BVTiM7loYn_UxbHScNBFJG4Q8vkj_UbDJsJOsYbv_usBcLtQRToWTIODdJqTko5HRAro9L9Lmx8Fcq5mCE1tT0AAGaS6uVSGIuvWu_oa-2QD2hHftEWYdslJQjdfO86maPNL3W1q0Q1zENNKIHER6U6oj6xKgvq5Cdele7vXygLKWOl7rGenh0kRFZyRsJ4U3ss3lst47KctKkiI8Ka5UJouD5qLPdjti8YZUNnCR4eu5YyHtVaDrI4FjIzpfte5xRYb1fUErEtTTIppWbk1w", "width": 4160}], "place_id": "ChIJ01oFe-ooQg0RWDunLxljSFA", "plus_code": {"compound_code": "R98M+G8 Redueña, Spain", "global_code": "8CGRR98M+G8"}, "rating": 4, "reference": "ChIJ01oFe-ooQg0RWDunLxljSFA", "scope": "GOOGLE", "types": ["point_of_interest", "establishment"], "user_ratings_total": 1, "vicinity": "Redueña"}, {"business_status": "OPERATIONAL", "geometry": {"location": {"lat": 40.81632099999999, "lng": -3.6035341}, "viewport": {"northeast": {"lat": 40.8176528802915, "lng": -3.602194269708498}, "southwest": {"lat": 40.81495491970851, "lng": -3.604892230291502}}}, "icon": "https://maps.gstatic.com/mapfiles/place_api/icons/v1/png_71/civic_building-71.png", "icon_background_color": "#7B9EB0", "icon_mask_base_uri": "https://maps.gstatic.com/mapfiles/place_api/icons/v2/civic-bldg_pinlet", "international_phone_number": "+34 918 43 84 07", "name": "Redueña Town Hall", "opening_hours": {"open_now": false}, "photos": [{"height": 4008, "html_attributions": ["<a href=\"https://maps.google.com/maps/contrib/116522339215122585058\">Juan Rubio</a>"], "photo_reference": "AWn5SU6SICgSqdv74WT0IuB-aQnYXxYkBhPpfMJPrRixH_C4VVKun6yXeUpsrP0LcnYechnsJ9Us08_KHWZB7dYmVaYCafy7RUNDzKYLWAVBI-TRkfKcTW_L596Jc4fN-zLTgw-3mX9GdSvdL_lW45_u7CZkHtY54cvPnaUfx1g75SIflTg2MpfQjd6C5E3KntcMys9k0anxrLOdAPU5cepfQXbsdskwVFyYFPMbdkkm9mqSmdiZv7-2nPj492tuz_orKz2Bffs13rSeQXvfk7V3RCXuPmmwlQ-V1u2ChprBzTe6A16MqtepDckf5tS8iAi51a6CKuyHLzYwmdPP-tVhJcDfUcKAEsdC_H8ihpuA-PLMlVI-1tn-yRegcgqAYfhZwHVuJ3mMhCCDrDvM8mqCkYHPL3w_sfEqcHFMngKKu36OeGU0gUL-8Xs8tzYZ5751fZVw2soD38AfD8kOyFB2EhJaoWJ_b3NjMTMeXsmR6mhMQcQO2TOtgcU9o8flHNnC2-PoXRCs8opRB1s6XbTcj6fTzyoyMW-zgTQqhhs6oG_p8HCi_sbMmbA2Bi6xNdbFqZwz-a-APFcjGtsjxt_yIi_5mdhXnqxLjSZYONOT8NmE3nFuVLLF1nWN2JV6Aj946eJEJirema6EL8a_ywi3eKl3tNI", "width": 6008}], "place_id": "ChIJtVJ3foDbQw0RxdJSGYDneMY", "plus_code": {"compound_code": "R98W+GH Redueña, Spain", "global_code": "8CGRR98W+GH"}, "rating": 4.6, "reference": "ChIJtVJ3foDbQw0RxdJSGYDneMY", "scope": "GOOGLE", "types": ["city_hall", "local_government_office", "point_of_interest", "establishment"], "user_ratings_total": 14, "vicinity": "Plaza de la Villa, 2, Redueña"}, {"business_status": "OPERATIONAL", "geometry": {"location": {"lat": 40.8167528, "lng": -3.6017578}, "viewport": {"northeast": {"lat": 40.81798313029149, "lng": -3.600437319708497}, "southwest": {"lat": 40.8152851697085, "lng": -3.603135280291502}}}, "icon": "https://maps.gstatic.com/mapfiles/place_api/icons/v1/png_71/worship_general-71.png", "icon_background_color": "#7B9EB0", "icon_mask_base_uri": "https://maps.gstatic.com/mapfiles/place_api/icons/v2/worship_christian_pinlet", "international_phone_number": "+34 918 44 85 03", "name": "Iglesia de San Pedro Advincula", "photos": [{"height": 3096, "html_attributions": ["<a href=\"https://maps.google.com/maps/contrib/103644858766260406648\">Un opinante delirante</a>"], "photo_reference": "AWn5SU6hNlPDCWyr8DycdSVZtfkVjXQZgQu_7WoHaEI3MIR_xVK9VyF31WMi3oJbGniVqZkFaNLLxh1n-3p5KDSda2w7sdlPyd7taBQ6kVaLTKqXsfKXQv5jC_XNXssyYpaBgA8oW8ri_RrovwIAc9M6Qn019nU1IqF7JupA4zS8Ec3QiKYUFoc_UDp3E8oJVPTHup19yuzci0wOzVW2M23_uSJKrH4-2YhIah7FNv_igaOM2ZpArrHeUoB53TG6j5tn09t0OYThzNnac2pndDnevamVe7wDoUEeL8jrQNJiKbgrzbO4AwoHPn3wiCByN5kv5XxDkKTqRulv92XvoHNKCbKppcJux22GCjcz6FuX2V2NK_a9nDxrrHRxSGtLjlMinFpQOzIRtGJQYnG6OUmtsIoTNylkLM-gpUPq1uLevapDki4PMO2wVUjN-sQq6W5y30QhnYST9ZuRduYm679tU0HvglkxxBq3N2yZaDLqwdIA7ENb8cOjYXvJe_gdZaeNvIWgORKVoLUFZ_BqVLdN8v8F6j8064gmwH5kqLOqcQWX3wgqdhqIGkxlf33D0MuKPR18wq7ot__9hOgKLCRkTWwYQsyxA74b-Y3LXDO8BGLw_JFVCsqvDBLzBmnT6WLifwGZpw", "width": 4128}], "place_id": "ChIJn7-uTGHbQw0RP44XPxw7p0s", "plus_code": {"compound_code": "R98X+P7 Redueña, Spain", "global_code": "8CGRR98X+P7"}, "rating": 4.6, "reference": "ChIJn7-uTGHbQw0RP44XPxw7p0s", "scope": "GOOGLE", "types": ["church", "place_of_worship", "point_of_interest", "establishment"], "user_ratings_total": 10, "vicinity": "Calle Mayor, 47, Redueña"}, {"business_status": "OPERATIONAL", "geometry": {"location": {"lat": 40.81637349999999, "lng": -3.6045472}, "viewport": {"northeast": {"lat": 40.8177331802915, "lng": -3.603245019708498}, "southwest": {"lat": 40.8150352197085, "lng": -3.605942980291502}}}, "icon": "https://maps.gstatic.com/mapfiles/place_api/icons/v1/png_71/generic_business-71.png", "icon_background_color": "#7B9EB0", "icon_mask_base_uri": "https://maps.gstatic.com/mapfiles/place_api/icons/v2/generic_pinlet", "international_phone_number": "+34 639 14 89 44", "name": "Tecram", "opening_hours": {"open_now": false}, "photos": [{"height": 270, "html_attributions": ["<a href=\"https://maps.google.com/maps/contrib/100100665761180010515\">Tecram</a>"], "photo_reference": "AWn5SU58I5WtN7qRIYZGXhpn2gneO-y3y5Chda2ePUf8WlNyIbV2jJr4ESJP1iKiLwBbC94K1obKaAAHNjUgrvSZEJG58QZTeiRcbVD1FURhgjOy2RMCegPMExhbSNj0mdbvVWV0NFVnBk6HNdbIJWkT2mvmwqZVJw9o0d4i8Sk-s82ikG6r1tozi6HPYw0NrK-dFxz3nZJIFPDkHbB17JAIcB8wDp3YG_uEE4l6UwcniQzvk0SvBZ_-aX4wxjtV-g1sB28-ntczDj-LV_X3wZ_vLhvyu6avSX3ZrSMdFNlohN-XDFy0C0sgvnMJY9TfJHUCiMeaoJxs", "width": 870}], "place_id": "ChIJzefvFy0qQg0R0WmMWkemzdQ", "plus_code": {"compound_code": "R98W+G5 Redueña, Spain", "global_code": "8CGRR98W+G5"}, "rating": 5, "reference": "ChIJzefvFy0qQg0R0WmMWkemzdQ", "scope": "GOOGLE", "types": ["point_of_interest", "establishment"], "user_ratings_total": 4, "vicinity": "Calle del Olivo, 3, Redueña"}, {"business_status": "OPERATIONAL", "geometry": {"location": {"lat": 40.8148185, "lng": -3.6218556}, "viewport": {"northeast": {"lat": 40.81615823029149, "lng": -3.620492369708498}, "southwest": {"lat": 40.81346026970849, "lng": -3.623190330291502}}}, "icon": "https://maps.gstatic.com/mapfiles/place_api/icons/v1/png_71/civic_building-71.png", "icon_background_color": "#7B9EB0", "icon_mask_base_uri": "https://maps.gstatic.com/mapfiles/place_api/icons/v2/civic-bldg_pinlet", "international_phone_number": "+34 918 43 95 05", "name": "Legendario Ibérico", "place_id": "ChIJV5dHdYLbQw0RutmuNpd7OxY", "plus_code": {"compound_code": "R97H+W7 Cabanillas de la Sierra, Spain", "global_code": "8CGRR97H+W7"}, "rating": 4.7, "reference": "ChIJV5dHdYLbQw0RutmuNpd7OxY", "scope": "GOOGLE", "types": ["point_of_interest", "food", "establishment"], "user_ratings_total": 3, "vicinity": "Calle del Aliso, 41, Cabanillas de la Sierra"}, {"business_status": "OPERATIONAL", "geometry": {"location": {"lat": 40.8213889, "lng": -3.626388900000001}, "viewport": {"northeast": {"lat": 40.8227434802915, "lng": -3.624997369708498}, "southwest": {"lat": 40.8200455197085, "lng": -3.627695330291502}}}, "icon": "https://maps.gstatic.com/mapfiles/place_api/icons/v1/png_71/bar-71.png", "icon_background_color": "#FF9E67", "icon_mask_base_uri": "https://maps.gstatic.com/mapfiles/place_api/icons/v2/bar_pinlet", "international_phone_number": "+34 918 43 99 01", "name": "Restaurante El Rincón de Cabanillas", "opening_hours": {"open_now": false}, "photos": [{"height": 3024, "html_attributions": ["<a href=\"https://maps.google.com/maps/contrib/108391631821487489386\">José Daniel Valenzuela Villanueva</a>"], "photo_reference": "AWn5SU5f1lTZvB1l_HoPhS4n9AebRNLS7hRrLlRHcJfP8hfCAbW6Sx6JpZGJltLtCB2mU_3GjEvMbjIw_KBGL7nhaxUcDv21N21XFkpg2rfFsp4atkNKhIW63qMyMoq84_3jrbFjIu0S8OGZX2oqHV9SXTwezatxtOhFiAEQ2l4fcEd8AVj6ubq30zCTKPoKfKEb0X_iWbHGQUN97pKY3RkTYjHFGMRl9t81xABb6IgMI06ykKXlgBatd6KTzI-k2rb91pA9XF5cVE2FXUdflGDU_FY-8CAtWHByybS7zYP_IxWVLoq5NYS50GSyBtTXBYkpA7aN5sv2S-0wbcHG3ZxsVx80_5ncWXjWJ7Fix__0iDoDJVPVc5aMBQ9zpJoYW7iX9FT4hsQKdpnjCu1O-A_77T0fA1K0ZmXp2muQ4nhE6TfOovWgLIu0MWHUJFFngkjwjeb-75J_Hcen40uxWgLb72jlPQYwf5ucdgiBbXb02kyeoUAMhM7hrkizjGHf9J1CRD_SYPrg-El2NsJRKc03u5HdlgSS3lEwGTg_oH6vCYYVo36bCk3QU-TdKz_dsvySiONbfixksr6Vg5XjMrV-5cZ3bU2icYDcxgK9MAjDBwLI16_WxJsEYamJ2THStQtUdREjrVJwcPxAcia1R1Qy1trtdkU", "width": 4032}], "place_id": "ChIJYVTRUH_cQw0Rfa4ST_dZwf0", "plus_code": {"compound_code": "R9CF+HC Cabanillas de la Sierra, Spain", "global_code": "8CGRR9CF+HC"}, "price_level": 1, "rating": 4.3, "reference": "ChIJYVTRUH_cQw0Rfa4ST_dZwf0", "scope": "GOOGLE", "types": ["bar", "restaurant", "point_of_interest", "food", "establishment"], "user_ratings_total": 242, "vicinity": "Calle Real, 75, Cabanillas de la Sierra"}, {"business_status": "OPERATIONAL", "geometry": {"location": {"lat": 40.8198758, "lng": -3.626121600000001}, "viewport": {"northeast": {"lat": 40.8212233802915, "lng": -3.624786569708498}, "southwest": {"lat": 40.8185254197085, "lng": -3.627484530291503}}}, "icon": "https://maps.gstatic.com/mapfiles/place_api/icons/v1/png_71/generic_business-71.png", "icon_background_color": "#7B9EB0", "icon_mask_base_uri": "https://maps.gstatic.com/mapfiles/place_api/icons/v2/generic_pinlet", "international_phone_number": "+34 918 43 93 94", "name": "Grupo de Acción Local de la Sierra Norte de Madrid", "place_id": "ChIJcYTAuYDbQw0RXrb7zR6Vqv0", "plus_code": {"compound_code": "R99F+XH Cabanillas de la Sierra, Spain", "global_code": "8CGRR99F+XH"}, "rating": 3.7, "reference": "ChIJcYTAuYDbQw0RXrb7zR6Vqv0", "scope": "GOOGLE", "types": ["point_of_interest", "establishment"], "user_ratings_total": 3, "vicinity": "Calle de las Escuelas, 5, Cabanillas de la Sierra"}, {"business_status": "OPERATIONAL", "geometry": {"location": {"lat": 40.81967899999999, "lng": -3.626656999999999}, "viewport": {"northeast": {"lat": 40.8210284802915, "lng": -3.625299719708497}, "southwest": {"lat": 40.8183305197085, "lng": -3.627997680291502}}}, "icon": "https://maps.gstatic.com/mapfiles/place_api/icons/v1/png_71/generic_business-71.png", "icon_background_color": "#7B9EB0", "icon_mask_base_uri": "https://maps.gstatic.com/mapfiles/place_api/icons/v2/generic_pinlet", "international_phone_number": "+34 647 86 76 16", "name": "Blanco Díaz - ABOGADOS", "place_id": "ChIJ7_tcyoDbQw0RZSm0wHMhLSM", "plus_code": {"compound_code": "R99F+V8 Cabanillas de la Sierra, Spain", "global_code": "8CGRR99F+V8"}, "rating": 5, "reference": "ChIJ7_tcyoDbQw0RZSm0wHMhLSM", "scope": "GOOGLE", "types": ["lawyer", "point_of_interest", "establishment"], "user_ratings_total": 1, "vicinity": "Spain"}, {"business_status": "OPERATIONAL", "geometry": {"location": {"lat": 40.8210174, "lng": -3.626217500000001}, "viewport": {"northeast": {"lat": 40.82253128029149, "lng": -3.624850119708498}, "southwest": {"lat": 40.8198333197085, "lng": -3.627548080291502}}}, "icon": "https://maps.gstatic.com/mapfiles/place_api/icons/v1/png_71/generic_business-71.png", "icon_background_color": "#7B9EB0", "icon_mask_base_uri": "https://maps.gstatic.com/mapfiles/place_api/icons/v2/generic_pinlet", "international_phone_number": "+34 600 78 66 30", "name": "Yagüe Fisioterapia y Rehabilitación", "opening_hours": {"open_now": false}, "photos": [{"height": 2448, "html_attributions": ["<a href=\"https://maps.google.com/maps/contrib/108457074172998210617\">Alberto CSC</a>"], "photo_reference": "AWn5SU57LdQfEZVHaJ58wruL2DPVP8e6KOxuKP3k0bmSefqOkW93yazOPsDXyHLmGkoC5C3QXPlHjiQi4fsp7DfJ1eWuKnki7wBSFr2VXApiaoVMbuhStYQZKPg7xk5KHju7u0-nb7FOECK2XMpvjjL5PhSW8u72g0Aqc4TGcz9WahLriyVQwW_h1QJk1QbATkGQTLqxrun9CVecgY0iFdBv0QtjuJgJYwbfbvfKR7ItvuaGLUH2dPtf1728GUeo4O1I2z2cvgs51-mLWXgWJ_wEtwXwpvyldGe2n6DTzk8DMvB4AQjaMCcGsKz7A4xEWiFQb2XHCPdMbABn7t7UMWYpUAbs_WRBqYNEGe970FqcslzHWPMCk3MytHxXAsJxwvSuwIqcxtMDRb9jYVN3Cew4qR63cYalJtGRy8bziFi2NeAgXlRLpWX1StaOInfKp7QfDz-s28OglBHHtKaqFNV20JIXN94_XDoqTDJAD5-qW1gYl4xhfyQQrTka5b0pLBFGwZv65iURyEjHubk00vax40V0hbdCOe_Mnb6rtDO-lP9BqCR3QjuW6M96fZ2uw7d-7YpclRrqBinUCB2309h_Xvcdp99s_PY-05kx7YQqaSPqLYgGZndLy0YwQTxCFq38nxtpHw", "width": 3264}], "place_id": "ChIJzQUIqIDbQw0RAs7g67hvpQQ", "plus_code": {"compound_code": "R9CF+CG Cabanillas de la Sierra, Spain", "global_code": "8CGRR9CF+CG"}, "rating": 5, "reference": "ChIJzQUIqIDbQw0RAs7g67hvpQQ", "scope": "GOOGLE", "types": ["point_of_interest", "health", "establishment"], "user_ratings_total": 15, "vicinity": "Calle de la Cuesta, 4, Cabanillas de la Sierra"}, {"business_status": "OPERATIONAL", "geometry": {"location": {"lat": 40.8216295, "lng": -3.627143299999999}, "viewport": {"northeast": {"lat": 40.82313223029149, "lng": -3.625787619708498}, "southwest": {"lat": 40.8204342697085, "lng": -3.628485580291502}}}, "icon": "https://maps.gstatic.com/mapfiles/place_api/icons/v1/png_71/pharmacy-71.png", "icon_background_color": "#F88181", "icon_mask_base_uri": "https://maps.gstatic.com/mapfiles/place_api/icons/v2/pharmacy_pinlet", "international_phone_number": "+34 918 43 92 26", "name": "Farmacia Luis Rodríguez Segura", "opening_hours": {"open_now": false}, "photos": [{"height": 2250, "html_attributions": ["<a href=\"https://maps.google.com/maps/contrib/104914223308540062627\">Farmacia Luis Rodríguez Segura</a>"], "photo_reference": "AWn5SU6K3rPpM7qMqYE71_9yPaSWX3zp2WMYP_jh8PuBNiThmuA5ewteEvFipQlDEV5Le-RgSkH0dBNPfycct3a53f8ASxdaDe7Vth5s5GI8ZQc7DubWaORl5aJo3tuqYrhcqf1DPQqXtiEB86_7ojmMPhLn7vzMTD3nBDGTEuXE3iOpa4_WEssvlRG76SNZLSYUoXeN2RUBRpE4KMO8_F-FDrRH9KFBvwlzJm8GVMTwzhHQcnISv4wPS8xvPoJGUiMheIwlJ3SMHX8Wzs4_BiTcjn0j0IBydTT8oEVuI0c4AjYI7fuGbd1OFlf1XFRnm7huvB0sCS75--M", "width": 4000}], "place_id": "ChIJrUs0lYDbQw0RzDtzwUPdhJ0", "plus_code": {"compound_code": "R9CF+M4 Cabanillas de la Sierra, Spain", "global_code": "8CGRR9CF+M4"}, "rating": 4.4, "reference": "ChIJrUs0lYDbQw0RzDtzwUPdhJ0", "scope": "GOOGLE", "types": ["pharmacy", "point_of_interest", "health", "store", "establishment"], "user_ratings_total": 38, "vicinity": "Calle del Cerrillo, 51, Cabanillas de la Sierra"}, {"business_status": "OPERATIONAL", "geometry": {"location": {"lat": 40.8222939, "lng": -3.6273623}, "viewport": {"northeast": {"lat": 40.82366353029149, "lng": -3.626020619708498}, "southwest": {"lat": 40.82096556970849, "lng": -3.628718580291503}}}, "icon": "https://maps.gstatic.com/mapfiles/place_api/icons/v1/png_71/hospital-71.png", "icon_background_color": "#F88181", "icon_mask_base_uri": "https://maps.gstatic.com/mapfiles/place_api/icons/v2/hospital-H_pinlet", "international_phone_number": "+34 918 43 90 61", "name": "Consultorio Cabanillas", "opening_hours": {"open_now": false}, "photos": [{"height": 1800, "html_attributions": ["<a href=\"https://maps.google.com/maps/contrib/102243648526755885308\">Ana Fuejo</a>"], "photo_reference": "AWn5SU6o7aka7N5pxl5F2VayL4rwM9y3gEaaEHKsHJ0yu5_eK9jFOD3pBvri8aCPkcvARhvr_y_yJkHn3M5rt0faTq77pZDjAiIW1QZdbq7J0T3spF_8gQqdSoJY0cqVJoxllfd9dflBRPDxNKqwZ5csyLk0CysPAg4zT-IuNLKIHdwF0dVsPRhf6CcPHtWNjKg3FBHaO7aqf_4A1CuyIba7bzNAPssoOE6Ax1klpouxZR2ecbprnN5kg-lu74YeueY6cXlPGvaltrsbqkOWK2Du4Ouo71L47F3i6d8HkFSkjfOP4-KK32ALFeu8jEiq1YN9-ctcBZVyB42XeMLPMHGXIWH5_LmSxp_3JQwL2Jh9bxH60O2yiBBNfNTncweXY3umZOTVDlTVXVkGEjm7Jmgxs6CIk08Z0-1s2pHFlxQFsGhQDkGW_aOoMLHPp63ZElafR5exJJxY_IVZoDE-Bcju_CY3iTYvAkeg3v3vRZ3fLE41RLAZK6P-ffPcEy14viBUiLBlAEv7cK6XmYN4fKzyZKKXUrJPqEEurhbzI7xYyP46MN2Zb9O3Hg_Du2dppvzlxjUFhcZk0uwb6dwRc8yheRgJK6ZeC8jcmbEf-o9_IuwEYT5qkzhqaJuehVs60Ca4xUZYQQ", "width": 4000}], "place_id": "ChIJp0OetnjcQw0Ra7p7lzkdfW0", "plus_code": {"compound_code": "R9CF+W3 Cabanillas de la Sierra, Spain", "global_code": "8CGRR9CF+W3"}, "rating": 3.3, "reference": "ChIJp0OetnjcQw0Ra7p7lzkdfW0", "scope": "GOOGLE", "types": ["hospital", "point_of_interest", "health", "establishment"], "user_ratings_total": 3, "vicinity": "Calle Nueva, 2, Cabanillas de la Sierra"}, {"business_status": "OPERATIONAL", "geometry": {"location": {"lat": 40.8216745, "lng": -3.6271564}, "viewport": {"northeast": {"lat": 40.82307083029149, "lng": -3.625726819708498}, "southwest": {"lat": 40.82037286970849, "lng": -3.628424780291502}}}, "icon": "https://maps.gstatic.com/mapfiles/place_api/icons/v1/png_71/shopping-71.png", "icon_background_color": "#4B96F3", "icon_mask_base_uri": "https://maps.gstatic.com/mapfiles/place_api/icons/v2/shopping_pinlet", "international_phone_number": "+34 665 87 33 42", "name": "Animaraida", "opening_hours": {"open_now": false}, "photos": [{"height": 2560, "html_attributions": ["<a href=\"https://maps.google.com/maps/contrib/115196172152628411921\">Animaraida</a>"], "photo_reference": "AWn5SU7oF-qBxOtwH8-g-r6J9Qw0RNHdhLLSXBxtBRqBZCI8bd_Ih-X5HxH6flzUznzLTOKZ7QyRlvbhoxAlRZXioI1b_qpN2miDCiY6-a1hKWHAd8uG1bfmTibPpIhyx5ZsjPlpSqznP27q2gL2raonysWvwDU0v0TlcoIIFmEbaK_7w4LQ_BzgXM4tyEAcNSkuqQsm_keTqrOPOQwLUG948avAMi2fNgNW-g8qgyBhH-BLMrqA2XsuT8lp3Z1Cg2WkRAgE-oe3PD7-N7bObHhtVHB_UzZ9BgxypVHiYGiS0eDII0bDtpV6xb2rtrVja3vZa3Ah6RNWKvISRfBL6LLz8otMoL4GVXthcOxgl_hQI1F6kfsmlljGvJ_aFKZ9ZEKsDVYkxX5GpxQA2BcLGXlPH692mt8P6jyc7UvHB1Zb4-veSWI0TsLqbf7S_ii0Dw4SFZZiW4zwInlSv21yCsMM6XRqv6GF3ChAN37IDBdj7SKH5z88q8i1RXCp8f5eDKApg4P0hQd4_4wnwNwc161L9jrCK9CL3eaxq2CNFtLXFZdc5qUNCkDeefNQxxdxx1Idlxp2Aqn5R7iMXaDUK3JnOpWps5621rgZKe63jG2UkIMGLJM3Ucec5_RyGlz-BLsjlSYQTQ", "width": 1920}], "place_id": "ChIJM8YrsnjcQw0RGPlIxahC1Xk", "plus_code": {"compound_code": "R9CF+M4 Cabanillas de la Sierra, Spain", "global_code": "8CGRR9CF+M4"}, "rating": 4.9, "reference": "ChIJM8YrsnjcQw0RGPlIxahC1Xk", "scope": "GOOGLE", "types": ["store", "point_of_interest", "food", "establishment"], "user_ratings_total": 57, "vicinity": "Calle del Cerrillo, 51, Cabanillas de la Sierra"}, {"business_status": "OPERATIONAL", "geometry": {"location": {"lat": 40.8065289, "lng": -3.625063700000001}, "viewport": {"northeast": {"lat": 40.8078846302915, "lng": -3.623861219708498}, "southwest": {"lat": 40.8051866697085, "lng": -3.626559180291502}}}, "icon": "https://maps.gstatic.com/mapfiles/place_api/icons/v1/png_71/shopping-71.png", "icon_background_color": "#4B96F3", "icon_mask_base_uri": "https://maps.gstatic.com/mapfiles/place_api/icons/v2/shopping_pinlet", "international_phone_number": "+34 609 18 38 71", "name": "Jardinería El Portugués, SL", "opening_hours": {"open_now": false}, "place_id": "ChIJQz-uQJzbQw0Rm6HXWT4oL2k", "plus_code": {"compound_code": "R94F+JX Venturada, Spain", "global_code": "8CGRR94F+JX"}, "rating": 4.2, "reference": "ChIJQz-uQJzbQw0Rm6HXWT4oL2k", "scope": "GOOGLE", "types": ["point_of_interest", "store", "establishment"], "user_ratings_total": 5, "vicinity": "Avenida de Burgos, 14, Venturada"}, {"business_status": "OPERATIONAL", "geometry": {"location": {"lat": 40.82932, "lng": -3.624400000000001}, "viewport": {"northeast": {"lat": 40.8306453302915, "lng": -3.622925719708498}, "southwest": {"lat": 40.8279473697085, "lng": -3.625623680291502}}}, "icon": "https://maps.gstatic.com/mapfiles/place_api/icons/v1/png_71/generic_business-71.png", "icon_background_color": "#7B9EB0", "icon_mask_base_uri": "https://maps.gstatic.com/mapfiles/place_api/icons/v2/generic_pinlet", "international_phone_number": "+34 918 43 94 66", "name": "Mármoles Y Granitos Cabanillas", "opening_hours": {"open_now": false}, "photos": [{"height": 3096, "html_attributions": ["<a href=\"https://maps.google.com/maps/contrib/117820286103753269003\">Susana Garcia</a>"], "photo_reference": "AWn5SU6qZOrEgIMLYJtU8J9cX7-J2FhOnEnhHl3KAl7uy_4ZkjytnV-2US_ztbCxjo9nMQnCn0rQV1RolrHyMf2Rl9vMtum6bvy2GGb_bKeK-5F7kjIhPOPFQ-rBBhJpnP_qMCpOPl50QXG-UDEEFreM2H5-eywMhjnoyvoDVhvX684VCTUt6gwwF5-3hcTvHVHXUKnFXGWJLN694U2PXJ4OVGtNifzKrMgKPsFNHavuNhpmDalY_embsv9XZ2tsFICFg003yUnnQddLflBahVf0XY_W7sUdENp_cTL_69KTVS8SbNgz3YzaA6abE6EJl-FHJLMRAmCRoOflgg53VpzJr0foWbPjaAKpeGJ3kDPpXABhaxxtPR1amSDA4PNs_NZjVbYNdsKD21iK8mjZKmy0peXMsr9h5TqM6S_8K4ee-uvs36rT2pbnEw56R9J84PVmQvpdk3f-BVL1q_pD5ygV96U1ysT5e9P6sTHhmqwDNpH7InSMZExZ_MupV6KDzd__8bwsQUm-AEi6J2_DcM8qRAipRoVeRYY3wKpQWkuT_RxykyapeHdsOWcJTpgDkbmQZIRbWybc5o5yQ6TM6w5Ug9Yn9IvzNN9hMzV7IIzPu7-ePApVMEt3Ty8c5Rhwd53l", "width": 4128}], "place_id": "ChIJt2HCP3ncQw0RGzXeiLnBZlU", "plus_code": {"compound_code": "R9HG+P6 Cabanillas de la Sierra, Spain", "global_code": "8CGRR9HG+P6"}, "rating": 4.6, "reference": "ChIJt2HCP3ncQw0RGzXeiLnBZlU", "scope": "GOOGLE", "types": ["point_of_interest", "general_contractor", "establishment"], "user_ratings_total": 32, "vicinity": "Avenida de los Arrieros, 34, Cabanillas de la Sierra"}, {"business_status": "OPERATIONAL", "geometry": {"location": {"lat": 40.797771, "lng": -3.620493500000001}, "viewport": {"northeast": {"lat": 40.7991199802915, "lng": -3.619144469708498}, "southwest": {"lat": 40.7964220197085, "lng": -3.621842430291502}}}, "icon": "https://maps.gstatic.com/mapfiles/place_api/icons/v1/png_71/generic_business-71.png", "icon_background_color": "#7B9EB0", "icon_mask_base_uri": "https://maps.gstatic.com/mapfiles/place_api/icons/v2/generic_pinlet", "international_phone_number": "+34 670 09 97 54", "name": "Abonos Óscar Chichón - Venta Abonos - Leña Encina - Zona Norte Madrid", "opening_hours": {"open_now": false}, "photos": [{"height": 574, "html_attributions": ["<a href=\"https://maps.google.com/maps/contrib/106600599905118897811\">Abonos Óscar Chichón - Venta Abonos - Leña Encina - Zona Norte Madrid</a>"], "photo_reference": "AWn5SU6mGf9k6jj3jw0hLJ31vUGKr24KNSWzutNVjRWMbUAh9hXOqIlwGZxY-ElDG12nTR2WTY4jAIAEh95h9FSGkxClBdf95sVPhLU6wXcAZ37w-kRedun6IjCEUqC2EjtXhol4a8WG75RyXJqOAfP0Qc5xhaklB4KhxudRCk5WhDVkkRfac7n0iBo6nIqVOxn-hfKE2xhSaYsjTIdYR98AGdqpLxSfrgh4LscuDA81XJJ7NltPhy6YUGG-Gw-0M0nW6fGT-Bv5HvhtxRY1tYili0pFF4OQNVG6auO9oYKQuPFcA0j3005oblFJ0BVoLKa_GL63Cqbf1H4", "width": 1020}], "place_id": "ChIJrUz18wrbQw0R0NLODKUzu5Q", "plus_code": {"compound_code": "Q9XH+4R Venturada, Spain", "global_code": "8CGRQ9XH+4R"}, "rating": 3, "reference": "ChIJrUz18wrbQw0R0NLODKUzu5Q", "scope": "GOOGLE", "types": ["point_of_interest", "establishment"], "user_ratings_total": 30, "vicinity": "Calle Almajanes, 4, Venturada"}, {"business_status": "OPERATIONAL", "geometry": {"location": {"lat": 40.7980179, "lng": -3.620903300000001}, "viewport": {"northeast": {"lat": 40.7994478302915, "lng": -3.619468619708498}, "southwest": {"lat": 40.7967498697085, "lng": -3.622166580291502}}}, "icon": "https://maps.gstatic.com/mapfiles/place_api/icons/v1/png_71/restaurant-71.png", "icon_background_color": "#FF9E67", "icon_mask_base_uri": "https://maps.gstatic.com/mapfiles/place_api/icons/v2/restaurant_pinlet", "international_phone_number": "+34 918 44 14 32", "name": "Ventura & Jones", "opening_hours": {"open_now": false}, "photos": [{"height": 3000, "html_attributions": ["<a href=\"https://maps.google.com/maps/contrib/111611107605623695765\">360 Inner View</a>"], "photo_reference": "AWn5SU7aHhGz74OBqciEf2qE8egp0SJNvfM3455Lz36dyfx_4X1oACKH35flGApjQvHBhG6CUN6pBwkMCQmqvphKNqwQRqhv0HQx4us24LxsMKZEHc7ldCDBBwIw8_lvYtyfO9xY_v5VZNuRJf3oI6hkLor7um8VjwSmDP4pRHAS2GLgYsSts0nOc0fjIpLZE7RjPpHJ4ankEt2xdtAYO9I0q71KH7SifcmiwRC_qTj4hwUFMDIjDmdK6FXUkU4oO9K_N9_1vY2jVo3BYy1eL3Z_MrcMNgTQ9HQLhTUCpKXvyJ-7fUmpRIPh7iWQC2xROmUzGCoGt3jke5E7oX-CRmMt4vFZWHS_562xYQOjoX8BsUoOdtVxOHyHDL-aC8fy0wCXYBDcNGC-lVH33YDfQB2a1uFmMI2gzX_X5NxkSOJNdG6FugNcRH-_5wVG1VfTLRudsXcObyya09J3bSG1Z_a6N5ysBbetdOUgimElJyLwfPBW4P1fPZgHGQADheCAYSzn0CnIfTRX36ijk91BnTqRWIKQP0XfUNO44QCWNS1Lpc6HqR8iOKhR5WoafsFgmKKjPid2LXSQmiynzgjfu1TSYs7nJCAR69ej-VSdO6kepkZRJxeQRv9ecFimx9MkgWMUzuWW85NK", "width": 4000}], "place_id": "ChIJD-hyZgrbQw0R863P4Hp4cAU", "plus_code": {"compound_code": "Q9XH+6J Venturada, Spain", "global_code": "8CGRQ9XH+6J"}, "price_level": 1, "rating": 4.3, "reference": "ChIJD-hyZgrbQw0R863P4Hp4cAU", "scope": "GOOGLE", "types": ["meal_delivery", "restaurant", "point_of_interest", "food", "establishment"], "user_ratings_total": 384, "vicinity": "Calle de los Álamos, 4, Venturada"}, {"business_status": "OPERATIONAL", "geometry": {"location": {"lat": 40.79839, "lng": -3.6215974}, "viewport": {"northeast": {"lat": 40.7996920302915, "lng": -3.620259469708498}, "southwest": {"lat": 40.7969940697085, "lng": -3.622957430291502}}}, "icon": "https://maps.gstatic.com/mapfiles/place_api/icons/v1/png_71/generic_business-71.png", "icon_background_color": "#7B9EB0", "icon_mask_base_uri": "https://maps.gstatic.com/mapfiles/place_api/icons/v2/generic_pinlet", "international_phone_number": "+34 650 79 16 74", "name": "Mysteria Designs", "opening_hours": {"open_now": false}, "photos": [{"height": 942, "html_attributions": ["<a href=\"https://maps.google.com/maps/contrib/111839364036619857638\">Mysteria Designs</a>"], "photo_reference": "AWn5SU6PO_k--do4ccbe3MCKMrijs-KELPQhKqnfsJrCd4AGUGUcWsFGgb6oPediIXfEFT1x_K940l8vuGqRMNSnwlEZUQDoZqLY6I0aJy65rxR4cO1JJxSO5c-n0NmpN1L4qg0ugWKwS0IY3hIVfUPrgMsXruOYgl4u0Oz5Nva5sqwpuPOdHw9yajNEJ1ldZhwzptD4FUoe86MlMyob_5uNA5vloPwbXO-bcDJowpeysJrTYtqMjqVZue-2NfFlezicKxc9MatgIVB32F_VpCcN4p9MTeGxETKYgHXrsJKwXxc53d_sQToXy8C8pN-5EcTzvfaodUGX8_0", "width": 1675}], "place_id": "ChIJrdFLfgrbQw0RUxfBLw7gBvk", "plus_code": {"compound_code": "Q9XH+99 Venturada, Spain", "global_code": "8CGRQ9XH+99"}, "rating": 4.5, "reference": "ChIJrdFLfgrbQw0RUxfBLw7gBvk", "scope": "GOOGLE", "types": ["point_of_interest", "establishment"], "user_ratings_total": 8, "vicinity": "Calle del Parador, 11C, Venturada"}, {"business_status": "OPERATIONAL", "geometry": {"location": {"lat": 40.816289, "lng": -3.6036019}, "viewport": {"northeast": {"lat": 40.8176083302915, "lng": -3.602268819708498}, "southwest": {"lat": 40.8149103697085, "lng": -3.604966780291502}}}, "icon": "https://maps.gstatic.com/mapfiles/place_api/icons/v1/png_71/generic_business-71.png", "icon_background_color": "#7B9EB0", "icon_mask_base_uri": "https://maps.gstatic.com/mapfiles/place_api/icons/v2/generic_pinlet", "name": "Redueña - Plaza de la Villa", "place_id": "ChIJvcnzLmfbQw0RGTqVjKYkdgU", "plus_code": {"compound_code": "R98W+GH Redueña, Spain", "global_code": "8CGRR98W+GH"}, "rating": 4, "reference": "ChIJvcnzLmfbQw0RGTqVjKYkdgU", "scope": "GOOGLE", "types": ["transit_station", "point_of_interest", "establishment"], "user_ratings_total": 1, "vicinity": "Spain"}, {"geometry": {"location": {"lat": 40.7990504, "lng": -3.6224135}, "viewport": {"northeast": {"lat": 40.80305888359328, "lng": -3.616576924613461}, "southwest": {"lat": 40.79550924409271, "lng": -3.634551710385104}}}, "icon": "https://maps.gstatic.com/mapfiles/place_api/icons/v1/png_71/geocode-71.png", "icon_background_color": "#7B9EB0", "icon_mask_base_uri": "https://maps.gstatic.com/mapfiles/place_api/icons/v2/generic_pinlet", "name": "Venturada", "photos": [{"height": 1860, "html_attributions": ["<a href=\"https://maps.google.com/maps/contrib/101321764474141234821\">ricardo fernández del Blanco</a>"], "photo_reference": "AWn5SU6hpNYqkDjAkYlv-Hiz2d-NAvywjMgAqyuUcnOk_PIlJe7jYAq3HNTk3IdvFoTu_HSR2Cx7ytF88B4Y-w4nBSYPy0x4N4h7fE0EEgPajB7x8K63ioEaF69GpbeZSot0sZgLR_YOIK1iAZYBm7c0rQM3M2UlwndnGEA3TrdmViBkN9aFIz7mouGM4W1c52LoymWxGaJPBqipTy132sBzpZcZySuBzlw2n00brGi-kkKrobrnHhSNK8IH3v6nhBKSxWxMxEvXyqPSF2AvtMUpaQ_4Gns8qQTQ08NAoTwzmVRQ-BbEziMlxfXjHLs4fUN5hKOp4jay8ENjKJQPNMYz0SAOsCIJTAWHXuzoT-e00e0rCKtJKjF6oYgvJnOehhzIZcp5SkrFtgchMxOYqJin3kjzIxZs4NBOJq1fgyKkqrdYZxvRwnrxcxtp4HNK1wmbcqFE1fuIOjAGT5ydS1JN4pXH1-J1LH5qMWi3Z3I_FqaF-QpDquWiCkgrlm9fk18iqyV2YL0gYLtADAW7maVutyuLMGD5p3-f5xEZFN7a8ZcJ1AmFSwq9FWQ0PqHaiPIM22h-mdhmGt-G2gDsVhVIFC7jhcjZOqq49MZzEEvyrsE0nDTRWOKORerlS8-F2N3p", "width": 4032}], "place_id": "ChIJub_Cw6HbQw0R2Kefa8mBMwo", "reference": "ChIJub_Cw6HbQw0R2Kefa8mBMwo", "scope": "GOOGLE", "types": ["locality", "political"], "vicinity": "Venturada"}]