[{"business_status": "OPERATIONAL", "geometry": {"location": {"lat": 40.14222659999999, "lng": -3.416268199999999}, "viewport": {"northeast": {"lat": 40.1434971302915, "lng": -3.414869119708498}, "southwest": {"lat": 40.1407991697085, "lng": -3.417567080291501}}}, "icon": "https://maps.gstatic.com/mapfiles/place_api/icons/v1/png_71/civic_building-71.png", "icon_background_color": "#7B9EB0", "icon_mask_base_uri": "https://maps.gstatic.com/mapfiles/place_api/icons/v2/civic-bldg_pinlet", "name": "Guardia Civil CHINCHON!", "opening_hours": {"open_now": false}, "place_id": "ChIJnetHlNNsQg0RDgD5VYHosgM", "plus_code": {"compound_code": "4HRM+VF Chinchón, Spain", "global_code": "8CGR4HRM+VF"}, "rating": 2.4, "reference": "ChIJnetHlNNsQg0RDgD5VYHosgM", "scope": "GOOGLE", "types": ["police", "point_of_interest", "establishment"], "user_ratings_total": 8, "vicinity": "Carretera de Valdelaguna, 1, Chinchón"}, {"business_status": "OPERATIONAL", "geometry": {"location": {"lat": 40.13992199999999, "lng": -3.4230075}, "viewport": {"northeast": {"lat": 40.14127188029151, "lng": -3.421578319708498}, "southwest": {"lat": 40.13857391970851, "lng": -3.424276280291502}}}, "icon": "https://maps.gstatic.com/mapfiles/place_api/icons/v1/png_71/civic_building-71.png", "icon_background_color": "#7B9EB0", "icon_mask_base_uri": "https://maps.gstatic.com/mapfiles/place_api/icons/v2/civic-bldg_pinlet", "international_phone_number": "+34 629 16 70 70", "name": "Policía Local", "opening_hours": {"open_now": false}, "photos": [{"height": 4032, "html_attributions": ["<a href=\"https://maps.google.com/maps/contrib/112140140200379839211\">Guillermo Fernandez</a>"], "photo_reference": "AWn5SU6XuD_1_STs5oGz8RKTPLjH5H_uEyXGAl2HjP2CEcC-XC2lG4i8etnef4XVpo_Af2i2E_pWLfoZSZVWZelGXBrfaOntjI9YveWyZl6KejslBzQXmsDCEgV15j-qmuGgzqUthQNi3u6SDmCJ3T8sByLgZj80peGTNNiejeOt1YFmwggfV5uTtHrwpDvyWU6WA6nL9xOJ0Yy_tReEJ-Xxn9hDC_EYfwby6EH_M2Th_-qIxfooDUQrKKN4xXxcnALuFYVgvRu5zpPe4FmNTnRvCZ4hylHC2wikm4fr3LqTwUglmH1ZDGu2YtN4pptruqUAFEtu-IiDonUTC2uHp25VIl8IJ_722odRscyIiQkui-psc44OHfFIriwkD3aEeLLo5uAUtjWv53mbiFA_PC9c-jwhHpWH_E_YiAlQP_Pzw-TyHDHR9jvA3vCtSv79ZEpDjCpYTLux3xRjMKXDBXMySTfUOsRt-pYuxOJuCoCbJSjhFEyl3_fHhFcTixIEBwXFo0qs2XJtk-SB1fifIMplFN0HHQ9IQin1x5Gvxju7TIt0Bldg0EQBwJX048U41cQzACC_lrJTBRcGdhPbw5nQQqRVL9bPodP-tt1_dAju0-RQlon60jKKtomtRH43JPhPhexK8A", "width": 3024}], "place_id": "ChIJlZ1hlisTQg0RSrUNVrXxCk8", "plus_code": {"compound_code": "4HQG+XQ Chinchón, Spain", "global_code": "8CGR4HQG+XQ"}, "reference": "ChIJlZ1hlisTQg0RSrUNVrXxCk8", "scope": "GOOGLE", "types": ["police", "point_of_interest", "establishment"], "vicinity": "Plaza Mayor, 3, Chinchón"}, {"business_status": "OPERATIONAL", "geometry": {"location": {"lat": 40.109186, "lng": -3.3869838}, "viewport": {"northeast": {"lat": 40.11056358029149, "lng": -3.385631969708498}, "southwest": {"lat": 40.1078656197085, "lng": -3.388329930291502}}}, "icon": "https://maps.gstatic.com/mapfiles/place_api/icons/v1/png_71/civic_building-71.png", "icon_background_color": "#7B9EB0", "icon_mask_base_uri": "https://maps.gstatic.com/mapfiles/place_api/icons/v2/civic-bldg_pinlet", "international_phone_number": "+34 620 25 88 46", "name": "Policía Local", "opening_hours": {"open_now": true}, "place_id": "ChIJERGUpdttQg0Rt4VXbrN-xFs", "plus_code": {"compound_code": "4J57+M6 Colmenar de Oreja, Spain", "global_code": "8CGR4J57+M6"}, "reference": "ChIJERGUpdttQg0Rt4VXbrN-xFs", "scope": "GOOGLE", "types": ["police", "point_of_interest", "establishment"], "vicinity": "Calle del Pozo del Concejo, 2, Colmenar de Oreja"}, {"business_status": "OPERATIONAL", "geometry": {"location": {"lat": 40.10654729999999, "lng": -3.3824379}, "viewport": {"northeast": {"lat": 40.1078470302915, "lng": -3.381200019708498}, "southwest": {"lat": 40.1051490697085, "lng": -3.383897980291502}}}, "icon": "https://maps.gstatic.com/mapfiles/place_api/icons/v1/png_71/civic_building-71.png", "icon_background_color": "#7B9EB0", "icon_mask_base_uri": "https://maps.gstatic.com/mapfiles/place_api/icons/v2/civic-bldg_pinlet", "international_phone_number": "+34 918 94 33 56", "name": "Guardia Civil de Colmenar de Oreja", "opening_hours": {"open_now": false}, "photos": [{"height": 4000, "html_attributions": ["<a href=\"https://maps.google.com/maps/contrib/118312228697242600089\">Charito belisario</a>"], "photo_reference": "AWn5SU6Uui1VaThgRW-8xxeOcy7i7TtsVZQXwDzSTOxbE7cU98W_2Xmt2nDJwvu5vnL-fYSQaIFN5EPze88B-CJFgKRRkEI7VTNP-fDM9ipf13dZRI9M_eUTScbf5acESyAPds0rJ-s2Jsts09-TpJuMh2obC50wRUZ-k2nrkqSrHGGIcu79LtywPV3IFyPKZLrYqMqSMMQ1Pz1W2y9GKYl1TLv4acuujogwPRBs7qkvKHSPOqgmizbomIW73Krr28KC4EoxRLIPPjoOl8aax1KD-binOIQLzC2LDc3SlGrczveUAUi7GpgFFMUNSuqvCewJjiaceCA2WdgI7ROwDtAibVXxJjvLh8y0EmnpvcLQp-ZNUee64Gth9VRrlEsWJsV4V6Z66zvM_0h9l7BceyNve_baxuWKxzlcDemBjkAnLtF4g_JmvCP8kawFnBwfvWpxS1mkBJlPgcxOGSFWo55mY8ASQD_oEtE-C4WHDqYeYtXrMw_A8rCXpG4z86e3bUHoKZsErT_sKqQzjXMNurULc8ETYERfyYehX-vwZyJomRE2QQ60kNBTsnBArHcZtgmhyked7oH1Mhihc5gB_DHFYY5lYWIZi-tbOzAwrlPnpPK3jlxeSoSZlhPSv4st5kCyApFCSw", "width": 3000}], "place_id": "ChIJqzFYb9ltQg0R92VYG0mNZ1E", "plus_code": {"compound_code": "4J49+J2 Colmenar de Oreja, Spain", "global_code": "8CGR4J49+J2"}, "rating": 5, "reference": "ChIJqzFYb9ltQg0R92VYG0mNZ1E", "scope": "GOOGLE", "types": ["police", "point_of_interest", "establishment"], "user_ratings_total": 1, "vicinity": "Calle Puerta de Valencia, 1, Colmenar de Oreja"}]