[{"business_status": "OPERATIONAL", "geometry": {"location": {"lat": 40.4597139, "lng": -3.3657197}, "viewport": {"northeast": {"lat": 40.4610626302915, "lng": -3.364370419708498}, "southwest": {"lat": 40.4583646697085, "lng": -3.367068380291502}}}, "icon": "https://maps.gstatic.com/mapfiles/place_api/icons/v1/png_71/parking-71.png", "icon_background_color": "#7B9EB0", "icon_mask_base_uri": "https://maps.gstatic.com/mapfiles/place_api/icons/v2/parking_pinlet", "international_phone_number": "+34 902 60 26 46", "name": "Parking Zulema", "photos": [{"height": 2336, "html_attributions": ["<a href=\"https://maps.google.com/maps/contrib/118049279057421865024\">Antonio Garcia Pozo</a>"], "photo_reference": "AWn5SU7y5IDa5W5iy63MrTh8QUPO3UzdKTBbBuXBMEruo6L5LABmJj7Mruoe4T-mvDsTg33mtI3EUAs02LbI170eIpXsxXBEElZDx2mFnch8ZxK71s6-uYoknS9qDcL75_czGN8OIVsdnWvCOitGMGgnlU960TD4leZ5ss70ynN0ASsrGY3gSOoOgHFoY37XBI_K37BeXA2YEoL2NvCA759JCA7cr63WwozWdTq29LuUqaUEwBlEQHZokLYeBDKw08PcxZZLCbIKrMaSzkbUCpuA77Ev4vpDR31Hb76FsPzNnbmcdnALAIeYY0d9Ii0wtBQ8Za3S-WuB0e9wd_w6pJAWPKBHkc8Ygn2OdV2NjApPmMelq52TgapuJfm4yrTfhjgUCZcfLxPkkoRMeUdEAdF4dVhywVXT6BcU61Lfy8fGiva1S919pEJmTUgY0fkUPqv_CCcCHRYB-pMSgwDk0Y9liUHZbDByetj6bMvxWTp3z9WG_zMkhwEacZKu5AWcBxeNTPv8uSp16oEwP0_Q9VVRXTRK4j0fvy2ZQAVOICI99-adIyGNoaqcvG4qZtkXL4wn-aP4jJ6s9mw1tRPZgrlP32dfbWV4sC8E5nA31h_cPe3dm2HyI_9UIE4ymlsNCAacO-T_pQ", "width": 4160}], "place_id": "ChIJ605JkeNIQg0RsQRBnT43tKk", "plus_code": {"compound_code": "FJ5M+VP Alcala de Henares, Spain", "global_code": "8CGRFJ5M+VP"}, "rating": 3.4, "reference": "ChIJ605JkeNIQg0RsQRBnT43tKk", "scope": "GOOGLE", "types": ["parking", "point_of_interest", "establishment"], "user_ratings_total": 20, "vicinity": "Alcala de Henares"}, {"business_status": "OPERATIONAL", "geometry": {"location": {"lat": 40.4091945, "lng": -3.3649801}, "viewport": {"northeast": {"lat": 40.41045468029151, "lng": -3.363676819708499}, "southwest": {"lat": 40.40775671970851, "lng": -3.366374780291502}}}, "icon": "https://maps.gstatic.com/mapfiles/place_api/icons/v1/png_71/parking-71.png", "icon_background_color": "#7B9EB0", "icon_mask_base_uri": "https://maps.gstatic.com/mapfiles/place_api/icons/v2/parking_pinlet", "name": "Aparcamiento de movilidad reducida", "place_id": "ChIJVWTXHwBHQg0RxDN3ms0nltk", "plus_code": {"compound_code": "CJ5P+M2 Torres de la Alameda, Spain", "global_code": "8CGRCJ5P+M2"}, "reference": "ChIJVWTXHwBHQg0RxDN3ms0nltk", "scope": "GOOGLE", "types": ["parking", "point_of_interest", "establishment"], "vicinity": "Calle de los Baños, Torres de la Alameda"}, {"business_status": "OPERATIONAL", "geometry": {"location": {"lat": 40.4218881, "lng": -3.3771054}, "viewport": {"northeast": {"lat": 40.4232099802915, "lng": -3.376012869708498}, "southwest": {"lat": 40.4205120197085, "lng": -3.378710830291502}}}, "icon": "https://maps.gstatic.com/mapfiles/place_api/icons/v1/png_71/parking-71.png", "icon_background_color": "#7B9EB0", "icon_mask_base_uri": "https://maps.gstatic.com/mapfiles/place_api/icons/v2/parking_pinlet", "international_phone_number": "+34 621 02 13 58", "name": "M300 CarPark", "opening_hours": {"open_now": false}, "photos": [{"height": 738, "html_attributions": ["<a href=\"https://maps.google.com/maps/contrib/101185266943907867173\">M300 CarPark</a>"], "photo_reference": "AWn5SU7FTuyOOLiFGfcBfN5VZL08hjVS6YAIvBcwW8PN9h16exEiwi4iYGrENpPYuJf8Lxn-ZS03irjwkR4vIacBaP8nzgHBu2RAjkYXti8CT81Do6MojX3XyRaUG6hogG_CHdmxPP-lvd1r4y04aw3QC86FIGC-beztmCq73oWP2oPoeaUIFMQ6lq2LCvtRhMbzfw-QkRRzA2sEy1Qy1tGGrDJstKOOXGsX3ZFEarSdVLL_SkHRGzDlkxdHjv144DnATSehrQ9sVL74qu_qXEljrhPdwEUH1-5aO_ba1uA3jRFi2Vb8ShAH92wtUX8Q_kOiwFnZHH0Znw8", "width": 1599}], "place_id": "ChIJ5focz1dHQg0RYWzJwuM5m0c", "plus_code": {"compound_code": "CJCF+Q5 Torres de la Alameda, Spain", "global_code": "8CGRCJCF+Q5"}, "rating": 4, "reference": "ChIJ5focz1dHQg0RYWzJwuM5m0c", "scope": "GOOGLE", "types": ["parking", "point_of_interest", "establishment"], "user_ratings_total": 60, "vicinity": "CRTA, M-300, KM 18, Torres de la Alameda"}, {"business_status": "OPERATIONAL", "geometry": {"location": {"lat": 40.408191, "lng": -3.3887744}, "viewport": {"northeast": {"lat": 40.4095573302915, "lng": -3.387390419708498}, "southwest": {"lat": 40.4068593697085, "lng": -3.390088380291502}}}, "icon": "https://maps.gstatic.com/mapfiles/place_api/icons/v1/png_71/parking-71.png", "icon_background_color": "#7B9EB0", "icon_mask_base_uri": "https://maps.gstatic.com/mapfiles/place_api/icons/v2/parking_pinlet", "name": "Parking Torres", "photos": [{"height": 3024, "html_attributions": ["<a href=\"https://maps.google.com/maps/contrib/109409160895334586845\">jorge domingo</a>"], "photo_reference": "AWn5SU7Xa-AsNPzM5KVhhImMJ_7E2_sZzIc0OUT4wFAZDfEpu5W_JnHftyhRO3GBz0gFR9TqnGCFd7AI-lMUGTUt0sfyHXfFaiebzNtGf4MrA4DTMp9JW0zRHNd735ktTFDd95_fseD3pkSUusFAxSy247i-LIezeFmIskFQ7K-M9YEuipl2hCL-OGfIf9_aR74--NZ_Ocq4yuGfcG5s220rPUYnU_DEDdUye3EDKHLcVe-gSHN-onQ4ZytySQH3MZ10LQYa1-io47VeveBKE38t5eSi-KI_cOA68smzmTeRJLYGAQWFNihVLSLy3IO8MQsL0OHlUFx009bOdurhSxQeJGY6GGOeMDqjds4xzWDtDX9Wh-wk_faISMZmoe2Of1bfDuVyw0H99ZV1oMSVUIALVR0s-Mv-Jc2zQMauuVlnxjV-vWKAhz0suFiIXQmEyImEpXDn952F5nfyqo-BtwgVUQk4Q_1YUerDHhUM-2mSks2mf8-aLwXJ5UABBLpmLn-LuXYXB7UCECncegHsiQBo3EjEXwuhqTNbJxZxBqrpiHD3vUKiVRMAWhjf_40QzXlv96Halx6a-9P2dXElYRU4jt_rZ6CqCM-BJ5X3w4-k9rTsBdMA0ckHu25TcbeJVhbbcODO0X5t", "width": 4032}], "place_id": "ChIJR0E5Fc9HQg0R4-OX3jVD9Uo", "plus_code": {"compound_code": "CJ56+7F Torres de la Alameda, Spain", "global_code": "8CGRCJ56+7F"}, "rating": 4, "reference": "ChIJR0E5Fc9HQg0R4-OX3jVD9Uo", "scope": "GOOGLE", "types": ["parking", "point_of_interest", "establishment"], "user_ratings_total": 24, "vicinity": "Torres de la Alameda"}, {"business_status": "OPERATIONAL", "geometry": {"location": {"lat": 40.4040205, "lng": -3.3931687}, "viewport": {"northeast": {"lat": 40.4054357302915, "lng": -3.391972119708499}, "southwest": {"lat": 40.4027377697085, "lng": -3.394670080291503}}}, "icon": "https://maps.gstatic.com/mapfiles/place_api/icons/v1/png_71/parking-71.png", "icon_background_color": "#7B9EB0", "icon_mask_base_uri": "https://maps.gstatic.com/mapfiles/place_api/icons/v2/parking_pinlet", "international_phone_number": "+34 619 41 66 76", "name": "Parking Reyes", "opening_hours": {"open_now": true}, "photos": [{"height": 768, "html_attributions": ["<a href=\"https://maps.google.com/maps/contrib/112001915896231009377\">Parking Reyes</a>"], "photo_reference": "AWn5SU5akZTY-8dnnjNZTWkkZ-0R2C0S3cf1hJFfdoVYx8Rh26BR0QmG1nKHsBsI_5K-QlrheCryxXRBOwZ0rpoWx-O9jwjU3ncGdkeYHKPIaOyd6Qw8HFV0zdqeQYXQV2rMvg44YcJ3jljZyBNlOGBd24ut6dtBQKpUkwc6QeUe-_3CbUwY7vS44gjha9EOz2VXWgNgLM2Mh2HU81h1QZJhHNiElvpc5e2Xm_VVjD5_tJ7Gvo_v28WOAQYuCU0IscYrHdI-Wb8-XKW0NRpQEO7s56VvRiVqrjCQ4PSDg23r829t_Jvm1EvEt0IJY2goLjesb1TtIwVVSvo", "width": 1366}], "place_id": "ChIJu1w9H19HQg0RMyY_CD7-3hI", "plus_code": {"compound_code": "CJ34+JP Torres de la Alameda, Spain", "global_code": "8CGRCJ34+JP"}, "rating": 3.8, "reference": "ChIJu1w9H19HQg0RMyY_CD7-3hI", "scope": "GOOGLE", "types": ["parking", "point_of_interest", "establishment"], "user_ratings_total": 10, "vicinity": "Carretera J34+JMH, Torres de la Alameda"}, {"business_status": "OPERATIONAL", "geometry": {"location": {"lat": 40.44257289999999, "lng": -3.367915699999999}, "viewport": {"northeast": {"lat": 40.4439160802915, "lng": -3.366544069708498}, "southwest": {"lat": 40.44121811970851, "lng": -3.369242030291502}}}, "icon": "https://maps.gstatic.com/mapfiles/place_api/icons/v1/png_71/parking-71.png", "icon_background_color": "#7B9EB0", "icon_mask_base_uri": "https://maps.gstatic.com/mapfiles/place_api/icons/v2/parking_pinlet", "name": "Parking Camino de La Isabela", "opening_hours": {"open_now": true}, "place_id": "ChIJFSqmZoRJQg0RbELXCP9D_Gg", "plus_code": {"compound_code": "CJVJ+2R Los Hueros, Spain", "global_code": "8CGRCJVJ+2R"}, "rating": 2, "reference": "ChIJFSqmZoRJQg0RbELXCP9D_Gg", "scope": "GOOGLE", "types": ["parking", "point_of_interest", "establishment"], "user_ratings_total": 1, "vicinity": "Calle de los Baños de Sacedón, 7, Los Hueros"}, {"business_status": "OPERATIONAL", "geometry": {"location": {"lat": 40.4450745, "lng": -3.3623394}, "viewport": {"northeast": {"lat": 40.44639588029149, "lng": -3.360976119708499}, "southwest": {"lat": 40.4436979197085, "lng": -3.363674080291502}}}, "icon": "https://maps.gstatic.com/mapfiles/place_api/icons/v1/png_71/parking-71.png", "icon_background_color": "#7B9EB0", "icon_mask_base_uri": "https://maps.gstatic.com/mapfiles/place_api/icons/v2/parking_pinlet", "name": "Plaza del Burger King", "opening_hours": {"open_now": true}, "place_id": "ChIJ519Y66BJQg0RjAYS9i4eP2Y", "plus_code": {"compound_code": "CJWQ+23 Villalbilla, Spain", "global_code": "8CGRCJWQ+23"}, "rating": 4.1, "reference": "ChIJ519Y66BJQg0RjAYS9i4eP2Y", "scope": "GOOGLE", "types": ["parking", "point_of_interest", "establishment"], "user_ratings_total": 13, "vicinity": "Calle Mariano José de Larra, 8, Villalbilla"}, {"business_status": "OPERATIONAL", "geometry": {"location": {"lat": 40.44570780000001, "lng": -3.3633654}, "viewport": {"northeast": {"lat": 40.4470540302915, "lng": -3.362006519708498}, "southwest": {"lat": 40.4443560697085, "lng": -3.364704480291501}}}, "icon": "https://maps.gstatic.com/mapfiles/place_api/icons/v1/png_71/parking-71.png", "icon_background_color": "#7B9EB0", "icon_mask_base_uri": "https://maps.gstatic.com/mapfiles/place_api/icons/v2/parking_pinlet", "name": "Parking del Mercadona", "place_id": "ChIJ88K0PABJQg0RS32Hq3X5GLk", "plus_code": {"compound_code": "CJWP+7M Villalbilla, Spain", "global_code": "8CGRCJWP+7M"}, "reference": "ChIJ88K0PABJQg0RS32Hq3X5GLk", "scope": "GOOGLE", "types": ["parking", "point_of_interest", "establishment"], "vicinity": "M-300, 183, Villalbilla"}, {"business_status": "OPERATIONAL", "geometry": {"location": {"lat": 40.4490236, "lng": -3.3519124}, "viewport": {"northeast": {"lat": 40.45038703029149, "lng": -3.350593669708498}, "southwest": {"lat": 40.4476890697085, "lng": -3.353291630291502}}}, "icon": "https://maps.gstatic.com/mapfiles/place_api/icons/v1/png_71/parking-71.png", "icon_background_color": "#7B9EB0", "icon_mask_base_uri": "https://maps.gstatic.com/mapfiles/place_api/icons/v2/parking_pinlet", "name": "Aparcamiento Moreno Truck", "opening_hours": {"open_now": true}, "place_id": "ChIJSWg6B05JQg0R_F3j04ZkNm8", "plus_code": {"compound_code": "CJXX+J6 Los Hueros, Spain", "global_code": "8CGRCJXX+J6"}, "rating": 5, "reference": "ChIJSWg6B05JQg0R_F3j04ZkNm8", "scope": "GOOGLE", "types": ["parking", "point_of_interest", "establishment"], "user_ratings_total": 1, "vicinity": "Calle Salvador Dalí, 19, Los Hueros"}, {"business_status": "OPERATIONAL", "geometry": {"location": {"lat": 40.44956570000001, "lng": -3.3512298}, "viewport": {"northeast": {"lat": 40.4509331802915, "lng": -3.349890569708498}, "southwest": {"lat": 40.4482352197085, "lng": -3.352588530291502}}}, "icon": "https://maps.gstatic.com/mapfiles/place_api/icons/v1/png_71/parking-71.png", "icon_background_color": "#7B9EB0", "icon_mask_base_uri": "https://maps.gstatic.com/mapfiles/place_api/icons/v2/parking_pinlet", "name": "Plaza Escuelas", "place_id": "ChIJWy2Ets5JQg0RERJR9RwvnEg", "plus_code": {"compound_code": "CJXX+RG Los Hueros, Spain", "global_code": "8CGRCJXX+RG"}, "reference": "ChIJWy2Ets5JQg0RERJR9RwvnEg", "scope": "GOOGLE", "types": ["parking", "point_of_interest", "establishment"], "vicinity": "Los Hueros"}, {"business_status": "OPERATIONAL", "geometry": {"location": {"lat": 40.44926859999999, "lng": -3.376099499999999}, "viewport": {"northeast": {"lat": 40.4506124302915, "lng": -3.374746669708498}, "southwest": {"lat": 40.4479144697085, "lng": -3.377444630291502}}}, "icon": "https://maps.gstatic.com/mapfiles/place_api/icons/v1/png_71/parking-71.png", "icon_background_color": "#7B9EB0", "icon_mask_base_uri": "https://maps.gstatic.com/mapfiles/place_api/icons/v2/parking_pinlet", "name": "Parking VisoParaíso", "photos": [{"height": 3000, "html_attributions": ["<a href=\"https://maps.google.com/maps/contrib/104612610030987307460\">Emi JiSu</a>"], "photo_reference": "AWn5SU6UhkVq9eY7FSgcHn4S9Wp1vkpx6zAzZ9_cqZ4116C321sz6M97x6UYVHp1oMhyzkN_0_f3BaCxOWQjViafook-pRjII1FrUcT3od3wDexTAx8b2qulrF-Gll3IRYf9pcC-kK5dBf43_1jF9twdPwX3ECtRXuCGFgQxWLmv1FLC55cRyQ4H7L7FthFankHI6KAxqbJpOyzuS4WJY7udwMXIyn5hv5Ac_gci6rjtguHCIljGkn5C8tGvZo77uCkb5XO25HW0F-8vLjuONC2YW_aK_X4uQqDa1FXUV01YdSzsk6-q0ErkbCVgxyrUvQEifMdOT-lWHmqDq8bVPpzfATnOX-w4KlPYtCrU5992MKXkBCcDEBum7LYHkBV2uXoXYopJYB_xrpQyhnLu5K_Cfbov5XaYwVNbYpLiiIKxyrEl3n_f43FcS1OoqC8NFfBsAXaXqGgbAQH5H9VPn4C9SWTo6iiuec_TduY0_R8sIgh9NP1HLC-fXO82Xx-sGmjmV_KiqLf_yULeWiM8Ng7ICHoG7eCiiZSpouyfYKbssg-s6DB16OyJfUoRpNf89nnhquw91XV5NQBGLp0ipma2937fD_HceIXJ9w2cSamqS0ZBEP04GTPzs8URA-gANt0MKNfh2g", "width": 3000}], "place_id": "ChIJD9xv4HVJQg0ReMCglG6ZwBc", "plus_code": {"compound_code": "CJXF+PH Villalbilla, Spain", "global_code": "8CGRCJXF+PH"}, "rating": 5, "reference": "ChIJD9xv4HVJQg0ReMCglG6ZwBc", "scope": "GOOGLE", "types": ["parking", "point_of_interest", "establishment"], "user_ratings_total": 1, "vicinity": "Travesía de Pereda, 1, Villalbilla"}, {"business_status": "OPERATIONAL", "geometry": {"location": {"lat": 40.4450143, "lng": -3.3217449}, "viewport": {"northeast": {"lat": 40.44626268029149, "lng": -3.320683369708498}, "southwest": {"lat": 40.4435647197085, "lng": -3.323381330291502}}}, "icon": "https://maps.gstatic.com/mapfiles/place_api/icons/v1/png_71/parking-71.png", "icon_background_color": "#7B9EB0", "icon_mask_base_uri": "https://maps.gstatic.com/mapfiles/place_api/icons/v2/parking_pinlet", "international_phone_number": "+34 655 20 61 13", "name": "Parking Camper", "opening_hours": {"open_now": false}, "place_id": "ChIJN8sYl85PQg0RV5bu_hC9pYM", "plus_code": {"compound_code": "CMWH+28 Villalbilla, Spain", "global_code": "8CGRCMWH+28"}, "rating": 4.3, "reference": "ChIJN8sYl85PQg0RV5bu_hC9pYM", "scope": "GOOGLE", "types": ["parking", "point_of_interest", "establishment"], "user_ratings_total": 4, "vicinity": "Calle Juan de la Cierva, Nave 25, Villalbilla"}, {"business_status": "OPERATIONAL", "geometry": {"location": {"lat": 40.3804342, "lng": -3.417141299999999}, "viewport": {"northeast": {"lat": 40.3817980802915, "lng": -3.415808419708498}, "southwest": {"lat": 40.3791001197085, "lng": -3.418506380291502}}}, "icon": "https://maps.gstatic.com/mapfiles/place_api/icons/v1/png_71/parking-71.png", "icon_background_color": "#7B9EB0", "icon_mask_base_uri": "https://maps.gstatic.com/mapfiles/place_api/icons/v2/parking_pinlet", "name": "Aparcamiento Discapacitados", "place_id": "ChIJi3kgZsFHQg0RF1YA-LY5dIA", "plus_code": {"compound_code": "9HJM+54 Loeches, Spain", "global_code": "8CGR9HJM+54"}, "reference": "ChIJi3kgZsFHQg0RF1YA-LY5dIA", "scope": "GOOGLE", "types": ["parking", "point_of_interest", "establishment"], "vicinity": "Calle Nicaragua, 1, Loeches"}, {"business_status": "OPERATIONAL", "geometry": {"location": {"lat": 40.3804539, "lng": -3.4180013}, "viewport": {"northeast": {"lat": 40.3817944802915, "lng": -3.416665769708498}, "southwest": {"lat": 40.3790965197085, "lng": -3.419363730291502}}}, "icon": "https://maps.gstatic.com/mapfiles/place_api/icons/v1/png_71/parking-71.png", "icon_background_color": "#7B9EB0", "icon_mask_base_uri": "https://maps.gstatic.com/mapfiles/place_api/icons/v2/parking_pinlet", "name": "Aparcamiento Discapacitados", "place_id": "ChIJa_DvcFtHQg0R2mvQXBAJlyE", "plus_code": {"compound_code": "9HJJ+5Q Loeches, Spain", "global_code": "8CGR9HJJ+5Q"}, "reference": "ChIJa_DvcFtHQg0R2mvQXBAJlyE", "scope": "GOOGLE", "types": ["parking", "point_of_interest", "establishment"], "vicinity": "Avenida de Argentina, 40, Loeches"}, {"business_status": "OPERATIONAL", "geometry": {"location": {"lat": 40.4345202, "lng": -3.304173}, "viewport": {"northeast": {"lat": 40.4358066802915, "lng": -3.302835369708498}, "southwest": {"lat": 40.4331087197085, "lng": -3.305533330291502}}}, "icon": "https://maps.gstatic.com/mapfiles/place_api/icons/v1/png_71/parking-71.png", "icon_background_color": "#7B9EB0", "icon_mask_base_uri": "https://maps.gstatic.com/mapfiles/place_api/icons/v2/parking_pinlet", "name": "Aparcamiento La Alameda", "opening_hours": {"open_now": true}, "place_id": "ChIJh3T5UQBPQg0R4G470cb7c6s", "plus_code": {"compound_code": "CMMW+R8 Villalbilla, Spain", "global_code": "8CGRCMMW+R8"}, "reference": "ChIJh3T5UQBPQg0R4G470cb7c6s", "scope": "GOOGLE", "types": ["parking", "point_of_interest", "establishment"], "vicinity": "Calle Alameda, 2, Villalbilla"}, {"business_status": "OPERATIONAL", "geometry": {"location": {"lat": 40.4337909, "lng": -3.3002071}, "viewport": {"northeast": {"lat": 40.4351491802915, "lng": -3.298863769708498}, "southwest": {"lat": 40.4324512197085, "lng": -3.301561730291501}}}, "icon": "https://maps.gstatic.com/mapfiles/place_api/icons/v1/png_71/parking-71.png", "icon_background_color": "#7B9EB0", "icon_mask_base_uri": "https://maps.gstatic.com/mapfiles/place_api/icons/v2/parking_pinlet", "name": "Aparcamiento de movilidad reducida centro medico", "place_id": "ChIJCc7PIm5PQg0RUrHUDizxPIs", "plus_code": {"compound_code": "CMMX+GW Villalbilla, Spain", "global_code": "8CGRCMMX+GW"}, "reference": "ChIJCc7PIm5PQg0RUrHUDizxPIs", "scope": "GOOGLE", "types": ["parking", "point_of_interest", "establishment"], "vicinity": "Villalbilla"}, {"business_status": "OPERATIONAL", "geometry": {"location": {"lat": 40.46310079999999, "lng": -3.3598664}, "viewport": {"northeast": {"lat": 40.46434808029149, "lng": -3.358731519708498}, "southwest": {"lat": 40.46165011970849, "lng": -3.361429480291502}}}, "icon": "https://maps.gstatic.com/mapfiles/place_api/icons/v1/png_71/parking-71.png", "icon_background_color": "#7B9EB0", "icon_mask_base_uri": "https://maps.gstatic.com/mapfiles/place_api/icons/v2/parking_pinlet", "name": "Aparcamiento del Parque de Los Cerros de Alcalá", "opening_hours": {"open_now": true}, "photos": [{"height": 2304, "html_attributions": ["<a href=\"https://maps.google.com/maps/contrib/111599227013685706550\">Cristina Prieto Díaz</a>"], "photo_reference": "AWn5SU67uKHSXwqt1TXfipufK3o7Eo2nMlWDe-5VeuSb7pX5VeQe-0OOOIdBkq9lHuzeY3FlU061kXD1keTaDz16stiNjIRDt_bWhPph4XIqyOuG7Tx4akpcTcxcdmdJHGwbh0VfXgFOJWCTe7efWGsnBBZQUe_E8rl7BRFUt_yCsJSWPSUEQcbegHn8-ooUBFL75CxLF-bxPM0iCbWuDXFORZHiLKHG2s66uKlsEW3AYiZHZOTvm_ZaUaZGFoKdtbmbnTPcRwzzcc6X6ms5-pQJwkd_z8vNCNNNS6R2QOdjj23vfFCdekFBGhr-bhYhbPLmAAa1WPZ-VJJsyCsiXaLGjoRLYjALcQ8WK3d_LSl4WbWZRurTxZIKrBxZVggvIyifpw3tmTK6kroVL704_CO_W_AUWTJPBE271SHO5IMPPVI-wq7zdsJUcAY20BJKhDJiXW7FOe20jTyL8fIo1Tpa5jetV8jc8bYcy08WpXJTZQMTqUeYmNfuo2wDd_563NhBxatUSJuKWtGpOtjVuXE-28iNskg60xLRfNLA0TjHPUf3X-ECKe30k43dqrNi4xY7dqUQ-jE2yobzSLUh2iVLQV7hRWE-wYEkAFReBeLASYGASK6CBUepkQYlF8uQu0XWE09ROg", "width": 4096}], "place_id": "ChIJiZWCFuBIQg0RDDCHsKvSQC4", "plus_code": {"compound_code": "FJ7R+63 Alcala de Henares, Spain", "global_code": "8CGRFJ7R+63"}, "rating": 4, "reference": "ChIJiZWCFuBIQg0RDDCHsKvSQC4", "scope": "GOOGLE", "types": ["park", "parking", "point_of_interest", "establishment"], "user_ratings_total": 648, "vicinity": "Aparcamiento, Alcalá de Henares"}, {"business_status": "OPERATIONAL", "geometry": {"location": {"lat": 40.4631278, "lng": -3.361647799999999}, "viewport": {"northeast": {"lat": 40.4644045302915, "lng": -3.360311019708498}, "southwest": {"lat": 40.4617065697085, "lng": -3.363008980291502}}}, "icon": "https://maps.gstatic.com/mapfiles/place_api/icons/v1/png_71/parking-71.png", "icon_background_color": "#7B9EB0", "icon_mask_base_uri": "https://maps.gstatic.com/mapfiles/place_api/icons/v2/parking_pinlet", "name": "Parking Centro De Artesania", "opening_hours": {"open_now": true}, "photos": [{"height": 1836, "html_attributions": ["<a href=\"https://maps.google.com/maps/contrib/109941641219762581114\">Víctor Hugo Valdivieso</a>"], "photo_reference": "AWn5SU4QREm29R_QpEhkOf4PiBs44REzf8q8I1y_BFazpYBSLJtClu8HfAwwKVQElBpEJ9bds3ORIQptzJSqzRncDFmGgtwrksNgm-6zp1XEAhiXVEqexJM7pwthMAcH-B1O9p0TtB4mhMY7oiJ0c-ESCaotWt-V4OoAHUBS_MRCtFof9HGd14tLSHwZNPbit8StoLaXLEPrT6nGN3xsFAVmvSdftxAHtBjEKNCUtbrBfSrmTcI2VkjA73CvTpxTrdlBDrstliLTNNh7JuV3k9LlmbDedCRWbnSTTI955aopH_72LEeD3qnWjh0akQAOP-bP0xue255-oLjk31OY1HjvHwFqECJMI4Y7in2BAVZ-7LY1mDAnQOjIJCOKv_qe3b2yvS6bzKaYivlA6ozLjkhPW45IMqBIUCJqcktx3DiDUUGUiJ7pEnqYs77l7UIxYdOVirdiqKgsKvU-SAWJNUNoBS2xKavTL70zvTI8t9sduawrV89uFwVSZ6sCVubTod9MPjGaCrWs9aZBt7D0RcH6TdE5m0_hjcd7aDcQ20HkDUCAVp_NJWJSDeof86m61BKFXKQFPlzf9GMl5rXD_oUZJf8b6hZqO-N5n75NIho9h11yt-qgeA8lRdzYs_be4a07Wmx1oQ", "width": 3264}], "place_id": "ChIJb2rqzOFIQg0R6Mpe7roX1QM", "plus_code": {"compound_code": "FJ7Q+78 Alcala de Henares, Spain", "global_code": "8CGRFJ7Q+78"}, "rating": 3.7, "reference": "ChIJb2rqzOFIQg0R6Mpe7roX1QM", "scope": "GOOGLE", "types": ["parking", "point_of_interest", "establishment"], "user_ratings_total": 7, "vicinity": "M-300, 25, Alcalá de Henares"}, {"business_status": "OPERATIONAL", "geometry": {"location": {"lat": 40.46454809999999, "lng": -3.3662092}, "viewport": {"northeast": {"lat": 40.4660965302915, "lng": -3.364856069708498}, "southwest": {"lat": 40.4633985697085, "lng": -3.367554030291502}}}, "icon": "https://maps.gstatic.com/mapfiles/place_api/icons/v1/png_71/parking-71.png", "icon_background_color": "#7B9EB0", "icon_mask_base_uri": "https://maps.gstatic.com/mapfiles/place_api/icons/v2/parking_pinlet", "name": "Aparcamiento La Chopera", "place_id": "ChIJJcB3WgBJQg0Riu3i7vqsQ9o", "plus_code": {"compound_code": "FJ7M+RG Alcala de Henares, Spain", "global_code": "8CGRFJ7M+RG"}, "rating": 3, "reference": "ChIJJcB3WgBJQg0Riu3i7vqsQ9o", "scope": "GOOGLE", "types": ["parking", "point_of_interest", "establishment"], "user_ratings_total": 1, "vicinity": "M-300, 25, Alcalá de Henares"}]