[{"business_status": "OPERATIONAL", "geometry": {"location": {"lat": 40.5092289, "lng": -4.303059}, "viewport": {"northeast": {"lat": 40.5105457302915, "lng": -4.301722619708498}, "southwest": {"lat": 40.5078477697085, "lng": -4.304420580291502}}}, "icon": "https://maps.gstatic.com/mapfiles/place_api/icons/v1/png_71/generic_business-71.png", "icon_background_color": "#7B9EB0", "icon_mask_base_uri": "https://maps.gstatic.com/mapfiles/place_api/icons/v2/generic_pinlet", "name": "Gimnasio Municipal Valdemaqueda", "opening_hours": {"open_now": false}, "place_id": "ChIJJUBuLACpQQ0RNcx4ZJvih7E", "plus_code": {"compound_code": "GM5W+MQ Valdemaqueda, Spain", "global_code": "8CGQGM5W+MQ"}, "reference": "ChIJJUBuLACpQQ0RNcx4ZJvih7E", "scope": "GOOGLE", "types": ["gym", "health", "point_of_interest", "establishment"], "vicinity": "Avenida Acacias, 13, Valdemaqueda"}, {"business_status": "OPERATIONAL", "geometry": {"location": {"lat": 40.52832089999999, "lng": -4.2521988}, "viewport": {"northeast": {"lat": 40.52919204999999, "lng": -4.250942349999999}, "southwest": {"lat": 40.52570745000002, "lng": -4.25596815}}}, "icon": "https://maps.gstatic.com/mapfiles/place_api/icons/v1/png_71/generic_business-71.png", "icon_background_color": "#7B9EB0", "icon_mask_base_uri": "https://maps.gstatic.com/mapfiles/place_api/icons/v2/generic_pinlet", "name": "El boulder", "place_id": "ChIJsbpwJNipQQ0RpccYk2hw614", "plus_code": {"compound_code": "GPHX+84 Río Cofio, Spain", "global_code": "8CGQGPHX+84"}, "reference": "ChIJsbpwJNipQQ0RpccYk2hw614", "scope": "GOOGLE", "types": ["gym", "health", "point_of_interest", "establishment"], "vicinity": "Río Cofio"}, {"business_status": "OPERATIONAL", "geometry": {"location": {"lat": 40.499167, "lng": -4.2393025}, "viewport": {"northeast": {"lat": 40.5005312302915, "lng": -4.237915969708498}, "southwest": {"lat": 40.4978332697085, "lng": -4.240613930291502}}}, "icon": "https://maps.gstatic.com/mapfiles/place_api/icons/v1/png_71/generic_business-71.png", "icon_background_color": "#7B9EB0", "icon_mask_base_uri": "https://maps.gstatic.com/mapfiles/place_api/icons/v2/generic_pinlet", "international_phone_number": "+34 918 99 60 04", "name": "POLICLINICA MR", "opening_hours": {"open_now": false}, "photos": [{"height": 900, "html_attributions": ["<a href=\"https://maps.google.com/maps/contrib/104827223603131449294\">POLICLINICA MR</a>"], "photo_reference": "AWn5SU4DPT3Jq4YFLxJjFg7xnsRmL7TOjNbEiLr2SbtFf6iSOv73jhzK5DKsTKZJb8MbvBh1wLsTNeH-nz3RwVGlkG3PGPUWR3a2DE53fYpCFIKNtdaekY0cGWChrrmE1KHfXnHbNhcdYkaocgtGhArq3CRnraUbpRYl6Z0osYWccBWv3lHmQpA5fUqLVcQwRiiAvkfsrP8ZlDT_VFclQR6II1T-P_Jq4-sH8IIMq0Sq7TO_-z9pRSuFExPSpBnCStrlxQO-VW8eKs63EEcNYJAfSG0GnBFrjhXdLkZ4aCY4S6LtO8rwNL7DTc66ul0kYTMxL_42mIifn28", "width": 1600}], "place_id": "ChIJ6-gQ49mpQQ0RcQaaSAi2d-Y", "plus_code": {"compound_code": "FQX6+M7 Robledo de Chavela, Spain", "global_code": "8CGQFQX6+M7"}, "rating": 4.5, "reference": "ChIJ6-gQ49mpQQ0RcQaaSAi2d-Y", "scope": "GOOGLE", "types": ["hospital", "gym", "doctor", "health", "point_of_interest", "establishment"], "user_ratings_total": 26, "vicinity": "Avenida de la Constitución, 26 posterior, local 7, Robledo de Chavela"}, {"business_status": "OPERATIONAL", "geometry": {"location": {"lat": 40.4990955, "lng": -4.2367482}, "viewport": {"northeast": {"lat": 40.5006376802915, "lng": -4.235266469708498}, "southwest": {"lat": 40.4979397197085, "lng": -4.237964430291503}}}, "icon": "https://maps.gstatic.com/mapfiles/place_api/icons/v1/png_71/generic_business-71.png", "icon_background_color": "#7B9EB0", "icon_mask_base_uri": "https://maps.gstatic.com/mapfiles/place_api/icons/v2/generic_pinlet", "name": "Centro deportivo Elisadero", "opening_hours": {"open_now": false}, "photos": [{"height": 3472, "html_attributions": ["<a href=\"https://maps.google.com/maps/contrib/112443922761845824826\">Carlos Fernández</a>"], "photo_reference": "AWn5SU6sJwYKbh1IsTvqnXm5FyOnrcfeOQlJnbBXWEFylnM94RqeFtD678YQRmNKdT-0aOIK2u5aLM4kitdakD68w39GAi_xYPBtzW8SAd5VQEjvEvJv9jX3iInxzCYpc08odBuTLIX8M-uTgacncyw1yccCwvyTyc3qJNIATb0cFdEDsUvCewNWPt9O9RNR-3VsA8zIPC9dGQtQjEY-NlFHnVOmmlgP1JK8ZL_ivapKAhEPTHAZjQrCZ5JB2m1Docrx5qOtrfOmSfHyl0bHEfxP-M5fHmJYKBA5TjId3RZjhLJsF6XwruFNuuyj7UwpDNdRwcS8lCQl6U66AGxcVm42tEfAwXpOfjwO-WFlkDTyDiCUfR9fFMsNuyAnn9PtHEvkz2eg60Zm1O7MUfl0buNuwVjmLTDOcS1nhuNVsgdvIeyCTrp07ReQPYwiMbFatci_m5dCh9i_hN1lWp94YfCIykvpIlItlw56yxajtBkW597h5xktGFj4YgH-OBbjK4N4hoRVUro4Hc0ttq7BwGM4lDQlBFodvsMbIsfHVxf8ptisE4apcdbZVd4xk7QM4FAmhnlMrjVTSSmBQS0sjd_tIPUwTKWNrlYjme4V8u5pI2HWeWiVLPO9gDH7YlG3LPM6dBEQUgnd", "width": 4624}], "place_id": "ChIJfwcdx7SpQQ0RqLv0v32gsyk", "plus_code": {"compound_code": "FQX7+J8 Robledo de Chavela, Spain", "global_code": "8CGQFQX7+J8"}, "rating": 4.4, "reference": "ChIJfwcdx7SpQQ0RqLv0v32gsyk", "scope": "GOOGLE", "types": ["gym", "health", "point_of_interest", "establishment"], "user_ratings_total": 74, "vicinity": "Calle Elisadero, Robledo de Chavela"}]