[{"business_status": "OPERATIONAL", "geometry": {"location": {"lat": 40.4455889, "lng": -3.2704178}, "viewport": {"northeast": {"lat": 40.44695283029149, "lng": -3.269067069708498}, "southwest": {"lat": 40.44425486970849, "lng": -3.271765030291502}}}, "icon": "https://maps.gstatic.com/mapfiles/place_api/icons/v1/png_71/parking-71.png", "icon_background_color": "#7B9EB0", "icon_mask_base_uri": "https://maps.gstatic.com/mapfiles/place_api/icons/v2/parking_pinlet", "name": "Parking del Golf", "place_id": "ChIJt6LPCABPQg0RfOE6OBfZuhg", "plus_code": {"compound_code": "CPWH+6R Anchuelo, Spain", "global_code": "8CGRCPWH+6R"}, "rating": 5, "reference": "ChIJt6LPCABPQg0RfOE6OBfZuhg", "scope": "GOOGLE", "types": ["parking", "point_of_interest", "establishment"], "user_ratings_total": 1, "vicinity": "Calle Zeus, 1, Valdeláguila-El Robledal"}, {"business_status": "OPERATIONAL", "geometry": {"location": {"lat": 40.4705027, "lng": -3.2364148}, "viewport": {"northeast": {"lat": 40.4718608302915, "lng": -3.235085519708498}, "southwest": {"lat": 40.4691628697085, "lng": -3.237783480291502}}}, "icon": "https://maps.gstatic.com/mapfiles/place_api/icons/v1/png_71/parking-71.png", "icon_background_color": "#7B9EB0", "icon_mask_base_uri": "https://maps.gstatic.com/mapfiles/place_api/icons/v2/parking_pinlet", "name": "Aparcamiento C/ Rafael Sánchez", "place_id": "ChIJkdJYFgBRQg0R630dznJ1QS8", "plus_code": {"compound_code": "FQC7+6C Santorcaz, Spain", "global_code": "8CGRFQC7+6C"}, "reference": "ChIJkdJYFgBRQg0R630dznJ1QS8", "scope": "GOOGLE", "types": ["parking", "point_of_interest", "establishment"], "vicinity": "Calle de Rafael Sánchez, 20D, Santorcaz"}, {"business_status": "OPERATIONAL", "geometry": {"location": {"lat": 40.4337909, "lng": -3.3002071}, "viewport": {"northeast": {"lat": 40.4351491802915, "lng": -3.298863769708498}, "southwest": {"lat": 40.4324512197085, "lng": -3.301561730291501}}}, "icon": "https://maps.gstatic.com/mapfiles/place_api/icons/v1/png_71/parking-71.png", "icon_background_color": "#7B9EB0", "icon_mask_base_uri": "https://maps.gstatic.com/mapfiles/place_api/icons/v2/parking_pinlet", "name": "Aparcamiento de movilidad reducida centro medico", "place_id": "ChIJCc7PIm5PQg0RUrHUDizxPIs", "plus_code": {"compound_code": "CMMX+GW Villalbilla, Spain", "global_code": "8CGRCMMX+GW"}, "reference": "ChIJCc7PIm5PQg0RUrHUDizxPIs", "scope": "GOOGLE", "types": ["parking", "point_of_interest", "establishment"], "vicinity": "Villalbilla"}, {"business_status": "OPERATIONAL", "geometry": {"location": {"lat": 40.4345202, "lng": -3.304173}, "viewport": {"northeast": {"lat": 40.4358066802915, "lng": -3.302835369708498}, "southwest": {"lat": 40.4331087197085, "lng": -3.305533330291502}}}, "icon": "https://maps.gstatic.com/mapfiles/place_api/icons/v1/png_71/parking-71.png", "icon_background_color": "#7B9EB0", "icon_mask_base_uri": "https://maps.gstatic.com/mapfiles/place_api/icons/v2/parking_pinlet", "name": "Aparcamiento La Alameda", "opening_hours": {"open_now": true}, "place_id": "ChIJh3T5UQBPQg0R4G470cb7c6s", "plus_code": {"compound_code": "CMMW+R8 Villalbilla, Spain", "global_code": "8CGRCMMW+R8"}, "reference": "ChIJh3T5UQBPQg0R4G470cb7c6s", "scope": "GOOGLE", "types": ["parking", "point_of_interest", "establishment"], "vicinity": "Calle Alameda, 2, Villalbilla"}, {"business_status": "OPERATIONAL", "geometry": {"location": {"lat": 40.5081074, "lng": -3.251123}, "viewport": {"northeast": {"lat": 40.5094204302915, "lng": -3.249744769708498}, "southwest": {"lat": 40.5067224697085, "lng": -3.252442730291502}}}, "icon": "https://maps.gstatic.com/mapfiles/place_api/icons/v1/png_71/parking-71.png", "icon_background_color": "#7B9EB0", "icon_mask_base_uri": "https://maps.gstatic.com/mapfiles/place_api/icons/v2/parking_pinlet", "name": "Aparcamiento Gratuito Mirador", "opening_hours": {"open_now": true}, "place_id": "ChIJ5V1YYABTQg0RJRV_rkd6ud8", "plus_code": {"compound_code": "GP5X+6H Los Santos de la Humosa, Spain", "global_code": "8CGRGP5X+6H"}, "reference": "ChIJ5V1YYABTQg0RJRV_rkd6ud8", "scope": "GOOGLE", "types": ["parking", "point_of_interest", "establishment"], "vicinity": "Paseo de la Visera, 18-20, Los Santos de la Humosa"}, {"business_status": "OPERATIONAL", "geometry": {"location": {"lat": 40.4450143, "lng": -3.3217449}, "viewport": {"northeast": {"lat": 40.44626268029149, "lng": -3.320683369708498}, "southwest": {"lat": 40.4435647197085, "lng": -3.323381330291502}}}, "icon": "https://maps.gstatic.com/mapfiles/place_api/icons/v1/png_71/parking-71.png", "icon_background_color": "#7B9EB0", "icon_mask_base_uri": "https://maps.gstatic.com/mapfiles/place_api/icons/v2/parking_pinlet", "international_phone_number": "+34 655 20 61 13", "name": "Parking Camper", "opening_hours": {"open_now": false}, "place_id": "ChIJN8sYl85PQg0RV5bu_hC9pYM", "plus_code": {"compound_code": "CMWH+28 Villalbilla, Spain", "global_code": "8CGRCMWH+28"}, "rating": 4.3, "reference": "ChIJN8sYl85PQg0RV5bu_hC9pYM", "scope": "GOOGLE", "types": ["parking", "point_of_interest", "establishment"], "user_ratings_total": 4, "vicinity": "Calle Juan de la Cierva, Nave 25, Villalbilla"}, {"business_status": "OPERATIONAL", "geometry": {"location": {"lat": 40.50261039999999, "lng": -3.327202499999999}, "viewport": {"northeast": {"lat": 40.5039433802915, "lng": -3.325880419708498}, "southwest": {"lat": 40.5012454197085, "lng": -3.328578380291502}}}, "icon": "https://maps.gstatic.com/mapfiles/place_api/icons/v1/png_71/parking-71.png", "icon_background_color": "#7B9EB0", "icon_mask_base_uri": "https://maps.gstatic.com/mapfiles/place_api/icons/v2/parking_pinlet", "name": "Aparcamiento Discapacitados", "place_id": "ChIJH5HA7_9PQg0RUdEE4kM9ncw", "plus_code": {"compound_code": "GM3F+24 Alcala de Henares, Spain", "global_code": "8CGRGM3F+24"}, "reference": "ChIJH5HA7_9PQg0RUdEE4kM9ncw", "scope": "GOOGLE", "types": ["parking", "point_of_interest", "establishment"], "vicinity": "Calle Humanes, 1, Alcalá de Henares"}, {"business_status": "OPERATIONAL", "geometry": {"location": {"lat": 40.502095, "lng": -3.3284253}, "viewport": {"northeast": {"lat": 40.5034548802915, "lng": -3.327087169708498}, "southwest": {"lat": 40.5007569197085, "lng": -3.329785130291502}}}, "icon": "https://maps.gstatic.com/mapfiles/place_api/icons/v1/png_71/parking-71.png", "icon_background_color": "#7B9EB0", "icon_mask_base_uri": "https://maps.gstatic.com/mapfiles/place_api/icons/v2/parking_pinlet", "name": "Aparcamiento Discapacitados", "place_id": "ChIJu8HQVnpPQg0ReEgc2pxU0Rk", "rating": 5, "reference": "ChIJu8HQVnpPQg0ReEgc2pxU0Rk", "scope": "GOOGLE", "types": ["parking", "point_of_interest", "establishment"], "user_ratings_total": 1, "vicinity": "GM2C+RJ, Alcala de Henares"}, {"business_status": "OPERATIONAL", "geometry": {"location": {"lat": 40.5061093, "lng": -3.324126699999999}, "viewport": {"northeast": {"lat": 40.5074016802915, "lng": -3.322869219708497}, "southwest": {"lat": 40.5047037197085, "lng": -3.325567180291501}}}, "icon": "https://maps.gstatic.com/mapfiles/place_api/icons/v1/png_71/parking-71.png", "icon_background_color": "#7B9EB0", "icon_mask_base_uri": "https://maps.gstatic.com/mapfiles/place_api/icons/v2/parking_pinlet", "name": "Aparcamiento Discapacitados", "place_id": "ChIJ414rnNZNQg0R06hhN0IClR8", "plus_code": {"compound_code": "GM4G+C8 Alcala de Henares, Spain", "global_code": "8CGRGM4G+C8"}, "reference": "ChIJ414rnNZNQg0R06hhN0IClR8", "scope": "GOOGLE", "types": ["parking", "point_of_interest", "establishment"], "vicinity": "Carretera Nacional II, 10I, Alcalá de Henares"}, {"business_status": "OPERATIONAL", "geometry": {"location": {"lat": 40.5021742, "lng": -3.3288346}, "viewport": {"northeast": {"lat": 40.5035166802915, "lng": -3.327496569708498}, "southwest": {"lat": 40.5008187197085, "lng": -3.330194530291501}}}, "icon": "https://maps.gstatic.com/mapfiles/place_api/icons/v1/png_71/parking-71.png", "icon_background_color": "#7B9EB0", "icon_mask_base_uri": "https://maps.gstatic.com/mapfiles/place_api/icons/v2/parking_pinlet", "name": "Aparcamiento Clientes Leroy Merlin", "place_id": "ChIJV0t2WvdPQg0R966qTXbY8PE", "plus_code": {"compound_code": "GM2C+VF Alcala de Henares, Spain", "global_code": "8CGRGM2C+VF"}, "rating": 3.7, "reference": "ChIJV0t2WvdPQg0R966qTXbY8PE", "scope": "GOOGLE", "types": ["parking", "point_of_interest", "establishment"], "user_ratings_total": 7, "vicinity": "Centro Comercial La Dehesa, Crta, Carretera Nacional II, km. 32, Alcalá de Henares"}, {"business_status": "OPERATIONAL", "geometry": {"location": {"lat": 40.5030966, "lng": -3.327913299999999}, "viewport": {"northeast": {"lat": 40.5044270802915, "lng": -3.326596669708498}, "southwest": {"lat": 40.5017291197085, "lng": -3.329294630291502}}}, "icon": "https://maps.gstatic.com/mapfiles/place_api/icons/v1/png_71/parking-71.png", "icon_background_color": "#7B9EB0", "icon_mask_base_uri": "https://maps.gstatic.com/mapfiles/place_api/icons/v2/parking_pinlet", "name": "Aparcamiento Clientes Zona Comercial", "place_id": "ChIJ5zeol0dPQg0Rt1o7Jre-5yc", "plus_code": {"compound_code": "GM3C+6R Alcala de Henares, Spain", "global_code": "8CGRGM3C+6R"}, "reference": "ChIJ5zeol0dPQg0Rt1o7Jre-5yc", "scope": "GOOGLE", "types": ["parking", "point_of_interest", "establishment"], "vicinity": "Calle de Cogolludo, 12, Alcalá de Henares"}, {"business_status": "CLOSED_TEMPORARILY", "geometry": {"location": {"lat": 40.5093876, "lng": -3.3200963}, "viewport": {"northeast": {"lat": 40.5107512802915, "lng": -3.318722069708499}, "southwest": {"lat": 40.5080533197085, "lng": -3.321420030291502}}}, "icon": "https://maps.gstatic.com/mapfiles/place_api/icons/v1/png_71/parking-71.png", "icon_background_color": "#7B9EB0", "icon_mask_base_uri": "https://maps.gstatic.com/mapfiles/place_api/icons/v2/parking_pinlet", "name": "Amazon - Aparcamiento camiones", "permanently_closed": true, "photos": [{"height": 4032, "html_attributions": ["<a href=\"https://maps.google.com/maps/contrib/115830738019532454104\">Javier Albert</a>"], "photo_reference": "AWn5SU6NuW9XlKSbbhYCAWP6ZsGh3rb5xY6nrNUC1ly9yo2T6jJOTaaKv-16_W7jJsedayLQVliXlVptL-GK7KOZ1cMRltsaJ92_yWYSpHPO68xc3S5a7c7mHU7nxbw8pt-nXoqBspUlZnUYDxEslO-FYzkvoULyig_vkQwpbwdrY7DO72YzSrA6ISeHCW0zYRj6vU-sE2Uy1R9NKnNjQ2n8qzEhnQ_1gEV12Ghknoz2PuHh_aXv9YMfdrZccmAUNujGRN--4pp9zosRNkJV9v3lCwIWmkvdsvTTwJcdiFZI125uLewAngOswmozINVnBPqEfNL7K9I43mOlnTYDnnkAEDtgj3bC3jgM8WVhLR73bcIoh-K50eH0UY1olUuY539GpA5S1x5vFjzuGpCIvI3FzlwBFi5Y--scpamTkGvyT6JMhFrusraOzY7JwfakHlz82L13iHZq3QwRAf6CqVC89T0-1vFTxRy2ObXD1En4e02B7okD7AXq9vxj9Izinyc5mPfOEu_SDSoTnyBGLbiGQJVmEiMxcfu-SiPEyoc-lG0TCs5nGak-tWYuKo00oWXb8CWCSTAQ6E891WFRtY0LfK6X_9IjspN4HYe6HcGvGeCgBHRknnfigC6j4SoignpA7rREQ3oS", "width": 3024}], "place_id": "ChIJqapat7dNQg0RLjVO8VWJufw", "plus_code": {"compound_code": "GM5H+QX Alcala de Henares, Spain", "global_code": "8CGRGM5H+QX"}, "reference": "ChIJqapat7dNQg0RLjVO8VWJufw", "scope": "GOOGLE", "types": ["parking", "point_of_interest", "establishment"], "vicinity": "Carretera Nacional II, 5, Alcalá de Henares"}, {"business_status": "OPERATIONAL", "geometry": {"location": {"lat": 40.50504249999999, "lng": -3.3270204}, "viewport": {"northeast": {"lat": 40.50638923029149, "lng": -3.325668819708498}, "southwest": {"lat": 40.5036912697085, "lng": -3.328366780291502}}}, "icon": "https://maps.gstatic.com/mapfiles/place_api/icons/v1/png_71/parking-71.png", "icon_background_color": "#7B9EB0", "icon_mask_base_uri": "https://maps.gstatic.com/mapfiles/place_api/icons/v2/parking_pinlet", "name": "Parking", "opening_hours": {"open_now": true}, "place_id": "ChIJnf2hVIVPQg0RqFMai3Ptvq0", "plus_code": {"compound_code": "GM4F+25 Alcala de Henares, Spain", "global_code": "8CGRGM4F+25"}, "rating": 3.4, "reference": "ChIJnf2hVIVPQg0RqFMai3Ptvq0", "scope": "GOOGLE", "types": ["parking", "point_of_interest", "establishment"], "user_ratings_total": 7, "vicinity": "Alcala de Henares"}, {"business_status": "OPERATIONAL", "geometry": {"location": {"lat": 40.503723, "lng": -3.3287853}, "viewport": {"northeast": {"lat": 40.50507193029149, "lng": -3.327436269708498}, "southwest": {"lat": 40.50237396970849, "lng": -3.330134230291502}}}, "icon": "https://maps.gstatic.com/mapfiles/place_api/icons/v1/png_71/parking-71.png", "icon_background_color": "#7B9EB0", "icon_mask_base_uri": "https://maps.gstatic.com/mapfiles/place_api/icons/v2/parking_pinlet", "name": "Aparcamiento Discapacitados", "place_id": "ChIJG6_mAK9PQg0Re-F-6AdQn3k", "plus_code": {"compound_code": "GM3C+FF Alcala de Henares, Spain", "global_code": "8CGRGM3C+FF"}, "reference": "ChIJG6_mAK9PQg0Re-F-6AdQn3k", "scope": "GOOGLE", "types": ["parking", "point_of_interest", "establishment"], "vicinity": "CC La Dehesa Calle Jadraque, 1D A2 km 32 (Madrid) y Km 35A, Alcalá de Henares"}, {"business_status": "OPERATIONAL", "geometry": {"location": {"lat": 40.5037982, "lng": -3.3289966}, "viewport": {"northeast": {"lat": 40.50513773029151, "lng": -3.327637669708498}, "southwest": {"lat": 40.50243976970851, "lng": -3.330335630291502}}}, "icon": "https://maps.gstatic.com/mapfiles/place_api/icons/v1/png_71/parking-71.png", "icon_background_color": "#7B9EB0", "icon_mask_base_uri": "https://maps.gstatic.com/mapfiles/place_api/icons/v2/parking_pinlet", "name": "Aparcamiento para motos", "place_id": "ChIJe6XdBQBPQg0RTHX_WkiqWCE", "plus_code": {"compound_code": "GM3C+GC Alcala de Henares, Spain", "global_code": "8CGRGM3C+GC"}, "rating": 5, "reference": "ChIJe6XdBQBPQg0RTHX_WkiqWCE", "scope": "GOOGLE", "types": ["parking", "point_of_interest", "establishment"], "user_ratings_total": 1, "vicinity": "CC La Dehesa Calle Jadraque, 1D A2 km 32, y Km 35A, Madrid"}, {"business_status": "OPERATIONAL", "geometry": {"location": {"lat": 40.50372219999999, "lng": -3.3293288}, "viewport": {"northeast": {"lat": 40.5050733302915, "lng": -3.328043269708498}, "southwest": {"lat": 40.5023753697085, "lng": -3.330741230291502}}}, "icon": "https://maps.gstatic.com/mapfiles/place_api/icons/v1/png_71/parking-71.png", "icon_background_color": "#7B9EB0", "icon_mask_base_uri": "https://maps.gstatic.com/mapfiles/place_api/icons/v2/parking_pinlet", "name": "Aparcamiento Clientes Decathlon", "place_id": "ChIJEX-zzwVPQg0RUdnx5iyQ-gs", "rating": 4, "reference": "ChIJEX-zzwVPQg0RUdnx5iyQ-gs", "scope": "GOOGLE", "types": ["parking", "point_of_interest", "establishment"], "user_ratings_total": 9, "vicinity": "GM3C+F7, Alcala de Henares"}, {"business_status": "OPERATIONAL", "geometry": {"location": {"lat": 40.5089486, "lng": -3.3230008}, "viewport": {"northeast": {"lat": 40.5102896302915, "lng": -3.321643419708499}, "southwest": {"lat": 40.5075916697085, "lng": -3.324341380291502}}}, "icon": "https://maps.gstatic.com/mapfiles/place_api/icons/v1/png_71/parking-71.png", "icon_background_color": "#7B9EB0", "icon_mask_base_uri": "https://maps.gstatic.com/mapfiles/place_api/icons/v2/parking_pinlet", "name": "Aparcamiento Discapacitados", "place_id": "ChIJ95DckGFNQg0RQhWpaWIpeX8", "plus_code": {"compound_code": "GM5G+HQ Alcala de Henares, Spain", "global_code": "8CGRGM5G+HQ"}, "reference": "ChIJ95DckGFNQg0RQhWpaWIpeX8", "scope": "GOOGLE", "types": ["parking", "point_of_interest", "establishment"], "vicinity": "Carretera Madrid-Barcelona, Km 34.500, 28805, Alcalá de Henares"}, {"business_status": "OPERATIONAL", "geometry": {"location": {"lat": 40.50917829999999, "lng": -3.3228372}, "viewport": {"northeast": {"lat": 40.51050298029149, "lng": -3.321461319708498}, "southwest": {"lat": 40.50780501970849, "lng": -3.324159280291502}}}, "icon": "https://maps.gstatic.com/mapfiles/place_api/icons/v1/png_71/parking-71.png", "icon_background_color": "#7B9EB0", "icon_mask_base_uri": "https://maps.gstatic.com/mapfiles/place_api/icons/v2/parking_pinlet", "name": "Aparcamiento Clientes Makro", "place_id": "ChIJt3_r3iNNQg0R83_1xp0NuQs", "plus_code": {"compound_code": "GM5G+MV Alcala de Henares, Spain", "global_code": "8CGRGM5G+MV"}, "reference": "ChIJt3_r3iNNQg0R83_1xp0NuQs", "scope": "GOOGLE", "types": ["parking", "point_of_interest", "establishment"], "vicinity": "Calle Concha Espina, 14, Alcalá de Henares"}, {"business_status": "OPERATIONAL", "geometry": {"location": {"lat": 40.5031922, "lng": -3.330284}, "viewport": {"northeast": {"lat": 40.5045447802915, "lng": -3.328928869708498}, "southwest": {"lat": 40.5018468197085, "lng": -3.331626830291502}}}, "icon": "https://maps.gstatic.com/mapfiles/place_api/icons/v1/png_71/parking-71.png", "icon_background_color": "#7B9EB0", "icon_mask_base_uri": "https://maps.gstatic.com/mapfiles/place_api/icons/v2/parking_pinlet", "name": "Aparcamiento l Clientes CC LA DEHESA", "photos": [{"height": 3456, "html_attributions": ["<a href=\"https://maps.google.com/maps/contrib/101699183973640082184\">Javier Benito</a>"], "photo_reference": "AWn5SU7YfLD6rB_cxNGoEKchrZodsuuOa-Pf-knTa3yPwiy-4_eTzOQJfNOtZ4MZoznGnmsSY8X9HhDprOHI-cHaxiFfZtIULpdNUuR1ukPLUsLLm7AjZwEjwIMzY_mXT9FfLGauZUJF6iRI-CNxYPIj81q31lXhKQhuzXZVrq1c6giTAHKpjAXM6GXXnMvDjwS1hEAdaHrRGrnlXykusIOT1vGf4N8dOM4sQDblDPeYM_mjJu0RT4YI80y0w2AXlG98UJDzNF38C7Sr03K5nyoyMoDngtDkX1xbFwCa3Q9_Or6Ms2ZU3KbSrdwlx1UgyO2-D__ZZSUquqi1weJs48S7x1NXwjBuKLGBaxdhg70FmO_b7AhcfAdVTT-ft8Px3v1gW_Bj6pUOEbDKJqEvHTj6DL6syufk7_s1i8HjpZTbpWaNt6KCWc4OnsGcwnlGJe-og5411ync7E1pDne4z9G9Sz5vKgZ3l1eVx_eV6sJoBFbNWAM6EOGOYIIZELPytqydY9rLH6yJqO-KZVj_bNM0q44Nq-GOdLCqREh70y1YsshcWtd1njpLfQyedtD7VraTfsBoZ06t9Sy8iB5nauCzQZ7NBXmR8gQfbpVd2wuhhBlecFrIrxH7leZvI-zAzMrJxEFPdg", "width": 3456}], "place_id": "ChIJj_t6sHhPQg0RGbGgIvuHqRs", "reference": "ChIJj_t6sHhPQg0RGbGgIvuHqRs", "scope": "GOOGLE", "types": ["parking", "point_of_interest", "establishment"], "vicinity": "GM39+7V, Alcala de Henares"}, {"business_status": "OPERATIONAL", "geometry": {"location": {"lat": 40.5086669, "lng": -3.3237723}, "viewport": {"northeast": {"lat": 40.51001808029149, "lng": -3.322425719708498}, "southwest": {"lat": 40.5073201197085, "lng": -3.325123680291502}}}, "icon": "https://maps.gstatic.com/mapfiles/place_api/icons/v1/png_71/parking-71.png", "icon_background_color": "#7B9EB0", "icon_mask_base_uri": "https://maps.gstatic.com/mapfiles/place_api/icons/v2/parking_pinlet", "name": "Aparcamiento Discapacitados", "place_id": "ChIJx_6qrqFNQg0RUx6bVjbr7Mc", "plus_code": {"compound_code": "GM5G+FF Alcala de Henares, Spain", "global_code": "8CGRGM5G+FF"}, "reference": "ChIJx_6qrqFNQg0RUx6bVjbr7Mc", "scope": "GOOGLE", "types": ["parking", "point_of_interest", "establishment"], "vicinity": "Calle Concha Espina, 12, Alcalá de Henares"}]