[{"business_status": "OPERATIONAL", "geometry": {"location": {"lat": 40.7333193, "lng": -3.5821084}, "viewport": {"northeast": {"lat": 40.7346805802915, "lng": -3.580825419708498}, "southwest": {"lat": 40.7319826197085, "lng": -3.583523380291502}}}, "icon": "https://maps.gstatic.com/mapfiles/place_api/icons/v1/png_71/bank-71.png", "icon_background_color": "#909CE1", "icon_mask_base_uri": "https://maps.gstatic.com/mapfiles/place_api/icons/v2/bank-intl_pinlet", "international_phone_number": "+34 689 19 48 96", "name": "BBVA - Agente Autorizado", "opening_hours": {"open_now": false}, "photos": [{"height": 720, "html_attributions": ["<a href=\"https://maps.google.com/maps/contrib/101198618227429209066\">BBVA - Agente Autorizado</a>"], "photo_reference": "AWn5SU6g7O_oY8BBPPgyQB-fpmvhjxamfG6gM1s0nkMlcf0tilMfh82dEcLVm1sVjj2Ps3J9mRyFgGiNdQkXGDzgZBkt8zQf32fzWwDDGmQigAujXULaUcHOw5IaTLxoBlqai_fNAgpwsycTRNPid9AxUeE_uHxe13FLMYxJ25bAcFk4voKIF07yuedceciYSwIGxTysbj6AJVf8pSkVBUB_cKWs5v47VY5uFcdaiqx6Vq6kHNI7bsix07DdbrQXN59IOICJZB8LfeBHyowhip4HtUJIuyLlpAMu2kN95EZr7nkxqjyIo7EHPXqo-Ps6Vg6ONUJGcyzjKCI", "width": 1280}], "place_id": "ChIJ4_fzjQLQQw0R1nuybem8bOw", "plus_code": {"compound_code": "PCM9+85 El Molar, Spain", "global_code": "8CGRPCM9+85"}, "rating": 3.5, "reference": "ChIJ4_fzjQLQQw0R1nuybem8bOw", "scope": "GOOGLE", "types": ["bank", "atm", "finance", "point_of_interest", "establishment"], "user_ratings_total": 55, "vicinity": "Avenida de España, 12, El Molar"}, {"business_status": "OPERATIONAL", "geometry": {"location": {"lat": 40.7343323, "lng": -3.5828623}, "viewport": {"northeast": {"lat": 40.7357105802915, "lng": -3.581447819708498}, "southwest": {"lat": 40.7330126197085, "lng": -3.584145780291502}}}, "icon": "https://maps.gstatic.com/mapfiles/place_api/icons/v1/png_71/bank-71.png", "icon_background_color": "#909CE1", "icon_mask_base_uri": "https://maps.gstatic.com/mapfiles/place_api/icons/v2/bank-intl_pinlet", "international_phone_number": "+34 914 96 56 03", "name": "Banco Santander Agentes", "opening_hours": {"open_now": false}, "photos": [{"height": 720, "html_attributions": ["<a href=\"https://maps.google.com/maps/contrib/113757570753536647625\">Banco Santander Agentes</a>"], "photo_reference": "AWn5SU4hf1QriyIty53xjE1_V30R40GFV-awTgRKSAe-7oRgf_VCs_W5mJTqBgRHCWQMnRRYG7AHDVipF-Y3tWoADcsOp9QRR8AFc3mCjojTJY_vt5vkhaPOfMEp4ThvIerjFpNFyn1zYd9c0QzMgDrFglE9nllV4y10bKf0kNEcdne06FXDqyoRtvHQBl_fTMx7YVUaTheO3NspZSoMYx0_s0WXTErQgyOR6HG6pHmvmdawHAMoeMu_9bAOM2cKUGWaVApbu4oruXEKjEA6ANpnBo-3DGR58ojvafnts_Lr6aSyVrsHCbuVGjJ25WkLa4EZ4IYlfrh97D0", "width": 1280}], "place_id": "ChIJF7pgXALQQw0RsxdYfvGZ1W0", "plus_code": {"compound_code": "PCM8+PV El Molar, Spain", "global_code": "8CGRPCM8+PV"}, "rating": 3, "reference": "ChIJF7pgXALQQw0RsxdYfvGZ1W0", "scope": "GOOGLE", "types": ["bank", "atm", "finance", "point_of_interest", "establishment"], "user_ratings_total": 19, "vicinity": "Avenida de España, 29, El Molar"}, {"business_status": "OPERATIONAL", "geometry": {"location": {"lat": 40.7662143, "lng": -3.5818576}, "viewport": {"northeast": {"lat": 40.7675653302915, "lng": -3.580452069708498}, "southwest": {"lat": 40.7648673697085, "lng": -3.583150030291502}}}, "icon": "https://maps.gstatic.com/mapfiles/place_api/icons/v1/png_71/atm-71.png", "icon_background_color": "#909CE1", "icon_mask_base_uri": "https://maps.gstatic.com/mapfiles/place_api/icons/v2/atm_pinlet", "international_phone_number": "+34 902 32 30 00", "name": "Cajero Banco Sabadell", "opening_hours": {"open_now": true}, "photos": [{"height": 900, "html_attributions": ["<a href=\"https://maps.google.com/maps/contrib/102958532601620773197\">Cajero Banco Sabadell</a>"], "photo_reference": "AWn5SU5tagO3TyCJY53KPWP7ddZHWj0u4nGd9M00ud4MCltf0SBujhO9KerrOKTAfxYpGbA9DbVDQvqN5IQ8UCdmyNfVtEFUYF9LV7kHmoshoKofojXgyDFZwvVustOu-vhmRFLD3MVKETjTnHem9fcPZO5X_LI5DLA2zJfNvfzNX8eTiyKWqx7nnVbK2fsGI0EVu12NrTxNo3yUrQJTePUElJJQAs_5f_XmjZfWmcOchoNiYRaFpKQzZSv6DswER9Myt8ZkjETgv5WsCsuO_aC2hTSIj7vvNMDTPHycwAWxGFgAO_UjGOc5T6QoUS1P_mTro7mGGxSRoGc", "width": 1600}], "place_id": "ChIJV7cpFuTbQw0RWeDAJxgmHBM", "plus_code": {"compound_code": "QC89+F7 El Vellón, Spain", "global_code": "8CGRQC89+F7"}, "rating": 2.5, "reference": "ChIJV7cpFuTbQw0RWeDAJxgmHBM", "scope": "GOOGLE", "types": ["atm", "finance", "point_of_interest", "establishment"], "user_ratings_total": 4, "vicinity": "Travesía de San Blas, 1, El Vellón"}, {"business_status": "OPERATIONAL", "geometry": {"location": {"lat": 40.74504629999999, "lng": -3.5955294}, "viewport": {"northeast": {"lat": 40.7461290302915, "lng": -3.593911269708498}, "southwest": {"lat": 40.7434310697085, "lng": -3.596609230291502}}}, "icon": "https://maps.gstatic.com/mapfiles/place_api/icons/v1/png_71/atm-71.png", "icon_background_color": "#909CE1", "icon_mask_base_uri": "https://maps.gstatic.com/mapfiles/place_api/icons/v2/atm_pinlet", "international_phone_number": "+34 912 86 84 48", "name": "Euronet ATM", "opening_hours": {"open_now": true}, "place_id": "ChIJH1qGCjjbQw0RO_6nJxq-YjY", "plus_code": {"compound_code": "PCW3+2Q Pedrezuela, Spain", "global_code": "8CGRPCW3+2Q"}, "rating": 1, "reference": "ChIJH1qGCjjbQw0RO_6nJxq-YjY", "scope": "GOOGLE", "types": ["atm", "finance", "point_of_interest", "establishment"], "user_ratings_total": 2, "vicinity": "Paseo de la Ermita, 51, Unide, Pedrezuela"}, {"business_status": "OPERATIONAL", "geometry": {"location": {"lat": 40.7437871, "lng": -3.600355}, "viewport": {"northeast": {"lat": 40.7451865302915, "lng": -3.599047069708497}, "southwest": {"lat": 40.7424885697085, "lng": -3.601745030291502}}}, "icon": "https://maps.gstatic.com/mapfiles/place_api/icons/v1/png_71/atm-71.png", "icon_background_color": "#909CE1", "icon_mask_base_uri": "https://maps.gstatic.com/mapfiles/place_api/icons/v2/atm_pinlet", "international_phone_number": "+34 900 404 090", "name": "ATM CaixaBank - Cajero", "opening_hours": {"open_now": true}, "photos": [{"height": 681, "html_attributions": ["<a href=\"https://maps.google.com/maps/contrib/110807556236722483581\">ATM CaixaBank - Cajero</a>"], "photo_reference": "AWn5SU4_x6LizmbTb2y_tARKYhoNsi-E3NX0S3gG_mY5nwuO6D56J3EoU7PNHuRL_lo5rdEEFykmjPTzAkgzn9fiSFghA1JAIRT451LPFwVmGAbB7VmDMEIEmhE63chVnQ2OE0FI4RJkIKB6cERB0gSzX4FgK7ykFcI75R6m7A4lu4LlN4okL_y7txkdv22ITZOyVb1KYvlikERqB1RGEDR4gHeA154GJdGxex0VJSdRfQuxxYsEkdRudT_-ZaKW7PxmlHqTN2tVIlxHG_5FD6HsYLwgJ4efDIMrFFViX3Qg0ElY_heG27Jpz8DKsZ5bMOJlafXkmzdU9yE", "width": 1024}], "place_id": "ChIJEQTKLC_bQw0R_1zcXzq3G7Y", "plus_code": {"compound_code": "P9VX+GV Pedrezuela, Spain", "global_code": "8CGRP9VX+GV"}, "reference": "ChIJEQTKLC_bQw0R_1zcXzq3G7Y", "scope": "GOOGLE", "types": ["atm", "finance", "point_of_interest", "establishment"], "vicinity": "Paseo de la Ermita, 18, Pedrezuela"}, {"business_status": "OPERATIONAL", "geometry": {"location": {"lat": 40.7357323, "lng": -3.583918100000001}, "viewport": {"northeast": {"lat": 40.7371150302915, "lng": -3.582506969708499}, "southwest": {"lat": 40.7344170697085, "lng": -3.585204930291503}}}, "icon": "https://maps.gstatic.com/mapfiles/place_api/icons/v1/png_71/atm-71.png", "icon_background_color": "#909CE1", "icon_mask_base_uri": "https://maps.gstatic.com/mapfiles/place_api/icons/v2/atm_pinlet", "international_phone_number": "+34 900 404 090", "name": "ATM CaixaBank - Cajero", "opening_hours": {"open_now": true}, "photos": [{"height": 681, "html_attributions": ["<a href=\"https://maps.google.com/maps/contrib/111775103356691716371\">ATM CaixaBank - Cajero</a>"], "photo_reference": "AWn5SU4Ci_gbouPxl8kwXd6XP38fv47YL4fhq6uM7QRWHuqRVapVE2cacp0593kswnEcMBVBZk27-lYf1zsaqZoRdbb636B9lecjv7oKE6DZR1-ci6hg9l6fjpg1poUwfr8kL6aOZ_kQ6n_wrUYE5QHwYF-e-jliANT4ws8VqreUWt8EbLWeWCbsqo9Px2Ddq8FYC8tBHqmG_xUPqNY7JSnuZwUphEX-pnptjVC9gCW8iiaf5d8lPS9Z_u8W4ll_6fje78cmh_9g08qhW515z0DKNZuVpS9wea19dno2UKVlW4XFPURLVZA4RwoUnXnoEeyxTedKXxOyPfo", "width": 1024}], "place_id": "ChIJkbLPKfPRQw0RZef8kAuHwGc", "plus_code": {"compound_code": "PCP8+7C El Molar, Spain", "global_code": "8CGRPCP8+7C"}, "reference": "ChIJkbLPKfPRQw0RZef8kAuHwGc", "scope": "GOOGLE", "types": ["atm", "finance", "point_of_interest", "establishment"], "vicinity": "Avenida de España, 51, El Molar"}, {"business_status": "OPERATIONAL", "geometry": {"location": {"lat": 40.7453472, "lng": -3.5114212}, "viewport": {"northeast": {"lat": 40.7466803302915, "lng": -3.510022219708498}, "southwest": {"lat": 40.7439823697085, "lng": -3.512720180291502}}}, "icon": "https://maps.gstatic.com/mapfiles/place_api/icons/v1/png_71/atm-71.png", "icon_background_color": "#909CE1", "icon_mask_base_uri": "https://maps.gstatic.com/mapfiles/place_api/icons/v2/atm_pinlet", "international_phone_number": "+34 900 404 090", "name": "ATM CaixaBank - Cajero", "opening_hours": {"open_now": true}, "photos": [{"height": 900, "html_attributions": ["<a href=\"https://maps.google.com/maps/contrib/112398046629728859157\">ATM CaixaBank - Cajero</a>"], "photo_reference": "AWn5SU42yJp5S3QJR6cUsWuz3oRUjO8d-bMjBArQBnzogZ1qhNEANlNu4oy5aJ1MzMmUMh6_bH83xRqtxPbHQkCEsIihlhbGIXeOzjzhzvjD2UIH4LcJucsXI3RizS3E0dpk4kKRucxiocI1BUF7bfP_3fM_xMN3zU-z4lUGXlc93E9thF5JUyl2nppkP55kJpTNmyMmjM-tBGONZaCWVLazKPrskLJRJWv4xsAitARSkibnncKdIk8igEQ5VI-mk4__nF13EF8oH65dcpb-_PtQyWeKwKOB1Kk-lwHmNMjclgAALHMRCFuEg4oUcSXFvkzQ0bQoBnicvb8", "width": 1600}], "place_id": "ChIJmVtThuTFQw0RECEnHRTl16M", "plus_code": {"compound_code": "PFWQ+4C Talamanca de Jarama, Spain", "global_code": "8CGRPFWQ+4C"}, "rating": 1, "reference": "ChIJmVtThuTFQw0RECEnHRTl16M", "scope": "GOOGLE", "types": ["atm", "finance", "point_of_interest", "establishment"], "user_ratings_total": 1, "vicinity": "Calle Mayor, 29, Talamanca de Jarama"}]