[{"business_status": "OPERATIONAL", "geometry": {"location": {"lat": 40.5923724, "lng": -4.1438067}, "viewport": {"northeast": {"lat": 40.5936549802915, "lng": -4.142636869708499}, "southwest": {"lat": 40.5909570197085, "lng": -4.145334830291502}}}, "icon": "https://maps.gstatic.com/mapfiles/place_api/icons/v1/png_71/bus-71.png", "icon_background_color": "#10BDFF", "icon_mask_base_uri": "https://maps.gstatic.com/mapfiles/place_api/icons/v2/bus_share_taxi_pinlet", "name": "Est. de Autobuses de S.L.de el Escorial", "photos": [{"height": 2992, "html_attributions": ["<a href=\"https://maps.google.com/maps/contrib/111795676422155457786\">Teresa Sanz Leal</a>"], "photo_reference": "AWn5SU7BG370QDE8ct1d04tMmV3fRW9sj4IPwMA1WPETTzq6iK8DGnCRKUTuvGsw304Nvo-w1EMBt8-WzSFyKT7ZBcSbf0ZNHZ2X85TFg-z2d1imtB4CrP6H96lAPGH_eaprk1r5pUGzxAdnMqJ1j7sarA0EPuVZkDkDe8-hlCMCA6sZvF-2rv3QMlHlkPvyRs0ttdgt8rUrbsKryGIFe7xePMSwiPIkHq_lkYN3MRo3VO9yh1mQfqE5b2BJwUtBRfZo-WRdPBol5PoBGiIeWSBArysMg5P9MQ4U4KJ-y2hs26VClNX1tY7zlgv8EU5vBuAxdgRHzTc3LQhI5uXXbPGs5j-bFp_HBO1rTM1g-yXkFm5cXipb5_yne6V6XmDuUjBdNW_XeMzfVNDz5QVsGHgRu33Wy53wY2Dt5ITyGaTsjIE3SKS7Ps-5wifrFbnPzo82fQc39UDfaFOCRHNN7Uef4Bj6Z2_1CcabBVYWQxCsFQhDHB0JBt3s9Dk-tFCIhOnad0coRWKYTTq0i9vqXVHGDyssA84BhUjNK-JvlCKSu3fiOdVwHbwJ-y4T3l_tWVEvUpw2MnMGHFbuM4eHT0pM5hAWAFOy6FCW6UO-JtRi1rmgyBTSfDYi5y6iSYZ54DytLiQi2P7Q", "width": 2992}], "place_id": "ChIJkdzrCi8KQQ0Rz4cszn18i8Q", "plus_code": {"compound_code": "HVR4+WF San Lorenzo de El Escorial, Spain", "global_code": "8CGQHVR4+WF"}, "rating": 3.3, "reference": "ChIJkdzrCi8KQQ0Rz4cszn18i8Q", "scope": "GOOGLE", "types": ["bus_station", "transit_station", "point_of_interest", "establishment"], "user_ratings_total": 89, "vicinity": "Spain"}, {"business_status": "OPERATIONAL", "geometry": {"location": {"lat": 40.6153457, "lng": -4.1144071}, "viewport": {"northeast": {"lat": 40.6166921802915, "lng": -4.113007069708498}, "southwest": {"lat": 40.6139942197085, "lng": -4.115705030291503}}}, "icon": "https://maps.gstatic.com/mapfiles/place_api/icons/v1/png_71/bus-71.png", "icon_background_color": "#10BDFF", "icon_mask_base_uri": "https://maps.gstatic.com/mapfiles/place_api/icons/v2/bus_share_taxi_pinlet", "name": "Ctra.M600-Urb.La Pizarra", "place_id": "ChIJudyti6YLQQ0Rnf37J65sWY4", "plus_code": {"compound_code": "JV8P+46 Felipe II, Spain", "global_code": "8CGQJV8P+46"}, "reference": "ChIJudyti6YLQQ0Rnf37J65sWY4", "scope": "GOOGLE", "types": ["bus_station", "transit_station", "point_of_interest", "establishment"], "vicinity": "Spain"}, {"business_status": "OPERATIONAL", "geometry": {"location": {"lat": 40.5766069, "lng": -4.206060799999999}, "viewport": {"northeast": {"lat": 40.5779949302915, "lng": -4.204711119708498}, "southwest": {"lat": 40.5752969697085, "lng": -4.207409080291503}}}, "icon": "https://maps.gstatic.com/mapfiles/place_api/icons/v1/png_71/bus-71.png", "icon_background_color": "#10BDFF", "icon_mask_base_uri": "https://maps.gstatic.com/mapfiles/place_api/icons/v2/bus_share_taxi_pinlet", "name": "Robledondo-A.Cardenal Cisneros", "place_id": "ChIJizhlVzgIQQ0RaHrDSFv4aCk", "plus_code": {"compound_code": "HQGV+JH Robledondo, Spain", "global_code": "8CGQHQGV+JH"}, "reference": "ChIJizhlVzgIQQ0RaHrDSFv4aCk", "scope": "GOOGLE", "types": ["bus_station", "transit_station", "point_of_interest", "establishment"], "vicinity": "Spain"}]