[{"business_status": "OPERATIONAL", "geometry": {"location": {"lat": 40.4955676, "lng": -3.3708777}, "viewport": {"northeast": {"lat": 40.4969109802915, "lng": -3.369524819708498}, "southwest": {"lat": 40.4942130197085, "lng": -3.372222780291501}}}, "icon": "https://maps.gstatic.com/mapfiles/place_api/icons/v1/png_71/school-71.png", "icon_background_color": "#7B9EB0", "icon_mask_base_uri": "https://maps.gstatic.com/mapfiles/place_api/icons/v2/school_pinlet", "international_phone_number": "+34 918 30 19 12", "name": "Colegio Alborada", "photos": [{"height": 932, "html_attributions": ["<a href=\"https://maps.google.com/maps/contrib/110186310563946176017\">Colegio Alborada</a>"], "photo_reference": "AWn5SU7xEgAMRzgIMfSy9jYGiXhQEB5Mz-E3rlE_ALWtg5JYbriCjcCXHE5SfqPUkX9c5NIM_N-D2RSMd9Z9g1ja-HKT0Zr2Byboj9IltWLN-3EmWtxNM3r_U6MeHKSrFtot5NUgvd8ZiSLl7TRFEMSX0yVheJOyoDaZ6G49bMWdBCuepqtQLNkoqOxK1HojkpKVe8ea75SVL4PqAIrnWddSHPRWOVJbewgZ-NTiSPOcB20NSJ8uLHitbrvk6P-Bj899o15E3Kv-ULJ82cALQV_Aw0CTKrFvVOLiEXJZRTIJh6bCMVC8a7Wsb2JC8RDuEn2waV62Ik26ty4", "width": 1920}], "place_id": "ChIJWZjgDnpJQg0RHBKUHLkXUzA", "plus_code": {"compound_code": "FJWH+6J Alcala de Henares, Spain", "global_code": "8CGRFJWH+6J"}, "reference": "ChIJWZjgDnpJQg0RHBKUHLkXUzA", "scope": "GOOGLE", "types": ["secondary_school", "primary_school", "school", "point_of_interest", "establishment"], "vicinity": "Calle Alejo Carpentier, 27, Alcalá de Henares"}, {"business_status": "OPERATIONAL", "geometry": {"location": {"lat": 40.491806, "lng": -3.3698774}, "viewport": {"northeast": {"lat": 40.4927303302915, "lng": -3.368281469708498}, "southwest": {"lat": 40.4900323697085, "lng": -3.370979430291502}}}, "icon": "https://maps.gstatic.com/mapfiles/place_api/icons/v1/png_71/school-71.png", "icon_background_color": "#7B9EB0", "icon_mask_base_uri": "https://maps.gstatic.com/mapfiles/place_api/icons/v2/school_pinlet", "international_phone_number": "+34 918 89 24 50", "name": "IES Antonio Machado", "opening_hours": {"open_now": false}, "photos": [{"height": 2084, "html_attributions": ["<a href=\"https://maps.google.com/maps/contrib/108659330375414974567\">David Diaz Avilés</a>"], "photo_reference": "AWn5SU6sgnzUJgIck75aI-_-LFbwgtJhb4EPk2pBLyJ0ToLgSZHjuuCrGHqqizLWru1uUQXX42XkwvFEsX0GQ9jg5UZERTk2Mrb2pUNZ4UTMuue4kznDai7xDm217Ibkm7BZIQrlVyzYotmgfdWpytKmKVT23JaNfLPP2IDPdXpxZyC9hJKawZnj6Hmh2kelMmB7eKU19RlMKSre5VuzhTjv1XIx-DFP4nS2p9OrJYvhRuczud7_hBD1GLPBVwQLt8C24DHZJ4qsABIRwpttZtyU4-BQRu46cwdmV9eSP31gCfFVSS9l7X6GHALL6VHi5JBpeaCtAjMHXVWilGSDcGbzWNalhqy3DsBW0WfDsxi-RyEfSBHqy35mCTQSMePRowXBWe1suyUUwbxYq0YANxtV_y852dIs-tFXFDHJJSUyz-aaI2rykDMt3qoyFng-q25bWk7lMVHR8J3qyg2_Vx9x4fo-GMC6R2JppADwdvvoZnj-8ZW2OVcdOQnS9C-C3IY1Xk9acmrGfMujljI1HN_8HMNhBxa35DiJ-VDi3CkGRen_sSGkInOrazZg0seoCiSkj6pNfiHVuIUFqVp0VFLXNOmvcI9dUFd5yG5wc7alwXomgRu-uvlGw_PKV9NEsqvyufuft47x", "width": 4032}], "place_id": "ChIJ1R610m9JQg0R0PAplKKrUKA", "plus_code": {"compound_code": "FJRJ+P2 Alcala de Henares, Spain", "global_code": "8CGRFJRJ+P2"}, "reference": "ChIJ1R610m9JQg0R0PAplKKrUKA", "scope": "GOOGLE", "types": ["secondary_school", "school", "point_of_interest", "establishment"], "vicinity": "Calle Alalpardo, 2, Alcalá de Henares"}, {"business_status": "OPERATIONAL", "geometry": {"location": {"lat": 40.5066924, "lng": -3.3685219}, "viewport": {"northeast": {"lat": 40.5079250302915, "lng": -3.367069919708498}, "southwest": {"lat": 40.5052270697085, "lng": -3.369767880291501}}}, "icon": "https://maps.gstatic.com/mapfiles/place_api/icons/v1/png_71/school-71.png", "icon_background_color": "#7B9EB0", "icon_mask_base_uri": "https://maps.gstatic.com/mapfiles/place_api/icons/v2/school_pinlet", "international_phone_number": "+34 918 77 02 90", "name": "I.E.S. Lázaro Carreter", "opening_hours": {"open_now": false}, "place_id": "ChIJlb0AJdZLQg0RActsSO9bgKM", "plus_code": {"compound_code": "GJ4J+MH Alcala de Henares, Spain", "global_code": "8CGRGJ4J+MH"}, "reference": "ChIJlb0AJdZLQg0RActsSO9bgKM", "scope": "GOOGLE", "types": ["secondary_school", "school", "point_of_interest", "establishment"], "vicinity": "Calle de Pío Baroja, 7, Alcalá de Henares"}, {"business_status": "OPERATIONAL", "geometry": {"location": {"lat": 40.494899, "lng": -3.3543176}, "viewport": {"northeast": {"lat": 40.4962723802915, "lng": -3.352746119708498}, "southwest": {"lat": 40.4935744197085, "lng": -3.355444080291502}}}, "icon": "https://maps.gstatic.com/mapfiles/place_api/icons/v1/png_71/school-71.png", "icon_background_color": "#7B9EB0", "icon_mask_base_uri": "https://maps.gstatic.com/mapfiles/place_api/icons/v2/school_pinlet", "international_phone_number": "+34 918 82 34 30", "name": "I.E.S. Ignacio Ellacuría", "opening_hours": {"open_now": false}, "photos": [{"height": 360, "html_attributions": ["<a href=\"https://maps.google.com/maps/contrib/104417741466664450280\">Felix Redondo</a>"], "photo_reference": "AWn5SU4nv1_THwGC0k6zbCFNmZJXVd9Ld3IeaY6pwqxzrHtX7UehT5BrQ7F4IpIUD0o25ApC-scFWNaXqo-mcseoHJFOC6_Lo5N94r4oSMgqUJn32lxo0mz88JH_CONW0PQwKrnQkHeIzr9JxZPgeET3Qjq4SLx5fbYna2GI_BI_CGeFiwMBMP0oaiyPBdB3LZ3M-rSQFrmkM6misI3fkcQkQjIZAwPe8h3LcDiSmYVPLij6InUHZwXQ-Bi1PbXaXaGZhZf0enmRH1z6CXpwGyj3kcPbiU_hwRAgDrepNWddtCJ-2zY9cPqOy0G0X-ReAjMnStP38hGzkzs1ijGN6LclGmk--hqI8Jd1hAtMJw9gld2hPqOxQOgFCUg0O1MVO4CMxymsR5zBDsdtLD8j34OqeB7jPl6YCQua-vkbfN1jE1OBbSiIhxNEFMRgrn5vPJJVk0QbmhGSRCGJuFiAR6TToVgLioQty-UUbqJqkjgkxD6n8I60XoemMVPjdQFPvNFYnCKMiqEiR9tnwEXWu_Y0PX0T0lCe3xXElxmK1RN9oyImip11P81vcvjo_mg7Z0foIfdGjotk4nlSgEA5m5e_8n3h5WwTp46k8g5m_fLHsEwzBjVlsiSUNF4prCPBI2jTbPjl1W66", "width": 640}], "place_id": "ChIJJfOGulxJQg0Rh13aPRVtC98", "plus_code": {"compound_code": "FJVW+X7 Alcala de Henares, Spain", "global_code": "8CGRFJVW+X7"}, "reference": "ChIJJfOGulxJQg0Rh13aPRVtC98", "scope": "GOOGLE", "types": ["secondary_school", "school", "point_of_interest", "establishment"], "vicinity": "Calle Senda Perdida, s/n, Alcalá de Henares"}, {"business_status": "OPERATIONAL", "geometry": {"location": {"lat": 40.4936689, "lng": -3.3767973}, "viewport": {"northeast": {"lat": 40.4948339802915, "lng": -3.375393769708499}, "southwest": {"lat": 40.4921360197085, "lng": -3.378091730291502}}}, "icon": "https://maps.gstatic.com/mapfiles/place_api/icons/v1/png_71/school-71.png", "icon_background_color": "#7B9EB0", "icon_mask_base_uri": "https://maps.gstatic.com/mapfiles/place_api/icons/v2/school_pinlet", "international_phone_number": "+34 918 78 81 37", "name": "IES Doctor Marañón", "opening_hours": {"open_now": false}, "photos": [{"height": 1824, "html_attributions": ["<a href=\"https://maps.google.com/maps/contrib/116505177335008350494\">Cesar Cabezas</a>"], "photo_reference": "AWn5SU6SUjVuUdu8Qj1v3mY6hkOuGmO-csEnikyO7isMETHxWmQCm_X1Uh3eJrj8oHH3OqwcHuMbvXVZp0Z60QXrkYpUEi15ZzXKM_LS6ug7RH870bzLNPvGcUzvPw5pwVqvn9ZH-4t4GVasdygRsqp_yKdnvWJ4PQx7dn-_6jZApCg_yZYUXGV5Y76inDGyWnmTUhNsKhnMPG3GTvxAtNKBW_Pr2m5WBCv6EUWnOALRIGK3-CGbDoGJiqL2FHMUJ2YaR99lsSlmEp32B1jpAHY6TlgSeVnGHq3ktjvfi1F_XVJLERKyC_TVGMe89pv47leSB8M0NwkEV7rP3tODxoHoaUIvFFd43_CV7gu9QYmSMwAQrPLyppwEujihduY-dsXBELgKlpUb-FT8HzciVjBp5U1LoG-rqKZWYsR40DKzy8dSuM6xG9HG7vNb4F_AAf8PF1hZx0qsawkw4TsWZ0cqcKZViOf4tCZsMSnO7OxIMQ4HlSOF_jit87CCInjFrmuX7qd-jdA_MH-ASPq33u0yYxkrcf7szpZuekWDU4UJX9in6G2XWJEq236Vy2CbND0xP7Y-NMFNyU-uN71s0goloLd-taTXzC5IIsN2bmJFz0GLoN5xIWjwb41M4eANdhgr", "width": 3200}], "place_id": "ChIJK6BJ5XlJQg0Rw__NdIyWviU", "plus_code": {"compound_code": "FJVF+F7 Alcala de Henares, Spain", "global_code": "8CGRFJVF+F7"}, "reference": "ChIJK6BJ5XlJQg0Rw__NdIyWviU", "scope": "GOOGLE", "types": ["secondary_school", "school", "point_of_interest", "establishment"], "vicinity": "Calle Alejo Carpentier, 1, Alcalá de Henares"}, {"business_status": "OPERATIONAL", "geometry": {"location": {"lat": 40.54727130000001, "lng": -3.3747873}, "viewport": {"northeast": {"lat": 40.54862018029149, "lng": -3.373237769708499}, "southwest": {"lat": 40.5459222197085, "lng": -3.375935730291502}}}, "icon": "https://maps.gstatic.com/mapfiles/place_api/icons/v1/png_71/school-71.png", "icon_background_color": "#7B9EB0", "icon_mask_base_uri": "https://maps.gstatic.com/mapfiles/place_api/icons/v2/school_pinlet", "name": "Instituto", "place_id": "ChIJFf0EextLQg0RGn76N-IlVnM", "plus_code": {"compound_code": "GJWG+W3 Camarma de Esteruelas, Spain", "global_code": "8CGRGJWG+W3"}, "reference": "ChIJFf0EextLQg0RGn76N-IlVnM", "scope": "GOOGLE", "types": ["secondary_school", "school", "point_of_interest", "establishment"], "vicinity": "Calle la Huerta, s/n, Camarma de Esteruelas"}, {"business_status": "OPERATIONAL", "geometry": {"location": {"lat": 40.49780680000001, "lng": -3.3501873}, "viewport": {"northeast": {"lat": 40.4991841302915, "lng": -3.348732869708498}, "southwest": {"lat": 40.4964861697085, "lng": -3.351430830291502}}}, "icon": "https://maps.gstatic.com/mapfiles/place_api/icons/v1/png_71/school-71.png", "icon_background_color": "#7B9EB0", "icon_mask_base_uri": "https://maps.gstatic.com/mapfiles/place_api/icons/v2/school_pinlet", "international_phone_number": "+34 632 07 93 63", "name": "PilarSilviaPilarV", "place_id": "ChIJRyfJB91JQg0R4kTKF4bkbp8", "plus_code": {"compound_code": "FJXX+4W Alcala de Henares, Spain", "global_code": "8CGRFJXX+4W"}, "reference": "ChIJRyfJB91JQg0R4kTKF4bkbp8", "scope": "GOOGLE", "types": ["secondary_school", "school", "point_of_interest", "establishment"], "vicinity": "Calle Vicente Lunardi, 1, Alcalá de Henares"}, {"business_status": "OPERATIONAL", "geometry": {"location": {"lat": 40.4902113, "lng": -3.3570004}, "viewport": {"northeast": {"lat": 40.4914915302915, "lng": -3.355725219708498}, "southwest": {"lat": 40.4887935697085, "lng": -3.358423180291502}}}, "icon": "https://maps.gstatic.com/mapfiles/place_api/icons/v1/png_71/school-71.png", "icon_background_color": "#7B9EB0", "icon_mask_base_uri": "https://maps.gstatic.com/mapfiles/place_api/icons/v2/school_pinlet", "international_phone_number": "+34 918 89 20 21", "name": "PROLOVE S.A.", "place_id": "ChIJEQVIO0JJQg0RFOOyBr921Kc", "plus_code": {"compound_code": "FJRV+35 Alcala de Henares, Spain", "global_code": "8CGRFJRV+35"}, "reference": "ChIJEQVIO0JJQg0RFOOyBr921Kc", "scope": "GOOGLE", "types": ["primary_school", "secondary_school", "school", "point_of_interest", "establishment"], "vicinity": "Calle de Luis de Medina, 12, Alcalá de Henares"}]