[{"business_status": "OPERATIONAL", "geometry": {"location": {"lat": 40.9213257, "lng": -3.6859268}, "viewport": {"northeast": {"lat": 40.92267448029149, "lng": -3.684572469708498}, "southwest": {"lat": 40.91997651970849, "lng": -3.687270430291503}}}, "icon": "https://maps.gstatic.com/mapfiles/place_api/icons/v1/png_71/park-71.png", "icon_background_color": "#4DB546", "icon_mask_base_uri": "https://maps.gstatic.com/mapfiles/place_api/icons/v2/tree_pinlet", "name": "Fuente lavadero", "opening_hours": {"open_now": true}, "place_id": "ChIJ45fmF2zhQw0RUPpAgU3xNvc", "plus_code": {"compound_code": "W8C7+GJ Garganta de los Montes, Spain", "global_code": "8CGRW8C7+GJ"}, "rating": 5, "reference": "ChIJ45fmF2zhQw0RUPpAgU3xNvc", "scope": "GOOGLE", "types": ["park", "point_of_interest", "establishment"], "user_ratings_total": 1, "vicinity": "Calle Colmenar, 4, Garganta de los Montes"}, {"business_status": "OPERATIONAL", "geometry": {"location": {"lat": 40.9220447, "lng": -3.6857781}, "viewport": {"northeast": {"lat": 40.9233899302915, "lng": -3.684428069708497}, "southwest": {"lat": 40.9206919697085, "lng": -3.687126030291501}}}, "icon": "https://maps.gstatic.com/mapfiles/place_api/icons/v1/png_71/park-71.png", "icon_background_color": "#4DB546", "icon_mask_base_uri": "https://maps.gstatic.com/mapfiles/place_api/icons/v2/tree_pinlet", "name": "Paseo peatonal - Desde Garganta de los Montes a El Cuadrón", "opening_hours": {"open_now": true}, "photos": [{"height": 2336, "html_attributions": ["<a href=\"https://maps.google.com/maps/contrib/103920148903994911142\">ANTONIO JESÚS MARTIN</a>"], "photo_reference": "AWn5SU64NzP4Akjjuu-y1VwvieQgrbzZ6SUzIQ6x_bcEoKNc10_dR1sUbX95bO7AGWvULy05Vtk248Pyovj-CcL391xtYTxR4HQ5t4aN7NWM8fTz3hkpToBjS1XptykXK6wiBEejimnNHxGqjh_rJC5hpVquAVXyZHbr0zMzW4M4UetJu84migrnFBVMyYnTcccKn4xaSINke9DYbK1qNntR4tSdZ6bQAtMOGv9pRbmy_PKIREfhsFbD5Rx98VUtFEVyr_OlCIHBIGYGR6DQNt-Ncjt08-5wBdGn1kvao6BvUCNbWH9TWExdagzET5VQoWDrjL5k1eQZJPuQgIOtMvCM9oCiOHshDNkP90CJnInb6EUwAwRZZf7l6BosmKhetezXA-RjQmD0drnqddl6Hf7lKRdjvK_40CRLDqlyiC8HlhiU9g7mxTBtTb2dCZ6JOi_9yVba3Uz4JOsh7veQvuZgVl7LmOntzdGIkPm3YNVsFmmWmnZlgBeFLldPtNdeZLW4OfqGULcTTDjrDhIUyqX5ZhIpmyxMswjRUaUKIyucgFWwLAb2BTFVfs7j6Tm14Tg4j5XkIrbrrSRdXI4Htj4zz-f27U9C4DmoCbgN2M1tQU1oUB6LF5kGbiMn01dX1fYOHLVxA9oT", "width": 4160}], "place_id": "ChIJP8-zgd_hQw0RNGDfPo9d7YY", "plus_code": {"compound_code": "W8C7+RM Garganta de los Montes, Spain", "global_code": "8CGRW8C7+RM"}, "rating": 5, "reference": "ChIJP8-zgd_hQw0RNGDfPo9d7YY", "scope": "GOOGLE", "types": ["park", "point_of_interest", "establishment"], "user_ratings_total": 2, "vicinity": "Garganta de los Montes"}, {"business_status": "OPERATIONAL", "geometry": {"location": {"lat": 40.92156840000001, "lng": -3.6836429}, "viewport": {"northeast": {"lat": 40.92288558029151, "lng": -3.682322919708497}, "southwest": {"lat": 40.92018761970851, "lng": -3.685020880291502}}}, "icon": "https://maps.gstatic.com/mapfiles/place_api/icons/v1/png_71/park-71.png", "icon_background_color": "#4DB546", "icon_mask_base_uri": "https://maps.gstatic.com/mapfiles/place_api/icons/v2/tree_pinlet", "name": "Fuente manantial Abrevadero del camino de Valdemanco", "opening_hours": {"open_now": true}, "photos": [{"height": 2588, "html_attributions": ["<a href=\"https://maps.google.com/maps/contrib/103677994736565098117\">Miguel Angel_61</a>"], "photo_reference": "AWn5SU7R9u0VlwmrAPP60STq6zL2YRECql55K14ipbh15TJ_OGlU03pVWQN6zsk24l3FaN9HDPO52o5rYNRnRcCOzXbw_n6OmAyDCxBFLEwATVFsJCUCZqmOxlfeQbRcG5HKzjgtGzq225Pkpdd4mQX9diqZ2nvMSplEG2R1EZVa3QFA_ufC4UI7qApAqZ1AWVzTBybPrk0iVF2BY-K_Mj8Oy3gq69VIWWnnVwbH0cb_861t7exmI-8zjL35RasPm4onAYdAiOC1yxjr2Q0rcefdvn0kBcf3Gq_X2rXP1nxLpiC-lNbLBL2YmrTpn5yoR4arUXfx5AMuWWwA6z1DQubNas_vATdmZpOMCqZKRv1CZR4CzsfNRG6pOI5ZbwFbVe74_f95hqW9FRAHPO2MUyJWYKU25mECfXzsXmPC9Yd22J2uBr7WA_lJQmgfODVdTk7t0iMLNKqIX1tEwYsPF9wJi4Nd5Uej4Zz1rqBbKxEj5VuNxh_zJ0tkxT1BtV_8j2vlEcSfcOZyBVoTNY6PJLjx4jDBuUf__tFafX60je8qqcHjF1lKGO5NuTPZgCG0uqHC2-_QbEfjr4h1sqn2WYbF6nFsQd6Lwr8HsHw84n7HBzCRwebwSnlCU6-JfMgGzOlL7EW39CMo", "width": 4632}], "place_id": "ChIJ03SDrRbhQw0RAEmRKat-q_w", "plus_code": {"compound_code": "W8C8+JG Garganta de los Montes, Spain", "global_code": "8CGRW8C8+JG"}, "rating": 5, "reference": "ChIJ03SDrRbhQw0RAEmRKat-q_w", "scope": "GOOGLE", "types": ["park", "point_of_interest", "establishment"], "user_ratings_total": 3, "vicinity": "Camino de Valdemanco, 8, Garganta de los Montes"}, {"business_status": "OPERATIONAL", "geometry": {"location": {"lat": 40.9263421, "lng": -3.6870638}, "viewport": {"northeast": {"lat": 40.92769613029149, "lng": -3.685764769708498}, "southwest": {"lat": 40.92499816970849, "lng": -3.688462730291502}}}, "icon": "https://maps.gstatic.com/mapfiles/place_api/icons/v1/png_71/park-71.png", "icon_background_color": "#4DB546", "icon_mask_base_uri": "https://maps.gstatic.com/mapfiles/place_api/icons/v2/tree_pinlet", "name": "Fuente de las Eras", "opening_hours": {"open_now": true}, "place_id": "ChIJyzvjIxfhQw0RW1p8VJIi8Zg", "plus_code": {"compound_code": "W8G7+G5 Garganta de los Montes, Spain", "global_code": "8CGRW8G7+G5"}, "rating": 5, "reference": "ChIJyzvjIxfhQw0RW1p8VJIi8Zg", "scope": "GOOGLE", "types": ["park", "point_of_interest", "establishment"], "user_ratings_total": 3, "vicinity": "Diseminado las Eras Ren, 2, Garganta de los Montes"}, {"business_status": "OPERATIONAL", "geometry": {"location": {"lat": 40.92296229999999, "lng": -3.6964089}, "viewport": {"northeast": {"lat": 40.92426148029149, "lng": -3.695005619708498}, "southwest": {"lat": 40.9215635197085, "lng": -3.697703580291503}}}, "icon": "https://maps.gstatic.com/mapfiles/place_api/icons/v1/png_71/park-71.png", "icon_background_color": "#4DB546", "icon_mask_base_uri": "https://maps.gstatic.com/mapfiles/place_api/icons/v2/tree_pinlet", "name": "Manantial de las Fuentecillas", "opening_hours": {"open_now": true}, "photos": [{"height": 3120, "html_attributions": ["<a href=\"https://maps.google.com/maps/contrib/105606420681005204621\">Alejandro Cabello Carretero</a>"], "photo_reference": "AWn5SU4cqqaUKN4WeJx7gK0eJWbi75pd32V88zcwF983LXV-yXlcgyL_kxMYbBB3UHxqKK0reY6txnd97gA6qVUESn0KInX8Cv069elZZ0uF0SrgNmiW_l8t47Z61s-iVSlLqR-T0VOV-WIUMDI4bfGI41oy6YUNB7llc2ictKspHiafku6yok6iEm61C5ls_Q_qjuQ1J0ZNlRTn42UYJrQAAmzQp6xEMBTZ3i-fKjerFiIDWxiWw4gpXM5CbOreCa5VbNMR8SCMnSyi4dFQ6EcA9Ued6U8eVPVy72U1Likey9kuJTyMFTXHIJHOHAaBGsXtXxx_nzDaNboKJOFxE3PYIOl1DsV7lBBT4uwU8rrIDuiTpfo8ICDKD3VHBBSX80AAiixSjWH-fYr8Anm6gC0tUTG1AizzPCSiXiR7DQ0FswD-39W0kvfmFA_hzmRp3jBaRGu2PQawQTAZFYmDuKX7t-dhxO-uokKkXUpswkV5btAyB1IYmqUfntfR3o-mLhwrVEZGHyml1ngxwygUx2GQW9mxzCSyZN6hQNC3ydGGIoIX3g_GW6denFuOwtGEIp4MsbDIMKItxopNpu-qHMA_e0SlvW95pE60-QWuLO6NUH2ZXbgdctYVvZ9Ue5Q9FeB0FfNWvQ", "width": 4160}], "place_id": "ChIJ1TNyhCXhQw0Rx4vTJoG9CSk", "rating": 5, "reference": "ChIJ1TNyhCXhQw0Rx4vTJoG9CSk", "scope": "GOOGLE", "types": ["park", "point_of_interest", "establishment"], "user_ratings_total": 2, "vicinity": "W8F3+5C"}, {"business_status": "OPERATIONAL", "geometry": {"location": {"lat": 40.9198992, "lng": -3.681642999999999}, "viewport": {"northeast": {"lat": 40.92118688029149, "lng": -3.680510919708497}, "southwest": {"lat": 40.9184889197085, "lng": -3.683208880291502}}}, "icon": "https://maps.gstatic.com/mapfiles/place_api/icons/v1/png_71/park-71.png", "icon_background_color": "#4DB546", "icon_mask_base_uri": "https://maps.gstatic.com/mapfiles/place_api/icons/v2/tree_pinlet", "international_phone_number": "+34 918 69 41 36", "name": "Prados Valles", "opening_hours": {"open_now": true}, "photos": [{"height": 1836, "html_attributions": ["<a href=\"https://maps.google.com/maps/contrib/115437633469398390825\">Jose Alvarez Martinez</a>"], "photo_reference": "AWn5SU5YokVXaXgzBP8wK8uh2PpnU5uHE-4D23clY8k8y2LcxGVDap-5w3VAHuxo6LBObGqwDIlvLM7BCjy3zFRoF_0fhTaBZ7xwkwD6aLAH1lXjqPK8eeIexDZXbbr8eYI31HMl2iIhcg76Xamzpf7aHLYDhmwzGzkv7bupVBHCOq6NtHZj8hHlyc1_NivyPiDD5UPolm9G0TzekOv7v_RRRwtTx10mrKEj9-2KBRiho5BRJ8iuOM2dtC5IelMV797UkWIUs01iVpE8MZ_uCUZHRmvu_QohyS_Re9M1QdGQzVB1CifvQHSwPOiy0fhLTpSJaFAsuBSr0SH-zl9HPImDJHN3LAthzfMw961eEkM9eq0dKgZ_dsQiBuEWiSnoBI_bTv8-7k3ECCGdixa1cVDmx-gFZyaZYkmFQwgmNiVM1glPqpaKPLTpE6M-1yNuHmnpNuRz1pyQhZhj_JReDBdkgIY0iUMvNWUAeDE1GN2ET9ARFt79f66ZRJJLeL_-JT6gOMAyf5GdzuxMa6p4CNrq-gUpG_z_7DdFLWBil-wcz3qaDal3smGByKCypmIyF5N0f0prRZiBKpDCoPe2P1F_-ljxyg_QjFe6mmjq6bNbJDgbQqxSaOEuSJdgE47qwFKn1v85V2jq", "width": 4080}], "place_id": "ChIJT1bDC77gQw0RWHfnBtV6RpQ", "plus_code": {"compound_code": "W899+X8 Garganta de los Montes, Spain", "global_code": "8CGRW899+X8"}, "rating": 4.8, "reference": "ChIJT1bDC77gQw0RWHfnBtV6RpQ", "scope": "GOOGLE", "types": ["park", "point_of_interest", "establishment"], "user_ratings_total": 11, "vicinity": "Camino de Valdemanco, s/n, Garganta de los Montes"}, {"business_status": "OPERATIONAL", "geometry": {"location": {"lat": 40.92697800000001, "lng": -3.6835175}, "viewport": {"northeast": {"lat": 40.9279271802915, "lng": -3.680667949999999}, "southwest": {"lat": 40.92522921970851, "lng": -3.68446735}}}, "icon": "https://maps.gstatic.com/mapfiles/place_api/icons/v1/png_71/park-71.png", "icon_background_color": "#4DB546", "icon_mask_base_uri": "https://maps.gstatic.com/mapfiles/place_api/icons/v2/tree_pinlet", "name": "Manantial del Colmenar", "opening_hours": {"open_now": true}, "place_id": "ChIJmdgN34nhQw0RKmMpHnptyBI", "rating": 5, "reference": "ChIJmdgN34nhQw0RKmMpHnptyBI", "scope": "GOOGLE", "types": ["park", "point_of_interest", "establishment"], "user_ratings_total": 2, "vicinity": "W8G8+QH"}, {"business_status": "OPERATIONAL", "geometry": {"location": {"lat": 40.91604, "lng": -3.681076}, "viewport": {"northeast": {"lat": 40.9174170302915, "lng": -3.679798819708497}, "southwest": {"lat": 40.9147190697085, "lng": -3.682496780291502}}}, "icon": "https://maps.gstatic.com/mapfiles/place_api/icons/v1/png_71/park-71.png", "icon_background_color": "#4DB546", "icon_mask_base_uri": "https://maps.gstatic.com/mapfiles/place_api/icons/v2/tree_pinlet", "name": "Laguna estacional", "photos": [{"height": 3000, "html_attributions": ["<a href=\"https://maps.google.com/maps/contrib/102173091116160837996\">José Javier Villalba Calles</a>"], "photo_reference": "AWn5SU7LQvpyW3mupIOeDsn_fSBl34M0dYowawfFLia2OKwuGL7-2M0un0Arkzk1qiaVsZN7O7sNODW3Ym13JMDDnPdjlSv0HZQD5kz_V71maVpqjuVcMshjsvjrNl7ISjLn0BuB12hybjkIIPIiG8xn-D-7Xcy9NgZvFl4C0KuDfJdVsxt3Bz-GD-B8Sl8VQYAQNi8pvp27qnP_25p0IKsudjfuJXQlfft321FdLLd4NSMxwijf8WTYlqvv9FEwm8qaFhebrL40e3E0D2nOgjkcoZVyM_2Qo8n8iIEGfNReNzJ037BdNft1-OSKcLWP0LETle_yaNnr9PsxFOiFCcwIVvzOmRj2C9bKUIyT0YWJx6pHm5e_SbakEclF84SD3g1-laFFrBPeL-o7-cb8iToW1762WErFOW40hl2I3M2zMXAGX_iQyLquvxAlRozYPQHlH2-t1I1KV5LiCe8EsN2SoEK-t4RlR_L-OSgNNfjrHeVvREkxIqUat3_Lwnx7U9QEW-ozgr-VMr-Yx7T8qBTisWPa7Qb4x50w-D6oPEytoRMypEg4jYI69W0saoTa5vimxAlEx5Vze89TDJdxF0ajIuMjgttsfEx-iej2b5BkmCJ6bQWIvYaavKOLMy5Z6_cblUzInQ", "width": 4000}], "place_id": "ChIJmch8fwDhQw0RFyV-0Lc8dmU", "reference": "ChIJmch8fwDhQw0RFyV-0Lc8dmU", "scope": "GOOGLE", "types": ["park", "point_of_interest", "establishment"], "vicinity": "W889+CH, Garganta de los Montes"}, {"business_status": "OPERATIONAL", "geometry": {"location": {"lat": 40.930122, "lng": -3.6864955}, "viewport": {"northeast": {"lat": 40.9314860802915, "lng": -3.685191669708499}, "southwest": {"lat": 40.9287881197085, "lng": -3.687889630291503}}}, "icon": "https://maps.gstatic.com/mapfiles/place_api/icons/v1/png_71/park-71.png", "icon_background_color": "#4DB546", "icon_mask_base_uri": "https://maps.gstatic.com/mapfiles/place_api/icons/v2/tree_pinlet", "name": "Fuente de los Piojos", "opening_hours": {"open_now": true}, "photos": [{"height": 3024, "html_attributions": ["<a href=\"https://maps.google.com/maps/contrib/110758447063296864204\">Mac Gajwer</a>"], "photo_reference": "AWn5SU6xu3TLMk86KDU37E1WYHxgkxSKF0wEOaxbTUXy_1pxJCdPDDG5LPs6LwvW7MHLjluQVrGzZ3n3yLMMh4v7Sz49frJyWh2ZT4p9sVb9khAorYwBcf0KvAnd2ikChII-x64Zhm25MmZOLBZoCxPTKkit7E4EVymm0aE73OzvjvXdMIQ64taF3ADqc-f3hJrqelC2IaAw9oozds_Vgnhbu_u_soErYx7gNsIwMBqGLm-COO_hXHhXwDHAHP2qJUDWFW8GTYy37UU7iu-ZAjvvcR4-8YXinJo1mY3gGKosCwSj_cV2GL4NLVdueTqq7t5WT7pqrK2_5bjcY1HSfHY2cl-_kh9fgKIvIMAgbU25V5vjGoIRG9P1_2vz7TPqaMbfYyr8uJrwUj8ZMyfDHPm_MtMcLBDtW9tx7kTRo2EJFqh6_3igdAzmbbnXUVO0SxfOM7RI77vWcmRFzvkh-8l29MAvF06mJ1US8pnDcPUPyOY6mf7VcTW5lgJUZ7N-3sq__yFvw3ozKZgt5qgKOzJc3Dudt_ki86L0_pLJgNy2C8n4OP0U4RF8lWfNRYhQvSDUwptaia1jUPEz7onizIQcq1qWi14MGZgezQ-cRQVSdsKrYecfRlOucD-d9FywfKxz8pnk8A", "width": 4032}], "place_id": "ChIJd8YlHFnhQw0Rb7NAeMfg48E", "rating": 5, "reference": "ChIJd8YlHFnhQw0Rb7NAeMfg48E", "scope": "GOOGLE", "types": ["park", "point_of_interest", "establishment"], "user_ratings_total": 3, "vicinity": "W8J7+2C"}, {"business_status": "OPERATIONAL", "geometry": {"location": {"lat": 40.911702, "lng": -3.6901382}, "viewport": {"northeast": {"lat": 40.9127589302915, "lng": -3.68888295}, "southwest": {"lat": 40.9100609697085, "lng": -3.69390395}}}, "icon": "https://maps.gstatic.com/mapfiles/place_api/icons/v1/png_71/park-71.png", "icon_background_color": "#4DB546", "icon_mask_base_uri": "https://maps.gstatic.com/mapfiles/place_api/icons/v2/tree_pinlet", "name": "Manantial de la Ermita", "opening_hours": {"open_now": true}, "place_id": "ChIJgz2vdU3hQw0RWADmKF670kg", "plus_code": {"compound_code": "W865+MW Garganta de los Montes, Spain", "global_code": "8CGRW865+MW"}, "rating": 5, "reference": "ChIJgz2vdU3hQw0RWADmKF670kg", "scope": "GOOGLE", "types": ["park", "point_of_interest", "establishment"], "user_ratings_total": 1, "vicinity": "Garganta de los Montes"}, {"business_status": "OPERATIONAL", "geometry": {"location": {"lat": 40.9111785, "lng": -3.6824564}, "viewport": {"northeast": {"lat": 40.9129121802915, "lng": -3.68114235}, "southwest": {"lat": 40.9102142197085, "lng": -3.68639855}}}, "icon": "https://maps.gstatic.com/mapfiles/place_api/icons/v1/png_71/park-71.png", "icon_background_color": "#4DB546", "icon_mask_base_uri": "https://maps.gstatic.com/mapfiles/place_api/icons/v2/tree_pinlet", "name": "Manantial del Navarejo", "opening_hours": {"open_now": true}, "photos": [{"height": 2136, "html_attributions": ["<a href=\"https://maps.google.com/maps/contrib/113010533146774250714\">Javier Jiménez</a>"], "photo_reference": "AWn5SU485qoPP49It0I56MtcTL1vebhbk4y4CS5CwoEKfYjcVtBb4sE4Us4gQ0vbRiR0Ja4ByA5EWVPs7LWoum7WehLopbFbPLJCCkQ3ATU9WsSOKpcyCdWXh5D2IxRxZ1oqEcWhERjuxw4zPnR4qnUrul8Rpdt-CUVS35BKdsyvBOyMYkVSiamqu5jL_CksgjYZbpegV7JTssZdJ5LOBcKt8-EgXuagToj9gX0nLgPDQpaWNsdP_aGri7IDrOCnuxnyEENMWrKYV3atiBr35qAfZSuBUosn5HInCrExm3a4mwb4UKk6RBcHKntkL6aqbpkAs9-DY1EwAx947Su1A2KBSYJOyrYdMDGW1vbvHR_jzMGQ7BGYon6-uxPE_bIK9zFj-8t-KOXS4CNMJJwFk9ne0d63EyakR8gVZg-Bydm0FuYe3Ko6Sc7P0kkdbK8yw52HEHjX9J0TUmYnM3PZcAYIV1aOU_95itcKeTK3Fp6MT66xqL6wtyaz4PjHbe4EVqff8pUT6pBXRK-nXn8tTeBYrm-X70n4xTfw4G7l2a3jnsbMwwFFX7tNZA9TU66_uH6ZDyw8omUSt7-Q0ZqEJm75M1HNLTQ33uOP9x0C69NwkTzrj2yx_3l3XgMp0kTpu0PUB8jxQNdMTllgWVV45Qasx32Ybsg", "width": 4624}], "place_id": "ChIJX1KY6A_hQw0RgmZb525Wdis", "rating": 4.7, "reference": "ChIJX1KY6A_hQw0RgmZb525Wdis", "scope": "GOOGLE", "types": ["park", "point_of_interest", "establishment"], "user_ratings_total": 3, "vicinity": "W869+F2"}, {"business_status": "OPERATIONAL", "geometry": {"location": {"lat": 40.9104848, "lng": -3.696028700000001}, "viewport": {"northeast": {"lat": 40.9116028802915, "lng": -3.691455649999999}, "southwest": {"lat": 40.9089049197085, "lng": -3.697553050000001}}}, "icon": "https://maps.gstatic.com/mapfiles/place_api/icons/v1/png_71/park-71.png", "icon_background_color": "#4DB546", "icon_mask_base_uri": "https://maps.gstatic.com/mapfiles/place_api/icons/v2/tree_pinlet", "name": "Fuente manantial de la Mata del Miajar", "opening_hours": {"open_now": true}, "place_id": "ChIJuUIj6XPhQw0RrtEnpGlHb1A", "rating": 5, "reference": "ChIJuUIj6XPhQw0RrtEnpGlHb1A", "scope": "GOOGLE", "types": ["park", "point_of_interest", "establishment"], "user_ratings_total": 1, "vicinity": "W863+5H"}, {"business_status": "OPERATIONAL", "geometry": {"location": {"lat": 40.9235786, "lng": -3.6723015}, "viewport": {"northeast": {"lat": 40.9250010802915, "lng": -3.670979069708497}, "southwest": {"lat": 40.9223031197085, "lng": -3.673677030291501}}}, "icon": "https://maps.gstatic.com/mapfiles/place_api/icons/v1/png_71/park-71.png", "icon_background_color": "#4DB546", "icon_mask_base_uri": "https://maps.gstatic.com/mapfiles/place_api/icons/v2/tree_pinlet", "name": "Fuente de la Raposera", "opening_hours": {"open_now": true}, "place_id": "ChIJQR8ua_LhQw0R3V1BBnzohkg", "rating": 5, "reference": "ChIJQR8ua_LhQw0R3V1BBnzohkg", "scope": "GOOGLE", "types": ["park", "point_of_interest", "establishment"], "user_ratings_total": 2, "vicinity": "W8FH+C3"}, {"business_status": "OPERATIONAL", "geometry": {"location": {"lat": 40.9082713, "lng": -3.692517}, "viewport": {"northeast": {"lat": 40.9097056302915, "lng": -3.690972119708497}, "southwest": {"lat": 40.9070076697085, "lng": -3.693670080291502}}}, "icon": "https://maps.gstatic.com/mapfiles/place_api/icons/v1/png_71/park-71.png", "icon_background_color": "#4DB546", "icon_mask_base_uri": "https://maps.gstatic.com/mapfiles/place_api/icons/v2/tree_pinlet", "name": "Presa de los Lindes", "opening_hours": {"open_now": true}, "photos": [{"height": 3120, "html_attributions": ["<a href=\"https://maps.google.com/maps/contrib/105541988265820270601\">VS Crespo</a>"], "photo_reference": "AWn5SU5vXYebEoISBPRMFD9FFqO1KYiirXGttoOPj6rPIVFF9ypGhSzPFmF62ZVqtCE8WKWQtzJTnOVJr7ukF3HTmUtLN6NIFPtkwD4Vxrc1wWcN4GEwRJPqCDDP_FH-91FgbvRP2cJ6ioOtsh1lUHahYMq9NSAd0oJfWYuCt_fQrjWPSgDm8zehWBRQEwbM84FMp7UB0ZQsslE_PUuIydNm4A5EY76F_xy84PN2_nLbJWiRuG-qath5oOXll_S70Z__GgCY8vKc-QXiQtzaDrCY_LYya_sYak0AY7aNSx0yAFY2PeaFXqoVCZLpIw5H5nPa02LqaEsGvhIveXRk8p5uTuHI3j7MHjSVDP659ctsIOjRAaJ1XjvCqaHdWIDLfr4Gvj1D5zafQSA-85MD_zzu_iX4LyCeJ5r4Lzda0DU1LNUbNm4IpLuSJVGK5sXmN5Yv9_sKnKk5X7pDRkcpw9jMMZrCGxAHyLr5VAkZQlU0goUbaWq2JWRwTUAH76Dv3TJteI4fg02WzwMznNiut2FAJoZoi-cPF1qQuABdbZ3oNGYreUk5DCU-0czswd-wDg2tQJM7f_889v4DW_VDIJljWpnQdq70FjZbzf2zRcw5b4uulqD9zakcgKrPXRw68XEi2W01yw", "width": 4160}], "place_id": "ChIJLamKy5rgQw0R7mzzyNitPYQ", "plus_code": {"compound_code": "W854+8X Garganta de los Montes, Spain", "global_code": "8CGRW854+8X"}, "rating": 4.5, "reference": "ChIJLamKy5rgQw0R7mzzyNitPYQ", "scope": "GOOGLE", "types": ["park", "point_of_interest", "establishment"], "user_ratings_total": 10, "vicinity": "Garganta de los Montes"}, {"business_status": "OPERATIONAL", "geometry": {"location": {"lat": 40.90651099999999, "lng": -3.69058}, "viewport": {"northeast": {"lat": 40.90783838029149, "lng": -3.689254319708498}, "southwest": {"lat": 40.90514041970849, "lng": -3.691952280291503}}}, "icon": "https://maps.gstatic.com/mapfiles/place_api/icons/v1/png_71/park-71.png", "icon_background_color": "#4DB546", "icon_mask_base_uri": "https://maps.gstatic.com/mapfiles/place_api/icons/v2/tree_pinlet", "name": "Manantiales de las Lindes", "opening_hours": {"open_now": true}, "place_id": "ChIJmxMZzNzhQw0RGACDVk_MKg8", "plus_code": {"compound_code": "W845+JQ Garganta de los Montes, Spain", "global_code": "8CGRW845+JQ"}, "rating": 5, "reference": "ChIJmxMZzNzhQw0RGACDVk_MKg8", "scope": "GOOGLE", "types": ["park", "point_of_interest", "establishment"], "user_ratings_total": 2, "vicinity": "Camino de Valdemanco, Garganta de los Montes"}, {"business_status": "OPERATIONAL", "geometry": {"location": {"lat": 40.9085319, "lng": -3.7014461}, "viewport": {"northeast": {"lat": 40.9098808802915, "lng": -3.700097119708497}, "southwest": {"lat": 40.9071829197085, "lng": -3.702795080291502}}}, "icon": "https://maps.gstatic.com/mapfiles/place_api/icons/v1/png_71/park-71.png", "icon_background_color": "#4DB546", "icon_mask_base_uri": "https://maps.gstatic.com/mapfiles/place_api/icons/v2/tree_pinlet", "name": "Acueducto de la Reguera de la Dehesa", "opening_hours": {"open_now": true}, "place_id": "ChIJ1dPERzfhQw0RW5xZkkXfz6Q", "reference": "ChIJ1dPERzfhQw0RW5xZkkXfz6Q", "scope": "GOOGLE", "types": ["park", "point_of_interest", "establishment"], "vicinity": "W75X+CC, Garganta de los Montes"}, {"business_status": "OPERATIONAL", "geometry": {"location": {"lat": 40.9053107, "lng": -3.6916591}, "viewport": {"northeast": {"lat": 40.90658928029151, "lng": -3.690126969708497}, "southwest": {"lat": 40.90389131970851, "lng": -3.692824930291502}}}, "icon": "https://maps.gstatic.com/mapfiles/place_api/icons/v1/png_71/park-71.png", "icon_background_color": "#4DB546", "icon_mask_base_uri": "https://maps.gstatic.com/mapfiles/place_api/icons/v2/tree_pinlet", "name": "Mirador de los Helechales", "photos": [{"height": 1920, "html_attributions": ["<a href=\"https://maps.google.com/maps/contrib/113220284949719725634\">Ponte en MARCHA “PonteEnMarcha”</a>"], "photo_reference": "AWn5SU4YAOgpgjLX6SaeOQP6qETD0xM39Ky_heTRTHpaRwyGHqQU8fwtTYBJj8ayYPpkints-H6tgL9NCPTOecmsmVw-1WaLjcMtpB6C8G-IHaZqQOx6MfLggi0gBNkBV2xPkJIqnR6uoPZXnvfwfWjAa9PMFO1VSmd8yxlYHM1zQZJo2kUn9Z23of1iJOvK3meDnsW43IiH5UHjtqEvEJuvVrPbUSS3GXvHBzy9onqztOK3_xgWE_-E_vQtYCRCefg8eL55hMhlBcZ0ox-zsVWXTV1w0QRSodafQUUTxuQr7BHY3X9uKeFuqEuJjqcWAt26ZgBa6xT9uLC7XD1XxHG0Db_zusMJsq5adIkgSHhYKmnzsO0EX8n4-U1hUN1M4GAQoGvDZerhrX3jKgKdni0LCEOcQOLyUbAQAImQm0nqY9wQqJxrzbGNgpYwnRL0FA3gzDxoaIaVXffNApl0V90I0ykTcodFeXvFxACdNAQ8mWFZjuyvFZXFyulHG6sEpa89l210FTthlbO7MtRAgcCM8DfcFl_hu3pQ013xPzBNnYSPxOgNBja4TfIYwPmZhMZIx920U_GPmf8ZmBTJUOBdU8wcWcaScPOtI_cvJk7rzFV_b9sZBE9VW35Vv0bCkXXC", "width": 2560}], "place_id": "ChIJGRb1l67hQw0RZsO5FZdO2Bk", "plus_code": {"compound_code": "W845+48 Garganta de los Montes, Spain", "global_code": "8CGRW845+48"}, "reference": "ChIJGRb1l67hQw0RZsO5FZdO2Bk", "scope": "GOOGLE", "types": ["park", "point_of_interest", "establishment"], "vicinity": "Garganta de los Montes"}, {"business_status": "OPERATIONAL", "geometry": {"location": {"lat": 40.9052495, "lng": -3.6930488}, "viewport": {"northeast": {"lat": 40.90651433029149, "lng": -3.69046445}, "southwest": {"lat": 40.90381636970849, "lng": -3.69391025}}}, "icon": "https://maps.gstatic.com/mapfiles/place_api/icons/v1/png_71/park-71.png", "icon_background_color": "#4DB546", "icon_mask_base_uri": "https://maps.gstatic.com/mapfiles/place_api/icons/v2/tree_pinlet", "name": "Pozas de la Sardaliende", "opening_hours": {"open_now": true}, "place_id": "ChIJpS2IBYzhQw0RlkUTW4vjsFw", "rating": 5, "reference": "ChIJpS2IBYzhQw0RlkUTW4vjsFw", "scope": "GOOGLE", "types": ["park", "point_of_interest", "establishment"], "user_ratings_total": 2, "vicinity": "W844+3Q"}, {"business_status": "OPERATIONAL", "geometry": {"location": {"lat": 40.9084025, "lng": -3.675693200000001}, "viewport": {"northeast": {"lat": 40.9097147802915, "lng": -3.674223269708499}, "southwest": {"lat": 40.9070168197085, "lng": -3.676921230291503}}}, "icon": "https://maps.gstatic.com/mapfiles/place_api/icons/v1/png_71/park-71.png", "icon_background_color": "#4DB546", "icon_mask_base_uri": "https://maps.gstatic.com/mapfiles/place_api/icons/v2/tree_pinlet", "name": "Manantial de Matalapeña", "opening_hours": {"open_now": true}, "photos": [{"height": 3984, "html_attributions": ["<a href=\"https://maps.google.com/maps/contrib/114940396743102579891\">Fatares</a>"], "photo_reference": "AWn5SU7VG9dYwM9JtIS39H2Ftwc_JcRkpPKjph2xhS9XpbGkaHnc2oMlyoAXLeO8yyyoJF27tM50bN3oAgv54Z17R-UYheVOlDz_27o7P9UoJsUwWn9T-L4bKFCDPHjRCaFE_9Z0ARNeomTH5P8vdknTF94Xe8ITXbkRbGn8SgQTMrw47r6CSvsRvE6Qb46yoZLiZZAgTcd6MmPBhSUpnpWPLRaSIQCObSgIoj48dTojVvdQzZHIDnoqCWzVoPWFjaaIKFRcBAYkWtR9OQYwZE7oB4l9PgS4McIfbZ08rD9wUMIMvXGFrRpfW-egzekrbjZ45Ps3flGErx330YGKpFUPopE9tP6F3-Hp8l06__7ev2Tb0DthF87BgjL5kPbKjtneOylbB2lcYoUnd-LmNRnc3cuxsg44P3XU0BawaVSchoYL5yhEZ6HiPwVFtE-c1Uq5XWEX1lqdI9vU0cqP3wvzRTDeU22dc2SDorwKfvvmgVcaivmNJ6JtZAklikCQRG94XzZMzhKksUBla2JO0BRc6HHhtmeL_lJlZnRy3sh-rMBfPVQ3EYaFcXYba4cWzBiJBzWi1797o8g5FAaAPUshU76-pqAQxXYLbHi2hIRwlys_EFM5WFkCeLV4l1UXgWLVTNaOag", "width": 1840}], "place_id": "ChIJcWlzAsrhQw0RBo96D4WnLPQ", "rating": 4.7, "reference": "ChIJcWlzAsrhQw0RBo96D4WnLPQ", "scope": "GOOGLE", "types": ["park", "point_of_interest", "establishment"], "user_ratings_total": 3, "vicinity": "W85F+9P"}, {"business_status": "OPERATIONAL", "geometry": {"location": {"lat": 40.9284826, "lng": -3.7111731}, "viewport": {"northeast": {"lat": 40.93059790000001, "lng": -3.706200600000001}, "southwest": {"lat": 40.92777749999999, "lng": -3.7128306}}}, "icon": "https://maps.gstatic.com/mapfiles/place_api/icons/v1/png_71/park-71.png", "icon_background_color": "#4DB546", "icon_mask_base_uri": "https://maps.gstatic.com/mapfiles/place_api/icons/v2/tree_pinlet", "name": "Manantial del cerro de Canencia", "opening_hours": {"open_now": true}, "place_id": "ChIJFyFDAADhQw0Rp6Do417QBo4", "reference": "ChIJFyFDAADhQw0Rp6Do417QBo4", "scope": "GOOGLE", "types": ["park", "point_of_interest", "establishment"], "vicinity": "W7HQ+9G, Garganta de los Montes"}]