[{"business_status": "OPERATIONAL", "geometry": {"location": {"lat": 40.206512, "lng": -3.861781999999999}, "viewport": {"northeast": {"lat": 40.2077155302915, "lng": -3.860378919708497}, "southwest": {"lat": 40.2050175697085, "lng": -3.863076880291501}}}, "icon": "https://maps.gstatic.com/mapfiles/place_api/icons/v1/png_71/gas_station-71.png", "icon_background_color": "#909CE1", "icon_mask_base_uri": "https://maps.gstatic.com/mapfiles/place_api/icons/v2/gas_pinlet", "international_phone_number": "+34 918 14 13 29", "name": "MOEVE GRIÑÓN", "opening_hours": {"open_now": false}, "photos": [{"height": 1152, "html_attributions": ["<a href=\"https://maps.google.com/maps/contrib/102545918050813425786\">MOEVE GRIÑÓN</a>"], "photo_reference": "AWn5SU6PpizzN3hx6NjTDN9yw2TVjAuHOroWBsUCFhKUuJ5yX2KDK9hjO7AhCC6TAqsUqpxH-iU6as1nyvLL6FzdE5qwFk0JzQwxAMVmS91HjpNAnqxhurwL-rv1YUJlBkK93aJFDGCYJUs8I61NOiacfc5F95f-hNC39LNV92-7FVlGMwDKZjq29-WLk00K4x14W47-i1uWS1SVaZt0D0M8CMWvBOLtgn3PCgOnUpNdOpz3Cfz4XhjdIYURpqOluXBA2-uqvOqQpRoGB3yyhfF7lRRiBi9b0m-sPMYOXRy3UXB62ieTx2WWvDdjv-IH79sU-vHGDyO3eak", "width": 2048}], "place_id": "ChIJdV90HwHzQQ0RbOJpvUzbDYM", "plus_code": {"compound_code": "644Q+J7 Griñón, Spain", "global_code": "8CGR644Q+J7"}, "rating": 3.6, "reference": "ChIJdV90HwHzQQ0RbOJpvUzbDYM", "scope": "GOOGLE", "types": ["gas_station", "point_of_interest", "establishment"], "user_ratings_total": 160, "vicinity": "Carretera de Navalcarnero a Chinchón Km 18.800, Griñón"}, {"business_status": "OPERATIONAL", "geometry": {"location": {"lat": 40.1964546, "lng": -3.8738916}, "viewport": {"northeast": {"lat": 40.1977435302915, "lng": -3.872587819708498}, "southwest": {"lat": 40.1950455697085, "lng": -3.875285780291502}}}, "icon": "https://maps.gstatic.com/mapfiles/place_api/icons/v1/png_71/gas_station-71.png", "icon_background_color": "#909CE1", "icon_mask_base_uri": "https://maps.gstatic.com/mapfiles/place_api/icons/v2/gas_pinlet", "name": "ENERGY", "place_id": "ChIJoWG-71DyQQ0RDEqmjYRzGDY", "plus_code": {"compound_code": "54WG+HC Serranillos del Valle, Spain", "global_code": "8CGR54WG+HC"}, "rating": 4, "reference": "ChIJoWG-71DyQQ0RDEqmjYRzGDY", "scope": "GOOGLE", "types": ["gas_station", "point_of_interest", "establishment"], "user_ratings_total": 3, "vicinity": "Spain"}, {"business_status": "OPERATIONAL", "geometry": {"location": {"lat": 40.2064956, "lng": -3.861863099999999}, "viewport": {"northeast": {"lat": 40.2078441302915, "lng": -3.860515319708497}, "southwest": {"lat": 40.2051461697085, "lng": -3.863213280291502}}}, "icon": "https://maps.gstatic.com/mapfiles/place_api/icons/v1/png_71/gas_station-71.png", "icon_background_color": "#909CE1", "icon_mask_base_uri": "https://maps.gstatic.com/mapfiles/place_api/icons/v2/gas_pinlet", "name": "CEPSA", "place_id": "ChIJK3kAHwHzQQ0ROA01wzdMJMM", "plus_code": {"compound_code": "644Q+H7 Griñón, Spain", "global_code": "8CGR644Q+H7"}, "reference": "ChIJK3kAHwHzQQ0ROA01wzdMJMM", "scope": "GOOGLE", "types": ["gas_station", "point_of_interest", "establishment"], "vicinity": "Spain"}, {"business_status": "OPERATIONAL", "geometry": {"location": {"lat": 40.2065455, "lng": -3.8617454}, "viewport": {"northeast": {"lat": 40.2078642802915, "lng": -3.860475619708498}, "southwest": {"lat": 40.2051663197085, "lng": -3.863173580291502}}}, "icon": "https://maps.gstatic.com/mapfiles/place_api/icons/v1/png_71/gas_station-71.png", "icon_background_color": "#909CE1", "icon_mask_base_uri": "https://maps.gstatic.com/mapfiles/place_api/icons/v2/gas_pinlet", "name": "Depaso", "place_id": "ChIJ8RBlHwHzQQ0R6FZJsdczJhI", "plus_code": {"compound_code": "644Q+J8 Griñón, Spain", "global_code": "8CGR644Q+J8"}, "reference": "ChIJ8RBlHwHzQQ0R6FZJsdczJhI", "scope": "GOOGLE", "types": ["gas_station", "point_of_interest", "establishment"], "vicinity": "Spain"}]