[{"business_status": "OPERATIONAL", "geometry": {"location": {"lat": 40.3027179, "lng": -4.441332099999999}, "viewport": {"northeast": {"lat": 40.3040371802915, "lng": -4.439982719708497}, "southwest": {"lat": 40.3013392197085, "lng": -4.442680680291502}}}, "icon": "https://maps.gstatic.com/mapfiles/place_api/icons/v1/png_71/bank-71.png", "icon_background_color": "#909CE1", "icon_mask_base_uri": "https://maps.gstatic.com/mapfiles/place_api/icons/v2/bank-intl_pinlet", "international_phone_number": "+34 616 56 98 27", "name": "BBVA - Agente Autorizado", "opening_hours": {"open_now": false}, "photos": [{"height": 720, "html_attributions": ["<a href=\"https://maps.google.com/maps/contrib/116640132785158682502\">BBVA - Agente Autorizado</a>"], "photo_reference": "AWn5SU5GSJvdk_WNXEjk4k--zYu9MPtTVNTWNFgm3NTuuD1oiHIe9zQ1xfe0p3Grh6o8ovojbp3ygPJXDcbj7CGBbpwEYhXlMrPWg_3W6HkZqnYLoRlfRTVvREQ1kgmebCcJK0qgnC45FOzbwFUgZbhgtVY9oWOIDUMLefLWa8IwBynHBCnCfQVwbGMNkhTh4_purLKUnb8oaIL9wQKT1A_SjBe_cSuc3eeObR5-ZnFGLg9h2YVewoyzGHDAXimpXgEkYyvzCUMJkuTTHks44VyjjLFW256Koby45rS-_G13Hj20XRtabiD_GbeUAl7JyynevinXip6NCg0", "width": 1280}], "place_id": "ChIJ59jGq4FLQA0RGQ6Qu7YP6zA", "plus_code": {"compound_code": "8H35+3F Cadalso de los Vidrios, Spain", "global_code": "8CGQ8H35+3F"}, "rating": 3.7, "reference": "ChIJ59jGq4FLQA0RGQ6Qu7YP6zA", "scope": "GOOGLE", "types": ["bank", "atm", "finance", "point_of_interest", "establishment"], "user_ratings_total": 19, "vicinity": "Calle Pedro Álvarez, 4, Cadalso de los Vidrios"}, {"business_status": "OPERATIONAL", "geometry": {"location": {"lat": 40.3016723, "lng": -4.440096699999999}, "viewport": {"northeast": {"lat": 40.3029835802915, "lng": -4.438745569708498}, "southwest": {"lat": 40.3002856197085, "lng": -4.441443530291503}}}, "icon": "https://maps.gstatic.com/mapfiles/place_api/icons/v1/png_71/bank-71.png", "icon_background_color": "#909CE1", "icon_mask_base_uri": "https://maps.gstatic.com/mapfiles/place_api/icons/v2/bank-intl_pinlet", "international_phone_number": "+34 918 64 10 70", "name": "Banco Santander Agentes", "opening_hours": {"open_now": false}, "photos": [{"height": 720, "html_attributions": ["<a href=\"https://maps.google.com/maps/contrib/100997371417134149076\">Banco Santander Agentes</a>"], "photo_reference": "AWn5SU5_Zz_L64FG3KbXTHVJde-zp9ak89zCPeKzazceq-Mi7pmRjiraaV9WXCQTwNA0ILWynnci34Odb3FFeJkOwc5QhBGnxjwXIC6osWftn-iUx8sRlf0PyAit6xVjQ8UGM9N7NfRe3isurV5xnk-0U9iqK9jt1xLdEBoEQyIPQ0rM3MtlLSRn52b6EJ9_p1uqHlH1H4aY618xO3f8Xfl4LMDboh_WwaLL-UnUiXiZ34H9IX4IlS-cNV9mqnhl-KZrcsp5tKOSLhdxoCIK5QGtvXYkebCFIw8INwJkpyenI96obbg-PUzcsmga7ZTZooUlROKWppkQSSM", "width": 1280}], "place_id": "ChIJx-p5lYFLQA0RtLRKdN2iRzM", "plus_code": {"compound_code": "8H25+MX Cadalso de los Vidrios, Spain", "global_code": "8CGQ8H25+MX"}, "rating": 5, "reference": "ChIJx-p5lYFLQA0RtLRKdN2iRzM", "scope": "GOOGLE", "types": ["bank", "atm", "finance", "point_of_interest", "establishment"], "user_ratings_total": 2, "vicinity": "Calle Corredera, 35, Cadalso de los Vidrios"}, {"business_status": "OPERATIONAL", "geometry": {"location": {"lat": 40.2631238, "lng": -4.468047299999999}, "viewport": {"northeast": {"lat": 40.26451563029151, "lng": -4.466654269708497}, "southwest": {"lat": 40.26181766970851, "lng": -4.469352230291502}}}, "icon": "https://maps.gstatic.com/mapfiles/place_api/icons/v1/png_71/bank-71.png", "icon_background_color": "#909CE1", "icon_mask_base_uri": "https://maps.gstatic.com/mapfiles/place_api/icons/v2/bank-intl_pinlet", "international_phone_number": "+34 918 64 26 89", "name": "Banco Santander Agentes", "opening_hours": {"open_now": false}, "photos": [{"height": 720, "html_attributions": ["<a href=\"https://maps.google.com/maps/contrib/110937926204053126688\">Banco Santander Agentes</a>"], "photo_reference": "AWn5SU6lJvwSvP-vU2w2c7mSF3EdC5Pfv-F4mf_wUB2T-ODAGp79H_BpQ6EEzhF-MfKTUlIqqLwBQTJHoJFccDE0xMXrSVymha273ZoS3VYhEQuAXNyRiegsYbuccNrKWG7yhclsx5Cs735m3Z_D4lN50Zcj_3L8y4p4UyB0T4AHACvdjMzpVeNJW2MoNdmGDjlF8pK9uxkFX_0TJDa8U-pLtxbnMj1g9AvgttOay6HfbtbIUm1dsmrDUr5ajwRWN_Wbq1Gw480wDvTzZd4f6dZIvwwAtFjvqz620K5KurqNvB9aYR6F2Go7K9PpQarVEKlTSQfcKCSibd0", "width": 1280}], "place_id": "ChIJwSsnzzJKQA0RKO2Dwwq6kGA", "plus_code": {"compound_code": "7G7J+6Q Cenicientos, Spain", "global_code": "8CGQ7G7J+6Q"}, "reference": "ChIJwSsnzzJKQA0RKO2Dwwq6kGA", "scope": "GOOGLE", "types": ["bank", "atm", "finance", "point_of_interest", "establishment"], "vicinity": "PZ DE LA, Plaza de la Constitución, 21, Cenicientos"}, {"business_status": "OPERATIONAL", "geometry": {"location": {"lat": 40.3100883, "lng": -4.49271}, "viewport": {"northeast": {"lat": 40.3114338802915, "lng": -4.491342919708498}, "southwest": {"lat": 40.3087359197085, "lng": -4.494040880291503}}}, "icon": "https://maps.gstatic.com/mapfiles/place_api/icons/v1/png_71/atm-71.png", "icon_background_color": "#909CE1", "icon_mask_base_uri": "https://maps.gstatic.com/mapfiles/place_api/icons/v2/atm_pinlet", "international_phone_number": "+34 900 404 090", "name": "ATM CaixaBank - Cajero", "opening_hours": {"open_now": true}, "photos": [{"height": 900, "html_attributions": ["<a href=\"https://maps.google.com/maps/contrib/103162862266285993996\">ATM CaixaBank - Cajero</a>"], "photo_reference": "AWn5SU4y4mlwihBQG8xiNXYS0lHNU9XSdAmXja04yL5XniuJDksECJLJbJyUpvrTfNhwsNK22RDZ-hS1eetfm_Ka5p89znFVr-QEu5Z2F1qb3h--lx1t7x4lKdo3Oczzq7Dga8vUNpPoG3C0dHmVMznuh4OlCNLPGeBw3zj6ZBDsMdd4hfqDm_0IOersOIUHNt54j-DqTLGJDMa7o5q6AwSN1qo6JTQ1aA1vzKbO8kwxRXXxAU4KY2vpMO2oH7bkOfXCbYLGCGnbf53eXhSkOtK1UHFCzrb8yWGheyZIOhnR3IXqNAZ7dMUwow86dn7isu_hEE_o6R5JeL8", "width": 1600}], "place_id": "ChIJpeJZpaZPQA0Ru0bYhUqReU4", "plus_code": {"compound_code": "8G64+2W Rozas de Puerto Real, Spain", "global_code": "8CGQ8G64+2W"}, "reference": "ChIJpeJZpaZPQA0Ru0bYhUqReU4", "scope": "GOOGLE", "types": ["atm", "finance", "point_of_interest", "establishment"], "vicinity": "Calle de la Moraleja, 11, Rozas de Puerto Real"}, {"business_status": "OPERATIONAL", "geometry": {"location": {"lat": 40.301853, "lng": -4.441311}, "viewport": {"northeast": {"lat": 40.3031661302915, "lng": -4.439903119708497}, "southwest": {"lat": 40.3004681697085, "lng": -4.442601080291502}}}, "icon": "https://maps.gstatic.com/mapfiles/place_api/icons/v1/png_71/atm-71.png", "icon_background_color": "#909CE1", "icon_mask_base_uri": "https://maps.gstatic.com/mapfiles/place_api/icons/v2/atm_pinlet", "international_phone_number": "+34 900 404 090", "name": "ATM CaixaBank - Cajero", "opening_hours": {"open_now": true}, "photos": [{"height": 681, "html_attributions": ["<a href=\"https://maps.google.com/maps/contrib/114169282350633954294\">ATM CaixaBank - Cajero</a>"], "photo_reference": "AWn5SU7qRVRk9MuuJsGysQw8DelEw04MLp78No3iQItWl02nekWxOUwNb-L9vMXv7W5XeL4K8joeetvOzZ0Btuoq5B6zeWMPp6ms8kB1Y-9XozOiqW2Iwlmy_Dl7Ta-wvTjvjOO0DR_mbgGIsImwIL2geTfiKZCK9JUg2kyZf6ZlL_9jT9wHXIHGY79nPDUcpRnpne7_7unPj5FgLSYusEvysuYOriMfZuP3R1PemVyWkwK9mXWs6nIX91v1I5TuTiAP0osfxKXFTATs5R2DAKIcH9PNfnGfp51eD_5SEoXcjJIxOQwaYusNhIm9aTIZ6F9sCM_FSzT3Qxg", "width": 1024}], "place_id": "ChIJk9CyPwNLQA0RrFn_AEm73hA", "plus_code": {"compound_code": "8H25+PF Cadalso de los Vidrios, Spain", "global_code": "8CGQ8H25+PF"}, "reference": "ChIJk9CyPwNLQA0RrFn_AEm73hA", "scope": "GOOGLE", "types": ["atm", "finance", "point_of_interest", "establishment"], "vicinity": "Calle Real, 30, Cadalso de los Vidrios"}, {"business_status": "OPERATIONAL", "geometry": {"location": {"lat": 40.3016723, "lng": -4.440096699999999}, "viewport": {"northeast": {"lat": 40.3029835802915, "lng": -4.438745569708498}, "southwest": {"lat": 40.3002856197085, "lng": -4.441443530291503}}}, "icon": "https://maps.gstatic.com/mapfiles/place_api/icons/v1/png_71/atm-71.png", "icon_background_color": "#909CE1", "icon_mask_base_uri": "https://maps.gstatic.com/mapfiles/place_api/icons/v2/atm_pinlet", "international_phone_number": "+34 912 73 70 06", "name": "Cajero Automático Banco Santander", "opening_hours": {"open_now": true}, "place_id": "ChIJpadPlYFLQA0RV-6n3gCc2_g", "plus_code": {"compound_code": "8H25+MX Cadalso de los Vidrios, Spain", "global_code": "8CGQ8H25+MX"}, "reference": "ChIJpadPlYFLQA0RV-6n3gCc2_g", "scope": "GOOGLE", "types": ["atm", "finance", "point_of_interest", "establishment"], "vicinity": "Plaza de la Corredera, 35, Cadalso de los Vidrios"}, {"business_status": "OPERATIONAL", "geometry": {"location": {"lat": 40.265224, "lng": -4.46826}, "viewport": {"northeast": {"lat": 40.26651538029151, "lng": -4.466785019708498}, "southwest": {"lat": 40.26381741970851, "lng": -4.469482980291502}}}, "icon": "https://maps.gstatic.com/mapfiles/place_api/icons/v1/png_71/atm-71.png", "icon_background_color": "#909CE1", "icon_mask_base_uri": "https://maps.gstatic.com/mapfiles/place_api/icons/v2/atm_pinlet", "international_phone_number": "+34 900 404 090", "name": "ATM CaixaBank - Cajero", "opening_hours": {"open_now": true}, "photos": [{"height": 681, "html_attributions": ["<a href=\"https://maps.google.com/maps/contrib/103411194258005662118\">ATM CaixaBank - Cajero</a>"], "photo_reference": "AWn5SU4H4CeRJGOUdj3gtZOYXtwCpjewnjCFTxsbvu61oHq2EzQ74kTshEWXtVqaGwN-yNvG7xXzxF1sQ2ZXPZpD9hpCZ23FfjYi8GuAaHyt6QYWrxFhrIscLScvJW7sAEWInNFLGqcpzcqTF6BLKzDAZgwvpTL7PnqXvBkUMvf0Q_WDpds6PvYDXEi82Gwiu83LzWa9j39BtM_a8bEELVUfnAn7TiIy4eSLiuCbcog2ctoUGvu-0QWGqDJMa0o4NWYwnB50flkvQzhNZp2lE21Uzmw2qSmdnFqgFJadCNEA-mO-BUsWDlCnbTB9EqhiZv8y2JZ_-8k-XHE", "width": 1024}], "place_id": "ChIJqdrS-KBLQA0Rt6od9yDWbfU", "plus_code": {"compound_code": "7G8J+3M Cenicientos, Spain", "global_code": "8CGQ7G8J+3M"}, "reference": "ChIJqdrS-KBLQA0Rt6od9yDWbfU", "scope": "GOOGLE", "types": ["atm", "finance", "point_of_interest", "establishment"], "vicinity": "Plaza de España, 6, Cenicientos"}, {"business_status": "OPERATIONAL", "geometry": {"location": {"lat": 40.2649322, "lng": -4.465471200000001}, "viewport": {"northeast": {"lat": 40.2662259302915, "lng": -4.464152319708497}, "southwest": {"lat": 40.2635279697085, "lng": -4.466850280291502}}}, "icon": "https://maps.gstatic.com/mapfiles/place_api/icons/v1/png_71/generic_business-71.png", "icon_background_color": "#7B9EB0", "icon_mask_base_uri": "https://maps.gstatic.com/mapfiles/place_api/icons/v2/generic_pinlet", "international_phone_number": "+34 912 51 85 65", "name": "Eurocaja Rural", "opening_hours": {"open_now": false}, "photos": [{"height": 400, "html_attributions": ["<a href=\"https://maps.google.com/maps/contrib/101010194002117608993\">Eurocaja Rural</a>"], "photo_reference": "AWn5SU4VH3QWuzcWueXividvLNshMcA4xDo6Y1lJWBf32lgqiiz0QcIOFVwE34_JfW1e3m69xFasB33Mw38I2_UcXuhfa7A4roTTJEDceAlBwc_2Q582vGhPtTL5gw7NkVeeVxHRgosS4PH3Ao-VhUKnH6kSAgvaImV93YLyHYVOmFAtCwooNlE2gH30jTdOqrKggHrVLC1-2HxIvRQEQqEfsRrZTMDfNG42Suo0nDtEu-l_iHEAPdd8KEMyFSvRP3FG4FW0bZ8ib7iOFAGilSS_BErg6YTyIeqrNX3vTJRfttXkBHTRELm4DEz3WzgvXBRJuqMtwrX2S7c", "width": 400}], "place_id": "ChIJRZbgYYVLQA0RPZe7SJszjY0", "plus_code": {"compound_code": "7G7M+XR Cenicientos, Spain", "global_code": "8CGQ7G7M+XR"}, "reference": "ChIJRZbgYYVLQA0RPZe7SJszjY0", "scope": "GOOGLE", "types": ["atm", "bank", "finance", "point_of_interest", "establishment"], "vicinity": "Avenida de Madrid, 39, Cenicientos"}]