[{"geometry": {"location": {"lat": 40.857568, "lng": -3.7092432}, "viewport": {"northeast": {"lat": 40.86214993542972, "lng": -3.702644440964288}, "southwest": {"lat": 40.85426266400143, "lng": -3.721959776411381}}}, "icon": "https://maps.gstatic.com/mapfiles/place_api/icons/v1/png_71/geocode-71.png", "icon_background_color": "#7B9EB0", "icon_mask_base_uri": "https://maps.gstatic.com/mapfiles/place_api/icons/v2/generic_pinlet", "name": "Bustarviejo", "photos": [{"height": 2250, "html_attributions": ["<a href=\"https://maps.google.com/maps/contrib/115403962586954963475\">DaniEle</a>"], "photo_reference": "AWn5SU5YbEgGcZvGA5UvJWIAG2Uc8xQq8cJpg7m5vwmtRRslf9iTVPC5Z5IGANeOqFXOZziT-AeAKIvMBa5ZSdZGPJwTGNCeIPy9kk-Sa7TAVWJ3T-BbJggK944IO5wybDXv5bYqKdFlMhJ6s0_Io7Mdj-sTE7dkArc7AgLySAghFFvr5rhJ_BFZjgC9EjFeBkuubJsvlqiZaZk8DcxaYOFh3tMIy0YSeLKr71Xq0BzBfQvaWdwn170weGbEyLO2Yzv8GoO6QTd-9k8Y-_W4EFqCuQ6lFyHnW0EUFDyph2AD8OTa13wOZqrAmWsbJn_pBh6sMC2Y25JhPkvYabwO11vGoS9PQwSVCLew3CwEGn2j1n0rulgocaPP6SzW2GvHp1jjXiVrvOGnNsvc9ok_-SdJJAc2Z3nROpfVsPA-YydMoW9cfpA6LW0EHaAfZr_MWXbFZFG_IW9i2mmi3zvHBrJJI5UBkz1Jx3Bk_fwdy0eNcgdY2rhwHzNR1cBLNU0-gJK4Y2WrLAP_M2f4CdDEJKORg-l8yeYHWuxAIMOP7zhEyintQ6UkzhwJboCkwXuJkuQQirkwhuXjO-MzG7lvylVDVt-xx7ZFcte1Gwm6SAzgqh5M3IbAMOHC54QColwSnnsdioY6dg", "width": 4000}], "place_id": "ChIJc7xF8AffQw0RAPcmtC4ZyE0", "reference": "ChIJc7xF8AffQw0RAPcmtC4ZyE0", "scope": "GOOGLE", "types": ["locality", "political"], "vicinity": "Bustarviejo"}, {"business_status": "OPERATIONAL", "geometry": {"location": {"lat": 40.8576477, "lng": -3.7106866}, "viewport": {"northeast": {"lat": 40.8590130802915, "lng": -3.709317469708497}, "southwest": {"lat": 40.8563151197085, "lng": -3.712015430291502}}}, "icon": "https://maps.gstatic.com/mapfiles/place_api/icons/v1/png_71/generic_business-71.png", "icon_background_color": "#7B9EB0", "icon_mask_base_uri": "https://maps.gstatic.com/mapfiles/place_api/icons/v2/generic_pinlet", "international_phone_number": "+34 918 48 20 19", "name": "Alfer Gestión", "opening_hours": {"open_now": false}, "photos": [{"height": 1080, "html_attributions": ["<a href=\"https://maps.google.com/maps/contrib/108923877901860821581\">Alfer Gestión</a>"], "photo_reference": "AWn5SU4X2rBmJeo8vLrBHO0Fc4Bvb-heyA3wm-8KgMaNJfEUPx5RcYUGfCujAVpZeNhF8ghj2-1qk26D7UJPhMmw14EWxfhau0keA7AtnKwizAF_YEnB63AIYuJQwtXG8DORMF0oHISoMYullMjaoqpqRBWiZQhXdn9yjvDtyw5xiKp_fK8AQJRoEvA4TJEuqmWucaDtR0VLxzPof92PI6TKhiMaC0lpcW2jKH7SgvNUxXtk44qnjcL11WREL5H4qEO-GF1ky2LtQoy6lr56l-moweqgsNvf3UgOexCjRSlFdXcii4_tye77G4qutmLfHPxpyhJtFo7Q1xc", "width": 1920}], "place_id": "ChIJLQ2vbgffQw0Rl8tWxfQDtIg", "plus_code": {"compound_code": "V75Q+3P Bustarviejo, Spain", "global_code": "8CGRV75Q+3P"}, "rating": 4.4, "reference": "ChIJLQ2vbgffQw0Rl8tWxfQDtIg", "scope": "GOOGLE", "types": ["finance", "point_of_interest", "establishment"], "user_ratings_total": 16, "vicinity": "Calle del Cerrillo, 8, Bustarviejo"}, {"business_status": "OPERATIONAL", "geometry": {"location": {"lat": 40.8584501, "lng": -3.7046349}, "viewport": {"northeast": {"lat": 40.8598164302915, "lng": -3.703357719708497}, "southwest": {"lat": 40.85711846970851, "lng": -3.706055680291501}}}, "icon": "https://maps.gstatic.com/mapfiles/place_api/icons/v1/png_71/generic_business-71.png", "icon_background_color": "#7B9EB0", "icon_mask_base_uri": "https://maps.gstatic.com/mapfiles/place_api/icons/v2/generic_pinlet", "international_phone_number": "+34 660 84 06 62", "name": "apitecnic.com", "photos": [{"height": 449, "html_attributions": ["<a href=\"https://maps.google.com/maps/contrib/108979025022864916262\">Alberto Castro Sotos.</a>"], "photo_reference": "AWn5SU7Pnugaxmzy_uUMI06Z39yw4ZBOzD30LBL3JQeRkss3fuMloLVWilpcaVQlxnTE7QsCJB5c7ztySVJVKz6EhtL2b38EsI8nwvrTjAbPanJWKq9eMImOr0bCjpohEiKI3vfO-c3nO37JxWF4i3n6vedKxqyyyhDJuJmpBNilE8-plKfU_q2ktoLPPc9EsrMoyHtacXzdXZsYHwlYX1lT8teXqii5y_M4jcSipiSvnUBQtMO0J1UnYxiCDW6UPiVVsiOubtuk5dER6PCC2mG-O2KGtRAznDXcCD5Nse7zzUaDBwtDPRzH0rPZL6czmOQSsqAgSDVKeavnntgMAHS7nsEuLA4REUANe_1ziQu4q4a5ZXlSThQSeXs6WnxJMykJMLtvndo-xHXDx0hG5CUo5PGoONarq3sNu3CBb52FFUl2UbXh3NfZPIjzximK1wuwgGAgm3zc3YmR3XSm_pMfnadSLPX30CHiaGEZ5lJOxIv8Hpulx_Equ7xkfQpoiV2LQHUoXeHcWAJ3Ldvb-ZyVTWTyOb_yAD5AdsnYPfXCi2tmtM0vk7q5HokSb4i8VjDdYeumdjeomMKWCMIP1Suz0_qlGti_hK4nS_WdRxB9YjxBWxRBp6wSvLuzuW86Xph7FMH1gvAD_nF7eb4tBr-wpA", "width": 688}], "place_id": "ChIJ4SqYH2PeQw0RWHRiGptaLJk", "plus_code": {"compound_code": "V75W+94 Bustarviejo, Spain", "global_code": "8CGRV75W+94"}, "reference": "ChIJ4SqYH2PeQw0RWHRiGptaLJk", "scope": "GOOGLE", "types": ["point_of_interest", "establishment"], "vicinity": "Calle de Maruste, 18, Bustarviejo"}, {"business_status": "OPERATIONAL", "geometry": {"location": {"lat": 40.85921079999999, "lng": -3.7064236}, "viewport": {"northeast": {"lat": 40.8605465302915, "lng": -3.705070069708498}, "southwest": {"lat": 40.8578485697085, "lng": -3.707768030291502}}}, "icon": "https://maps.gstatic.com/mapfiles/place_api/icons/v1/png_71/civic_building-71.png", "icon_background_color": "#7B9EB0", "icon_mask_base_uri": "https://maps.gstatic.com/mapfiles/place_api/icons/v2/civic-bldg_pinlet", "international_phone_number": "+34 918 48 29 45", "name": "Oficina de Correos", "opening_hours": {"open_now": false}, "photos": [{"height": 900, "html_attributions": ["<a href=\"https://maps.google.com/maps/contrib/115227705259717840606\">Oficina de Correos</a>"], "photo_reference": "AWn5SU7h3nn1Vi6bhpUaXVCDWxVYTcqigp5Q-clt8qgpWy8tLMGfLS1gaX4RNbbA6jRGjKQJ2yXOKD-ZsBXJa_7xeoK27oHv6vS7D6RW1qQWGTZuozXWOh82FtdSy7w0wXOBx3HrIWdSyVySPaUp4e-ByAAjRIINyouM4r9OsZhU4nAEndtY0-kdpniB2RCKGCGaKtZVB40qNGb7SXRtfdPfI6Z8f4tpUxqAfy1xdbhI77BEhjQgZNWhXPn9duPYjRs6UDCaq-WUVJm5r15GfxEc-6VkgjqWgNS67N8eRvvHxk1jnabPInc16CAjeHdK0WJOOA-Mt7VwLII", "width": 1600}], "place_id": "ChIJ3-MmC6rfQw0Ru6qqPzKPGJE", "plus_code": {"compound_code": "V75V+MC Bustarviejo, Spain", "global_code": "8CGRV75V+MC"}, "rating": 2.6, "reference": "ChIJ3-MmC6rfQw0Ru6qqPzKPGJE", "scope": "GOOGLE", "types": ["post_office", "finance", "point_of_interest", "establishment"], "user_ratings_total": 28, "vicinity": "Calle Real, 85, Bustarviejo"}, {"business_status": "OPERATIONAL", "geometry": {"location": {"lat": 40.8589884, "lng": -3.7075789}, "viewport": {"northeast": {"lat": 40.8602965802915, "lng": -3.706205269708498}, "southwest": {"lat": 40.8575986197085, "lng": -3.708903230291503}}}, "icon": "https://maps.gstatic.com/mapfiles/place_api/icons/v1/png_71/generic_business-71.png", "icon_background_color": "#13B5C7", "icon_mask_base_uri": "https://maps.gstatic.com/mapfiles/place_api/icons/v2/generic_pinlet", "international_phone_number": "+34 652 88 46 18", "name": "Teatro Percutor", "place_id": "ChIJqy0PqgDfQw0RSECxdPpQZzY", "plus_code": {"compound_code": "V75R+HX Bustarviejo, Spain", "global_code": "8CGRV75R+HX"}, "rating": 3.3, "reference": "ChIJqy0PqgDfQw0RSECxdPpQZzY", "scope": "GOOGLE", "types": ["point_of_interest", "establishment"], "user_ratings_total": 3, "vicinity": "Calle Real, 67, Bustarviejo"}, {"business_status": "OPERATIONAL", "geometry": {"location": {"lat": 40.858747, "lng": -3.7068368}, "viewport": {"northeast": {"lat": 40.8601107302915, "lng": -3.705503169708498}, "southwest": {"lat": 40.8574127697085, "lng": -3.708201130291503}}}, "icon": "https://maps.gstatic.com/mapfiles/place_api/icons/v1/png_71/generic_business-71.png", "icon_background_color": "#7B9EB0", "icon_mask_base_uri": "https://maps.gstatic.com/mapfiles/place_api/icons/v2/generic_pinlet", "international_phone_number": "+34 663 32 77 86", "name": "Limpiezas Bustar S L", "opening_hours": {"open_now": false}, "photos": [{"height": 540, "html_attributions": ["<a href=\"https://maps.google.com/maps/contrib/113208247255369710683\">Limpiezas Bustar S L</a>"], "photo_reference": "AWn5SU6Yg34v-wHgHXmwP9idEDMUMel0Jf_2LoSh0raPOqrQv8HSVYoCn7rDSw-IQ-W1FFdz4c4ji-SBgOfLYb_mwLzimNhh_kZScqRNq_CBuOlLbVhD1L9noGn5dP0VW7f1QrU_oL6B-xIupWgZY1KO-Lz_gasE1D8-S6u_J-9PtOEeh_s5HvYyVtM85ZSPe-Lt62Hu1jPB7wqb3o8Pb6lrqmJ4G_d0PuykPuJZS74ayGMm99s9uTyAdEM_chDzq4p-a8tCGdi1J2f6BpVi0FYnbuIAbv76TzZXzRp74QC_kJK1WFj86xqHDmsbzS71hnVvr1p0S_1njeA", "width": 720}], "place_id": "ChIJwa37TAffQw0RdQrpZd8qZfc", "plus_code": {"compound_code": "V75V+F7 Bustarviejo, Spain", "global_code": "8CGRV75V+F7"}, "rating": 4.6, "reference": "ChIJwa37TAffQw0RdQrpZd8qZfc", "scope": "GOOGLE", "types": ["point_of_interest", "establishment"], "user_ratings_total": 20, "vicinity": "Calle Mayor, 112, Bustarviejo"}, {"business_status": "OPERATIONAL", "geometry": {"location": {"lat": 40.8582129, "lng": -3.712914599999999}, "viewport": {"northeast": {"lat": 40.8595645302915, "lng": -3.711568569708497}, "southwest": {"lat": 40.8568665697085, "lng": -3.714266530291502}}}, "icon": "https://maps.gstatic.com/mapfiles/place_api/icons/v1/png_71/generic_business-71.png", "icon_background_color": "#7B9EB0", "icon_mask_base_uri": "https://maps.gstatic.com/mapfiles/place_api/icons/v2/generic_pinlet", "international_phone_number": "+34 649 41 17 48", "name": "INGARPE", "place_id": "ChIJ8zTQBwjfQw0RJ4YU1o1ROfY", "plus_code": {"compound_code": "V75P+7R Bustarviejo, Spain", "global_code": "8CGRV75P+7R"}, "rating": 5, "reference": "ChIJ8zTQBwjfQw0RJ4YU1o1ROfY", "scope": "GOOGLE", "types": ["point_of_interest", "establishment"], "user_ratings_total": 1, "vicinity": "Calle de Peña Culebras, 6, Bustarviejo"}, {"business_status": "OPERATIONAL", "geometry": {"location": {"lat": 40.857211, "lng": -3.707575}, "viewport": {"northeast": {"lat": 40.85857473029151, "lng": -3.706215869708498}, "southwest": {"lat": 40.85587676970851, "lng": -3.708913830291503}}}, "icon": "https://maps.gstatic.com/mapfiles/place_api/icons/v1/png_71/generic_business-71.png", "icon_background_color": "#7B9EB0", "icon_mask_base_uri": "https://maps.gstatic.com/mapfiles/place_api/icons/v2/generic_pinlet", "international_phone_number": "+34 918 48 20 04", "name": "Parque infantil", "opening_hours": {"open_now": true}, "place_id": "ChIJfUbrzgDfQw0RPzx9GOTA4NY", "plus_code": {"compound_code": "V74R+VX Bustarviejo, Spain", "global_code": "8CGRV74R+VX"}, "rating": 3, "reference": "ChIJfUbrzgDfQw0RPzx9GOTA4NY", "scope": "GOOGLE", "types": ["point_of_interest", "establishment"], "user_ratings_total": 4, "vicinity": "Calle Madrid, s/n"}, {"business_status": "OPERATIONAL", "geometry": {"location": {"lat": 40.8572707, "lng": -3.7164586}, "viewport": {"northeast": {"lat": 40.8585722302915, "lng": -3.715125869708499}, "southwest": {"lat": 40.8558742697085, "lng": -3.717823830291503}}}, "icon": "https://maps.gstatic.com/mapfiles/place_api/icons/v1/png_71/generic_business-71.png", "icon_background_color": "#7B9EB0", "icon_mask_base_uri": "https://maps.gstatic.com/mapfiles/place_api/icons/v2/generic_pinlet", "international_phone_number": "+34 617 41 89 58", "name": "Diego Rey Rodríguez", "place_id": "ChIJ_Y5FvwnfQw0RARXNofUvR70", "plus_code": {"compound_code": "V74M+WC Bustarviejo, Spain", "global_code": "8CGRV74M+WC"}, "rating": 4.2, "reference": "ChIJ_Y5FvwnfQw0RARXNofUvR70", "scope": "GOOGLE", "types": ["electrician", "point_of_interest", "establishment"], "user_ratings_total": 5, "vicinity": "Lugar Arroyo Flores, 10, Bustarviejo"}, {"business_status": "OPERATIONAL", "geometry": {"location": {"lat": 40.85836279999999, "lng": -3.710380199999999}, "viewport": {"northeast": {"lat": 40.8597124802915, "lng": -3.709047869708497}, "southwest": {"lat": 40.8570145197085, "lng": -3.711745830291501}}}, "icon": "https://maps.gstatic.com/mapfiles/place_api/icons/v1/png_71/shopping-71.png", "icon_background_color": "#4B96F3", "icon_mask_base_uri": "https://maps.gstatic.com/mapfiles/place_api/icons/v2/shopping_pinlet", "international_phone_number": "+34 676 60 76 21", "name": "Pescadería Canoa", "opening_hours": {"open_now": false}, "photos": [{"height": 2268, "html_attributions": ["<a href=\"https://maps.google.com/maps/contrib/116685882879737492622\">Pescadería Canoa</a>"], "photo_reference": "AWn5SU6xRk83sSsYx_VLgobYzzjbKL7xFYmEIcXIey2I5fu1SNl8QkK7rcJNbaqekE8zqbEaHG_fG1DR_zg9jw4quyGmEtTd2gA1dteL9l2gXLCAc8U0yoI8AR35fhFiAucS-1mmWRvPe9g14o6hQqzTFVMb3xFJs81Ew8ciUhmaKHYmm9vwoTZPHo6VvgyleMlep43csBe78pW7PTN6liJ8k4Rd5fSVRuQIbTW8Tscuf_RJZlQNsC7lesUHS6rC5DuH7vg1XOIstvcjyWqm2-tyBFp4Mo5b45hLiDbJ0rz20U75umO7cb_9xXwKRSgSJdd2EcJwecM12_g", "width": 4032}], "place_id": "ChIJMbD7eAffQw0Rm3VjmtgIK-U", "plus_code": {"compound_code": "V75Q+8R Bustarviejo, Spain", "global_code": "8CGRV75Q+8R"}, "rating": 4.5, "reference": "ChIJMbD7eAffQw0Rm3VjmtgIK-U", "scope": "GOOGLE", "types": ["food", "point_of_interest", "store", "establishment"], "user_ratings_total": 50, "vicinity": "Calle de la Lechuga, 12, Bustarviejo"}, {"business_status": "OPERATIONAL", "geometry": {"location": {"lat": 40.85807759999999, "lng": -3.7105076}, "viewport": {"northeast": {"lat": 40.8594309302915, "lng": -3.709160519708498}, "southwest": {"lat": 40.8567329697085, "lng": -3.711858480291502}}}, "icon": "https://maps.gstatic.com/mapfiles/place_api/icons/v1/png_71/shopping-71.png", "icon_background_color": "#4B96F3", "icon_mask_base_uri": "https://maps.gstatic.com/mapfiles/place_api/icons/v2/shoppingcart_pinlet", "international_phone_number": "+34 918 48 23 54", "name": "Supermercado Alcampo Bustarviejo", "opening_hours": {"open_now": false}, "photos": [{"height": 2988, "html_attributions": ["<a href=\"https://maps.google.com/maps/contrib/116612165120512023962\">felix jr 46</a>"], "photo_reference": "AWn5SU5dVvwbfd0zRNUwR3kgM0dTrSvN_kFi9s992RDT_UHjv0pkiAqZAhE0bQboyPBeCMThgRouPdlYz8cvFV-5bdU-YqgkjGKqS6wZuYJrGX3APv_ASh3iUV6WEjsDyAGpgT0T5SUwakkFwhPoY_poN3hi_2tbbQg9DSgflrEhh_A2_Wd3mHIyGy4sSMtCuihPumw8wfwy8Gxo3fYkZc-sYwxXOb6hyUq6pMu-_kwzm4rBMXoFPO43zLhtV-HYhDOMrEpykPYIuGslUOGvJSEW_mxt1bBtpfraxZrd5u2jd8aQvlJKx3X5_5w0HFcaEQL9tvsSFUKImkw53PXrtzetASdi2pHXEPpQZ0bchGFoLd6GIi_gHo9WWocczJxHGHlZeYsVbl0rrHnqACuWyTJZwfYSpkjFWSGbTNoi-NU9iQg90_14TnGlkAGTPcYP4wsIEC4ultEp1KOKIOEpfvxeZQTMTlojtWlQDz0_xK2g2-7aV3MAAg-0mTt1ReDgNqRQuRX_aVPGOAYx4I2J0lmpfxg2VXeK7m0A4Ju9qxLXtpIzOaXcOEGjbrzeaPGgobPE7LuaiiuoFmBStZaEZgiMEGypvr9YOvuCIRq3eflTxKBakIsx8DAx89YIm36FhoTDmH6mYA", "width": 5312}], "place_id": "ChIJI9-cdwffQw0RCsCp-voaA_c", "plus_code": {"compound_code": "V75Q+6Q Bustarviejo, Spain", "global_code": "8CGRV75Q+6Q"}, "rating": 4.4, "reference": "ChIJI9-cdwffQw0RCsCp-voaA_c", "scope": "GOOGLE", "types": ["supermarket", "meal_delivery", "grocery_or_supermarket", "food", "point_of_interest", "store", "establishment"], "user_ratings_total": 116, "vicinity": "Calle Real, 13, Bustarviejo"}, {"business_status": "OPERATIONAL", "geometry": {"location": {"lat": 40.85753889999999, "lng": -3.7092308}, "viewport": {"northeast": {"lat": 40.8588758802915, "lng": -3.707877919708497}, "southwest": {"lat": 40.85617791970851, "lng": -3.710575880291502}}}, "icon": "https://maps.gstatic.com/mapfiles/place_api/icons/v1/png_71/generic_business-71.png", "icon_background_color": "#7B9EB0", "icon_mask_base_uri": "https://maps.gstatic.com/mapfiles/place_api/icons/v2/generic_pinlet", "international_phone_number": "+34 696 59 71 56", "name": "Apiterapia", "place_id": "ChIJAQAAQAffQw0RxX7XOnajalg", "plus_code": {"compound_code": "V75R+28 Bustarviejo, Spain", "global_code": "8CGRV75R+28"}, "reference": "ChIJAQAAQAffQw0RxX7XOnajalg", "scope": "GOOGLE", "types": ["point_of_interest", "health", "establishment"], "vicinity": "Calle Requebradero, 6, Bustarviejo"}, {"business_status": "OPERATIONAL", "geometry": {"location": {"lat": 40.8575524, "lng": -3.709154300000001}, "viewport": {"northeast": {"lat": 40.8588898802915, "lng": -3.707801619708498}, "southwest": {"lat": 40.8561919197085, "lng": -3.710499580291502}}}, "icon": "https://maps.gstatic.com/mapfiles/place_api/icons/v1/png_71/civic_building-71.png", "icon_background_color": "#7B9EB0", "icon_mask_base_uri": "https://maps.gstatic.com/mapfiles/place_api/icons/v2/civic-bldg_pinlet", "international_phone_number": "+34 687 51 08 22", "name": "Cosas de abejas", "opening_hours": {"open_now": false}, "photos": [{"height": 608, "html_attributions": ["<a href=\"https://maps.google.com/maps/contrib/114318805457702201645\">www.cosasdeabejas.es</a>"], "photo_reference": "AWn5SU6OlIhF4IHYLyI_XYxKQahcxvCU0uIbtN1EgJjIzbuJ2QOBC9N8e9r_ST4giQ5tNiRYDwcextTZe2DCdTPIFi95UlDdGAtxn5iexMsvFe9MR8ZEffE4sKSOP27WoJt1IAT5MYr03oWUS19p49OHmbhCkX0lfizCj7Pvak1iWapmu-Y1tjC96UvJ00rFnLDRai9cxINTwODg3QJcYF16vozLKXm0xVZTk0PAROfQ5ZpEDoN_FvwONvnqP7vUAGUhs89klvNV3Gg7WjubdB8FD0Zjyv_bFeufzsz8yFHC9Ef-OCnLRqEabBaUMxCw6UeTpUAZKbSsvd8", "width": 1080}], "place_id": "ChIJA0f-H5jbQw0R-JOeMY3pfHA", "plus_code": {"compound_code": "V75R+28 Bustarviejo, Spain", "global_code": "8CGRV75R+28"}, "rating": 5, "reference": "ChIJA0f-H5jbQw0R-JOeMY3pfHA", "scope": "GOOGLE", "types": ["food", "point_of_interest", "establishment"], "user_ratings_total": 56, "vicinity": "Calle Mayor, 30, Bustarviejo"}, {"business_status": "OPERATIONAL", "geometry": {"location": {"lat": 40.8572468, "lng": -3.7095585}, "viewport": {"northeast": {"lat": 40.8586302302915, "lng": -3.708230969708497}, "southwest": {"lat": 40.8559322697085, "lng": -3.710928930291502}}}, "icon": "https://maps.gstatic.com/mapfiles/place_api/icons/v1/png_71/generic_business-71.png", "icon_background_color": "#7B9EB0", "icon_mask_base_uri": "https://maps.gstatic.com/mapfiles/place_api/icons/v2/generic_pinlet", "international_phone_number": "+34 918 48 28 18", "name": "Clinica dental Dra. Karina Pérez", "opening_hours": {"open_now": false}, "photos": [{"height": 2592, "html_attributions": ["<a href=\"https://maps.google.com/maps/contrib/108467963535631945689\">Clinica dental Dra. Karina Pérez</a>"], "photo_reference": "AWn5SU7eg_49yzwtxjdsQr8YxeeF27DejOnU6ug_ogpcS88yzoECiZg4h_lenlYY6k8SFjE30l2ToPV42vM9-xpa-9OAIEUFLyZY-4M_wthhKsIXWnigLnmOb_ysUiqwWwlEKXa-iGKADyhZtKg9rUwlBqzel8JKg7tf_3Ykq0wai21VvBCWet99GQJrre7I8YV-PAUA7SU4Lombhkmx6DYjfdUc6WyDkjc4-Q3uQ3cxV2CB0jABuHNzPMMWEuSfu05iGyJntiuH1NSIF7voo6yPiKITbY55TTplpHoiV24jcDdj08P6s1t3CmrVTKDhISe7fbtubotj7Jw", "width": 3872}], "place_id": "ChIJJV3TEQffQw0RBuUB4N5MIns", "plus_code": {"compound_code": "V74R+V5 Bustarviejo, Spain", "global_code": "8CGRV74R+V5"}, "rating": 4.7, "reference": "ChIJJV3TEQffQw0RBuUB4N5MIns", "scope": "GOOGLE", "types": ["dentist", "point_of_interest", "health", "establishment"], "user_ratings_total": 68, "vicinity": "Calle Mayor, 24, Bustarviejo"}, {"business_status": "OPERATIONAL", "geometry": {"location": {"lat": 40.8571861, "lng": -3.710157999999999}, "viewport": {"northeast": {"lat": 40.85852593029149, "lng": -3.708801269708498}, "southwest": {"lat": 40.85582796970849, "lng": -3.711499230291502}}}, "icon": "https://maps.gstatic.com/mapfiles/place_api/icons/v1/png_71/generic_business-71.png", "icon_background_color": "#7B9EB0", "icon_mask_base_uri": "https://maps.gstatic.com/mapfiles/place_api/icons/v2/generic_pinlet", "international_phone_number": "+34 646 87 75 14", "name": "APARTAMENTOS NAVAMAR", "photos": [{"height": 1836, "html_attributions": ["<a href=\"https://maps.google.com/maps/contrib/116096121529882003101\">Corsario Blanco</a>"], "photo_reference": "AWn5SU7UprrF5ObvyGo1HVJwCDtIzZcfPv7SmrCQkSMgX2GdiS22h9zsF62lO52BNpB4SGGsOQL64mrRBXKgXxPy6mHaP4JsYGXFXh0c_3hYm_EcdXG8xW7Y2X0AWo1nYqxK4mpft26pY9e6o7YsCYS1btDrzYDneij3autQnCiq2kKTE2pwiaKa2zLrhdpZMmbhpuxCfW2t6mZ213FMCHuf-Oxin2eq-IOD8BfQewTmrLqfBhiqvTiy4GWxaNuSf4bRUbuc5NJHxYudDwMQE2aUPV1qN20ZkXw3VTtSZNxcyUedZ3Lu4cphgYpvtITQVW1VV58USqyYzaACDIKI5oLx2mqqn68Wz70s7kNOQuiMJ7y5FJSOiCkFw38gBFZEzzhsbiNQubiWYEtKZ-Oq1aJR7yunfPC8VuT45ku-7qKX4jtEplSrrhN40X5watHjS9o7yIVSyW4_gJofGqhEXgKEIlz9ouAXaZHmVqaVxTOKybgIr_McXBpwhZ51OwyI8kRi6WNFGcCaAv88BX3EAwA6enUkUEsv5J0-blKLgvE8RGJPnmS5IEfoZV5RHuGRQejgcJxjDmKgqPXUVR2Mze-SvLmxRhSjTwIfFHx6RUCP1nPTW2EotsK8EOTPczaD9Bd8SkyOIw", "width": 3264}], "place_id": "ChIJhe-vDgffQw0RIHu_v9YuyPw", "plus_code": {"compound_code": "V74Q+VW Bustarviejo, Spain", "global_code": "8CGRV74Q+VW"}, "rating": 4.9, "reference": "ChIJhe-vDgffQw0RIHu_v9YuyPw", "scope": "GOOGLE", "types": ["real_estate_agency", "point_of_interest", "establishment"], "user_ratings_total": 8, "vicinity": "Calle Mayor, 9, Bustarviejo"}, {"business_status": "OPERATIONAL", "geometry": {"location": {"lat": 40.85780769999999, "lng": -3.7111145}, "viewport": {"northeast": {"lat": 40.8591465302915, "lng": -3.709760719708497}, "southwest": {"lat": 40.8564485697085, "lng": -3.712458680291502}}}, "icon": "https://maps.gstatic.com/mapfiles/place_api/icons/v1/png_71/bank-71.png", "icon_background_color": "#909CE1", "icon_mask_base_uri": "https://maps.gstatic.com/mapfiles/place_api/icons/v2/bank-intl_pinlet", "international_phone_number": "+34 918 48 22 10", "name": "Banco Santander Agentes", "opening_hours": {"open_now": false}, "photos": [{"height": 288, "html_attributions": ["<a href=\"https://maps.google.com/maps/contrib/112068140682962215588\">Banco Santander Agentes</a>"], "photo_reference": "AWn5SU4E8GEHmBGgClRo4zjpZbJZZwqa-sdqzyNiXRHF-2fuGz6i-rVrk_OQwMi7OiizNJz9dvQLGBCujWC7Oz_ejjFGpssooY35pKDS3vkTlnS0YTopYuyJvEcyBHsFLffOSz9p0Pafd_scHW1saR64OmwGT1wIPeW7W1bCLSTy6AXpgK7a4-M_fG4Tjnk_3PNQy4F2nTIL_FcD4JuYCXH_m-57q5LwyqAIfpVu9FoXF0GvMDNquVXXRnh8kBi8ORVGp3AT_S1Y-ycD606U44tdt-EHKhaIOPZ4By1D36ZpWOg_khA2upMb6hcCRnVjnp_-qEBH8U2ON_4", "width": 512}], "place_id": "ChIJycNYngffQw0RbEc1vW0p0RU", "plus_code": {"compound_code": "V75Q+4H Bustarviejo, Spain", "global_code": "8CGRV75Q+4H"}, "rating": 4.5, "reference": "ChIJycNYngffQw0RbEc1vW0p0RU", "scope": "GOOGLE", "types": ["bank", "atm", "finance", "point_of_interest", "establishment"], "user_ratings_total": 11, "vicinity": "Calle del Cerrillo, 3, Bustarviejo"}, {"business_status": "OPERATIONAL", "geometry": {"location": {"lat": 40.85926300000001, "lng": -3.710215}, "viewport": {"northeast": {"lat": 40.86062323029151, "lng": -3.708829419708499}, "southwest": {"lat": 40.85792526970851, "lng": -3.711527380291503}}}, "icon": "https://maps.gstatic.com/mapfiles/place_api/icons/v1/png_71/shopping-71.png", "icon_background_color": "#4B96F3", "icon_mask_base_uri": "https://maps.gstatic.com/mapfiles/place_api/icons/v2/shopping_pinlet", "international_phone_number": "+34 918 48 39 22", "name": "Allforpets, Todo para tu mascota", "opening_hours": {"open_now": false}, "photos": [{"height": 2448, "html_attributions": ["<a href=\"https://maps.google.com/maps/contrib/113926855436320850966\">Allforpets, Todo para tu mascota</a>"], "photo_reference": "AWn5SU73KqKLLk7sK1B23nTixNxnD_oh20YNRaAlcq9RGB360FlisrtRMFe5NI_3bofRXFaPf0OVtkoK7UFx0cUQCMXT0cyxULKU-4nzXSWwF-N5zIhSK1IQjOGKzkyo4n1sAsf_OfqiHk8zrG5Yq_oAguezYujJfAOPNowhMwu5a1uKQ_jyIGI6KM89pdLjCo7VPCnTbCzK_qX89YYFtapvuDfXMAdHJTohSSRztfvvqUJuWk6Q-ZK0Izha87XOAsPNBHjMGVAk0ZIPPnGWYwy773VF04Lnv5iRnjw988BsUqBDKSd13MfaN8pKft-QmVNc_o_jYD4VdEE", "width": 3264}], "place_id": "ChIJp7050qnfQw0RIxHEWdSy9M8", "plus_code": {"compound_code": "V75Q+PW Bustarviejo, Spain", "global_code": "8CGRV75Q+PW"}, "rating": 4.9, "reference": "ChIJp7050qnfQw0RIxHEWdSy9M8", "scope": "GOOGLE", "types": ["food", "point_of_interest", "store", "establishment"], "user_ratings_total": 29, "vicinity": "Calle feria nº3, Bustarviejo"}, {"business_status": "OPERATIONAL", "geometry": {"location": {"lat": 40.85785, "lng": -3.71159}, "viewport": {"northeast": {"lat": 40.8593460302915, "lng": -3.710022169708498}, "southwest": {"lat": 40.8566480697085, "lng": -3.712720130291502}}}, "icon": "https://maps.gstatic.com/mapfiles/place_api/icons/v1/png_71/shopping-71.png", "icon_background_color": "#4B96F3", "icon_mask_base_uri": "https://maps.gstatic.com/mapfiles/place_api/icons/v2/shoppingcart_pinlet", "international_phone_number": "+34 912 17 04 53", "name": "Supermercados Dia", "opening_hours": {"open_now": false}, "photos": [{"height": 657, "html_attributions": ["<a href=\"https://maps.google.com/maps/contrib/117199034473912252682\">Supermercados Dia</a>"], "photo_reference": "AWn5SU5VhvdHSfgpJYGgoH02BAgLBOwqxTePBlDD90vMp2HC5SmW8Im_-ljDpbN8NUvYtHMSe_cGDADSPmoN8mdltr1ryOdvgnPz1WRAUXzRlvInrOodcEd_qMqXmFMEYqiGUq00g8SXoEFsEC8h_HBwe8hwk8UUcgN1Q1D6XaHmPe7nodgj-RZPWNb-vl-86xmfWaqpuAx_kqt-uxBpaaomESI96Rkcop0Iaki3qlrPfpbOEQerj0Bp6EMvVXh9ri9lVgwlVDRNlSXPsCtaoGLsTghPzD8__OdMoXiyUEHP5VorUUqSDozgYtItqviPdO3V7TYAYcs7dEU", "width": 509}], "place_id": "ChIJkTeqkQffQw0RbyEyx_c7gdE", "plus_code": {"compound_code": "V75Q+49 Bustarviejo, Spain", "global_code": "8CGRV75Q+49"}, "rating": 4, "reference": "ChIJkTeqkQffQw0RbyEyx_c7gdE", "scope": "GOOGLE", "types": ["supermarket", "convenience_store", "bakery", "grocery_or_supermarket", "food", "point_of_interest", "store", "establishment"], "user_ratings_total": 149, "vicinity": "Calle de la Cañada, 5, Bustarviejo"}, {"business_status": "OPERATIONAL", "geometry": {"location": {"lat": 40.8578247, "lng": -3.7075885}, "viewport": {"northeast": {"lat": 40.8592016302915, "lng": -3.706192869708498}, "southwest": {"lat": 40.8565036697085, "lng": -3.708890830291502}}}, "icon": "https://maps.gstatic.com/mapfiles/place_api/icons/v1/png_71/generic_business-71.png", "icon_background_color": "#7B9EB0", "icon_mask_base_uri": "https://maps.gstatic.com/mapfiles/place_api/icons/v2/generic_pinlet", "international_phone_number": "+34 608 40 72 08", "name": "Tu Casa y Jardín", "opening_hours": {"open_now": false}, "photos": [{"height": 1422, "html_attributions": ["<a href=\"https://maps.google.com/maps/contrib/113516862012901278463\">Tu Casa y Jardín</a>"], "photo_reference": "AWn5SU7v_PBKQ0onYqKBiwfMfv-agiyEK-iHIIeSSy2usZKGUOCLzPFgc8vMsumI-BYCIOIc_K1LKqDZNWb2CKXpSd-6An_41K1gub6iyD3nvdqk3ZLGSwC7eEaL7kj9c5VAJf-izX4C3eZjybtjYgSvsJg1P7SCTi7ybxCNJXpYDRkptkpYCyr4lSupN47Dw_tg9gWhUaz9hSuM7CgFCZWU8USjZ_RAPqwjC0xPSn-iQoCKfW07bqpbAaWfCJGEFUP2SiBt-w87qU7a4Chv6_T0G99KTE3Y6VgDw7EwpSeQL5bAcs0T0C6pGOMsh7sxXAm9ww4yWBH3ScQ", "width": 1100}], "place_id": "ChIJvYvztgDfQw0Rq4S1t4aFc7c", "plus_code": {"compound_code": "V75R+4X Bustarviejo, Spain", "global_code": "8CGRV75R+4X"}, "rating": 5, "reference": "ChIJvYvztgDfQw0Rq4S1t4aFc7c", "scope": "GOOGLE", "types": ["plumber", "electrician", "point_of_interest", "establishment"], "user_ratings_total": 46, "vicinity": "Calle del Desengaño, 14, Bustarviejo"}, {"geometry": {"location": {"lat": 40.8551028, "lng": -3.6975093}, "viewport": {"northeast": {"lat": 40.85847545208327, "lng": -3.695013976126174}, "southwest": {"lat": 40.85268224730918, "lng": -3.702508639880318}}}, "icon": "https://maps.gstatic.com/mapfiles/place_api/icons/v1/png_71/geocode-71.png", "icon_background_color": "#7B9EB0", "icon_mask_base_uri": "https://maps.gstatic.com/mapfiles/place_api/icons/v2/generic_pinlet", "name": "El Pornoso", "place_id": "ChIJd1JBuv7eQw0RJbARgmye4f0", "reference": "ChIJd1JBuv7eQw0RJbARgmye4f0", "scope": "GOOGLE", "types": ["locality", "political"], "vicinity": "El Pornoso"}]