[{"business_status": "OPERATIONAL", "geometry": {"location": {"lat": 40.46182340000001, "lng": -3.1745418}, "viewport": {"northeast": {"lat": 40.4632044302915, "lng": -3.173220919708498}, "southwest": {"lat": 40.46050646970851, "lng": -3.175918880291502}}}, "icon": "https://maps.gstatic.com/mapfiles/place_api/icons/v1/png_71/parking-71.png", "icon_background_color": "#7B9EB0", "icon_mask_base_uri": "https://maps.gstatic.com/mapfiles/place_api/icons/v2/parking_pinlet", "name": "Aparcamiento", "place_id": "ChIJP_FB551XQg0RGzSkd-D62PA", "plus_code": {"compound_code": "FR6G+P5 Pioz, Spain", "global_code": "8CGRFR6G+P5"}, "rating": 1, "reference": "ChIJP_FB551XQg0RGzSkd-D62PA", "scope": "GOOGLE", "types": ["parking", "point_of_interest", "establishment"], "user_ratings_total": 1, "vicinity": "Carretera de Loranca, Pioz"}, {"business_status": "OPERATIONAL", "geometry": {"location": {"lat": 40.46228309999999, "lng": -3.1737345}, "viewport": {"northeast": {"lat": 40.46366108029149, "lng": -3.172422019708498}, "southwest": {"lat": 40.46096311970849, "lng": -3.175119980291502}}}, "icon": "https://maps.gstatic.com/mapfiles/place_api/icons/v1/png_71/parking-71.png", "icon_background_color": "#7B9EB0", "icon_mask_base_uri": "https://maps.gstatic.com/mapfiles/place_api/icons/v2/parking_pinlet", "name": "Aparcamiento", "opening_hours": {"open_now": true}, "place_id": "ChIJ1ytsrONXQg0RAJ4d125Prho", "plus_code": {"compound_code": "FR6G+WG Pioz, Spain", "global_code": "8CGRFR6G+WG"}, "rating": 4, "reference": "ChIJ1ytsrONXQg0RAJ4d125Prho", "scope": "GOOGLE", "types": ["parking", "point_of_interest", "establishment"], "user_ratings_total": 2, "vicinity": "Carretera de Loranca, 429, Pioz"}, {"business_status": "OPERATIONAL", "geometry": {"location": {"lat": 40.36962249999999, "lng": -3.2223137}, "viewport": {"northeast": {"lat": 40.3709596802915, "lng": -3.220964569708499}, "southwest": {"lat": 40.3682617197085, "lng": -3.223662530291502}}}, "icon": "https://maps.gstatic.com/mapfiles/place_api/icons/v1/png_71/parking-71.png", "icon_background_color": "#7B9EB0", "icon_mask_base_uri": "https://maps.gstatic.com/mapfiles/place_api/icons/v2/parking_pinlet", "name": "Aparcamiento Gratuito", "place_id": "ChIJLymhQwBbQg0RUKuBwJD85Ic", "plus_code": {"compound_code": "9Q9H+R3 Olmeda de las Fuentes, Spain", "global_code": "8CGR9Q9H+R3"}, "reference": "ChIJLymhQwBbQg0RUKuBwJD85Ic", "scope": "GOOGLE", "types": ["parking", "point_of_interest", "establishment"], "vicinity": "Calle del Pintor José Frau, 1, Olmeda de las Fuentes"}, {"business_status": "OPERATIONAL", "geometry": {"location": {"lat": 40.3673616, "lng": -3.2191551}, "viewport": {"northeast": {"lat": 40.36867298029151, "lng": -3.217737269708498}, "southwest": {"lat": 40.36597501970851, "lng": -3.220435230291502}}}, "icon": "https://maps.gstatic.com/mapfiles/place_api/icons/v1/png_71/parking-71.png", "icon_background_color": "#7B9EB0", "icon_mask_base_uri": "https://maps.gstatic.com/mapfiles/place_api/icons/v2/parking_pinlet", "name": "Aparcamiento Gratuito", "place_id": "ChIJ609KaQBbQg0RTwHdOoj4WLo", "plus_code": {"compound_code": "9Q8J+W8 Olmeda de las Fuentes, Spain", "global_code": "8CGR9Q8J+W8"}, "reference": "ChIJ609KaQBbQg0RTwHdOoj4WLo", "scope": "GOOGLE", "types": ["parking", "point_of_interest", "establishment"], "vicinity": "Calle Fuente de la Teja, 13A, Olmeda de las Fuentes"}, {"business_status": "OPERATIONAL", "geometry": {"location": {"lat": 40.36746939999999, "lng": -3.2196224}, "viewport": {"northeast": {"lat": 40.3688260302915, "lng": -3.218267669708498}, "southwest": {"lat": 40.3661280697085, "lng": -3.220965630291501}}}, "icon": "https://maps.gstatic.com/mapfiles/place_api/icons/v1/png_71/parking-71.png", "icon_background_color": "#7B9EB0", "icon_mask_base_uri": "https://maps.gstatic.com/mapfiles/place_api/icons/v2/parking_pinlet", "name": "Parking Gratuito", "opening_hours": {"open_now": true}, "place_id": "ChIJrdKxQgBbQg0Rm2FN8h_Aolg", "plus_code": {"compound_code": "9Q8J+X5 Olmeda de las Fuentes, Spain", "global_code": "8CGR9Q8J+X5"}, "reference": "ChIJrdKxQgBbQg0Rm2FN8h_Aolg", "scope": "GOOGLE", "types": ["parking", "point_of_interest", "establishment"], "vicinity": "Mayor, Calle del Pintor Álvaro Delgado, Olmeda de las Fuentes"}, {"business_status": "OPERATIONAL", "geometry": {"location": {"lat": 40.36861329999999, "lng": -3.2250268}, "viewport": {"northeast": {"lat": 40.3699939302915, "lng": -3.223684519708498}, "southwest": {"lat": 40.3672959697085, "lng": -3.226382480291502}}}, "icon": "https://maps.gstatic.com/mapfiles/place_api/icons/v1/png_71/parking-71.png", "icon_background_color": "#7B9EB0", "icon_mask_base_uri": "https://maps.gstatic.com/mapfiles/place_api/icons/v2/parking_pinlet", "name": "Parking Gratuito", "opening_hours": {"open_now": true}, "place_id": "ChIJOfxPSgBbQg0RHlKqVlKUf2g", "plus_code": {"compound_code": "9Q9F+CX Olmeda de las Fuentes, Spain", "global_code": "8CGR9Q9F+CX"}, "reference": "ChIJOfxPSgBbQg0RHlKqVlKUf2g", "scope": "GOOGLE", "types": ["parking", "point_of_interest", "establishment"], "vicinity": "Calle Mayor, 9, Olmeda de las Fuentes"}]