[{"business_status": "OPERATIONAL", "geometry": {"location": {"lat": 40.85807759999999, "lng": -3.7105076}, "viewport": {"northeast": {"lat": 40.8594309302915, "lng": -3.709160519708498}, "southwest": {"lat": 40.8567329697085, "lng": -3.711858480291502}}}, "icon": "https://maps.gstatic.com/mapfiles/place_api/icons/v1/png_71/shopping-71.png", "icon_background_color": "#4B96F3", "icon_mask_base_uri": "https://maps.gstatic.com/mapfiles/place_api/icons/v2/shoppingcart_pinlet", "international_phone_number": "+34 918 48 23 54", "name": "Supermercado Alcampo Bustarviejo", "opening_hours": {"open_now": false}, "photos": [{"height": 2988, "html_attributions": ["<a href=\"https://maps.google.com/maps/contrib/116612165120512023962\">felix jr 46</a>"], "photo_reference": "AWn5SU4a3Sf18e2mqSFHXtq78PhVcZes9IWLghhsLwd-2jq9wtaMSZriqHQ6NsqnXX2_HmZVd2qkgWk_zWTr3bfQ3oN8HRgNfz4o3PDp2n8FbVP67wPrDKtFd4FgaLqqA61Cs-dsr-iAcEaw5kS93SuMMp22LBCOmlHwHpE_78dEhyDqmSbiPsmo4R-d6koznWq0fb22jX8T1POxeZKYNJGYgr9XGgMRZ_IUFK2de4ERuwg782C-yLtiRHBx1uIdmEeHHjjE0-MefJDgpOmIso9VZB94Yi5eDJYYR0Fb5apPBkUsmrAY1nu_RJaQzkKSP-KmVb9Vffy1p3z7vHP4rBIVnVeRObgjObzqeK3VnYkIfHFN_1dPfTtav6ZQ0p55uK1qq7zAHepu_wpznKL3CxaUDLJNyCaVuk531dCtmhbZTrP-Oxr1bYI9jWHpr5dQy11P_XwXrD5KtpqLcjSHP_8Z9tFSfd2BBXiY-NPtv0xqxoZFiChPKr50Cyx7TeWhWCtRmRA2Xgy84OS8-Q3RazPH3gIUVzN677HSzZMZalLTrDyIpgSaSGTI_eS-lu0Bx9833FJ_ncnpWpulYGi9eqbSz_k46RFHZ4-m_oEX7dLaS0mdi4XVnrSAT5wR3k0tpdQ2Av0YAA", "width": 5312}], "place_id": "ChIJI9-cdwffQw0RCsCp-voaA_c", "plus_code": {"compound_code": "V75Q+6Q Bustarviejo, Spain", "global_code": "8CGRV75Q+6Q"}, "rating": 4.4, "reference": "ChIJI9-cdwffQw0RCsCp-voaA_c", "scope": "GOOGLE", "types": ["supermarket", "meal_delivery", "grocery_or_supermarket", "store", "food", "point_of_interest", "establishment"], "user_ratings_total": 116, "vicinity": "Calle Real, 13, Bustarviejo"}, {"business_status": "OPERATIONAL", "geometry": {"location": {"lat": 40.8642251, "lng": -3.6127213}, "viewport": {"northeast": {"lat": 40.8657133802915, "lng": -3.611358269708497}, "southwest": {"lat": 40.8630154197085, "lng": -3.614056230291502}}}, "icon": "https://maps.gstatic.com/mapfiles/place_api/icons/v1/png_71/shopping-71.png", "icon_background_color": "#4B96F3", "icon_mask_base_uri": "https://maps.gstatic.com/mapfiles/place_api/icons/v2/shoppingcart_pinlet", "international_phone_number": "+34 917 79 38 52", "name": "Eroski", "opening_hours": {"open_now": false}, "photos": [{"height": 4128, "html_attributions": ["<a href=\"https://maps.google.com/maps/contrib/104363707936695918842\">Eroski</a>"], "photo_reference": "AWn5SU668XlGsJa6M8T9FFX6RRbGiLH0h8nF42hPzFm46cDgv9uh69oPFbywQwrHfuvLK2uUSLe-nMg10oJUiDGKx8lABe0RfYnG6ozVaSmTiZ2FerAO8ag_Y2tPfJ4kO8A8NnbT6I8qbE1VA694T4gmpIi8DSUswybKS7tKMpkZcCRqytgohqMuYxHrXqVCntN-taEEdzN4B7gw7t6O9s2aRIYqBO0CxWJZVHkjxID0HF3prkZUSubyiYHcihlQZuQquqlEnslF7huIWbcrY902saRcvRunKhj_hf9MwJa8x52CDKi-8BsB40ygnA_fVHyD8FijBsvXPIg", "width": 2006}], "place_id": "ChIJfxFs3wLdQw0RgNJgsXlJQs4", "plus_code": {"compound_code": "V97P+MW La Cabrera, Spain", "global_code": "8CGRV97P+MW"}, "rating": 3.8, "reference": "ChIJfxFs3wLdQw0RgNJgsXlJQs4", "scope": "GOOGLE", "types": ["supermarket", "grocery_or_supermarket", "store", "food", "point_of_interest", "establishment"], "user_ratings_total": 770, "vicinity": "Avenida de la Cabrera, 40, La Cabrera"}, {"business_status": "OPERATIONAL", "geometry": {"location": {"lat": 40.85785, "lng": -3.71159}, "viewport": {"northeast": {"lat": 40.8593460302915, "lng": -3.710022169708498}, "southwest": {"lat": 40.8566480697085, "lng": -3.712720130291502}}}, "icon": "https://maps.gstatic.com/mapfiles/place_api/icons/v1/png_71/shopping-71.png", "icon_background_color": "#4B96F3", "icon_mask_base_uri": "https://maps.gstatic.com/mapfiles/place_api/icons/v2/shoppingcart_pinlet", "international_phone_number": "+34 912 17 04 53", "name": "Supermercados Dia", "opening_hours": {"open_now": false}, "photos": [{"height": 657, "html_attributions": ["<a href=\"https://maps.google.com/maps/contrib/117199034473912252682\">Supermercados Dia</a>"], "photo_reference": "AWn5SU7zjbRseDuNdw4WPzottSOp3SCvxwia-Svkvc_Yr91Zkv0-LU0FRBtal2Ft34XDo2XCjq3nBySG6UCmf6623QCHB_SEgCnX8ltGqZicXw32nMPzjvGlXZQ608SyWp0XrXsyrjDqFiWo2ia53z5lzjZH52gCjFBNbzFkgakIknROt7fPDMf_VOS4XACrDnK12RFpSYMh-Lc_jduuiXUZAnYZ0RMSoBEGx3NTnhrrYa8zs02azXjR6tJXhc72vTOeZkuJDqKP-4MvrQAYVOCLjvtvuXxcl5q5BYI_IAIjwvgy3qO9b2oNho86QdjFMl9v9xgDXIOPKZg", "width": 509}], "place_id": "ChIJkTeqkQffQw0RbyEyx_c7gdE", "plus_code": {"compound_code": "V75Q+49 Bustarviejo, Spain", "global_code": "8CGRV75Q+49"}, "rating": 4, "reference": "ChIJkTeqkQffQw0RbyEyx_c7gdE", "scope": "GOOGLE", "types": ["supermarket", "convenience_store", "bakery", "grocery_or_supermarket", "store", "food", "point_of_interest", "establishment"], "user_ratings_total": 149, "vicinity": "Calle de la Cañada, 5, Bustarviejo"}, {"business_status": "OPERATIONAL", "geometry": {"location": {"lat": 40.8725304, "lng": -3.663102}, "viewport": {"northeast": {"lat": 40.8738519302915, "lng": -3.661811019708498}, "southwest": {"lat": 40.8711539697085, "lng": -3.664508980291503}}}, "icon": "https://maps.gstatic.com/mapfiles/place_api/icons/v1/png_71/shopping-71.png", "icon_background_color": "#4B96F3", "icon_mask_base_uri": "https://maps.gstatic.com/mapfiles/place_api/icons/v2/shoppingcart_pinlet", "international_phone_number": "+34 918 48 12 02", "name": "UNIDE VALDEMANCO", "opening_hours": {"open_now": false}, "place_id": "ChIJwaKlz3feQw0Rx6CM8bjPFAw", "plus_code": {"compound_code": "V8FP+2Q Valdemanco, Spain", "global_code": "8CGRV8FP+2Q"}, "rating": 4.4, "reference": "ChIJwaKlz3feQw0Rx6CM8bjPFAw", "scope": "GOOGLE", "types": ["supermarket", "grocery_or_supermarket", "store", "food", "point_of_interest", "establishment"], "user_ratings_total": 37, "vicinity": "Plaza de Nuestra Señora del Carmen, 8, Valdemanco"}, {"business_status": "OPERATIONAL", "geometry": {"location": {"lat": 40.8392722, "lng": -3.6765374}, "viewport": {"northeast": {"lat": 40.8405668302915, "lng": -3.675284519708498}, "southwest": {"lat": 40.8378688697085, "lng": -3.677982480291503}}}, "icon": "https://maps.gstatic.com/mapfiles/place_api/icons/v1/png_71/shopping-71.png", "icon_background_color": "#4B96F3", "icon_mask_base_uri": "https://maps.gstatic.com/mapfiles/place_api/icons/v2/shoppingcart_pinlet", "international_phone_number": "+34 673 21 40 40", "name": "Tienda Supercor Stop & Go", "place_id": "ChIJN7wBQenfQw0R0cFSkEucPqk", "plus_code": {"compound_code": "R8QF+P9 Bustarviejo, Spain", "global_code": "8CGRR8QF+P9"}, "reference": "ChIJN7wBQenfQw0R0cFSkEucPqk", "scope": "GOOGLE", "types": ["supermarket", "grocery_or_supermarket", "store", "food", "point_of_interest", "establishment"], "vicinity": "M-631, PK. 5, 3, Bustarviejo"}, {"business_status": "OPERATIONAL", "geometry": {"location": {"lat": 40.8589598, "lng": -3.616793900000001}, "viewport": {"northeast": {"lat": 40.86031868029151, "lng": -3.615365219708498}, "southwest": {"lat": 40.85762071970851, "lng": -3.618063180291502}}}, "icon": "https://maps.gstatic.com/mapfiles/place_api/icons/v1/png_71/shopping-71.png", "icon_background_color": "#4B96F3", "icon_mask_base_uri": "https://maps.gstatic.com/mapfiles/place_api/icons/v2/shoppingcart_pinlet", "international_phone_number": "+34 635 45 65 37", "name": "Supermercado Covirán - Pico de la miel", "opening_hours": {"open_now": false}, "photos": [{"height": 2296, "html_attributions": ["<a href=\"https://maps.google.com/maps/contrib/100308903178243622224\">Gabriel Manquillo</a>"], "photo_reference": "AWn5SU7VQddT_YML28VnXE3Xcbn4rt4KDv0nl9YayUDI7MkM-BRjFOC5f_m3yLL0IE515iRCO8xvI0Y6nKpyioxikNxIXNO_zkrS1gA8sly8JEAHLXg428-vbWf4CLkcPaBy3n3_deTkDNpTK2DkzVJYP1jsoRddKqbXUEOwvDoHoEkQHEMxXHtWPvehpgSOYSBLHpX-f19LvVfHLVGTeN1CYPu1GyGgUb9b_lmiHHBfDVzonodV12EOs6lh2Yc8njYhlxc8Ao28MXWH_3uug9zVSzJ4dtSNRo2LNYuRHfYEeOsga8esk9pHBYwDB8uN452JlKVhwmXyldPhRYkl2Gpc3Fjqimjpjr61tfvyxkCYaGjwL73F13bZhUKh9d4pbDl_i2uzyvJuNngOK-5D0bI6CczFoWr0wo3fEVS-EcSWs9QiNWOy1qPP4fZ5UXozLsBbPA3nkOSs3bMuMaK4hMJ8bL2MQnOPbeAI9oEkyyqHL5jAzRAtwJLqXnC3YbvUEhSAtYxdGC3v6WkwzeNjzwXzBpAfOIWw-IQqw_qbCIpfBVGT7QTSP_4vh6ODTKh7b7G_k-6QTQe4TsHRVgxmS-elolRffXKrMo_WOh6PyiRXSWRdC1KeOYSQ8OQwW2bRwCJ-uuZZWyERo6xdRysxJN7e1eU_9-M", "width": 4080}], "place_id": "ChIJfdPVzVndQw0R_Bo7Q4Xd12M", "plus_code": {"compound_code": "V95M+H7 La Cabrera, Spain", "global_code": "8CGRV95M+H7"}, "rating": 4.5, "reference": "ChIJfdPVzVndQw0R_Bo7Q4Xd12M", "scope": "GOOGLE", "types": ["supermarket", "grocery_or_supermarket", "store", "food", "point_of_interest", "establishment"], "user_ratings_total": 6, "vicinity": "La Cabrera"}, {"business_status": "OPERATIONAL", "geometry": {"location": {"lat": 40.8647932, "lng": -3.6138886}, "viewport": {"northeast": {"lat": 40.86617853029149, "lng": -3.612546569708498}, "southwest": {"lat": 40.86348056970849, "lng": -3.615244530291503}}}, "icon": "https://maps.gstatic.com/mapfiles/place_api/icons/v1/png_71/shopping-71.png", "icon_background_color": "#4B96F3", "icon_mask_base_uri": "https://maps.gstatic.com/mapfiles/place_api/icons/v2/shoppingcart_pinlet", "international_phone_number": "+34 603 32 88 95", "name": "frutería Mohamed la Cabrera", "opening_hours": {"open_now": false}, "photos": [{"height": 960, "html_attributions": ["<a href=\"https://maps.google.com/maps/contrib/109132861794824572600\">frutería Mohamed</a>"], "photo_reference": "AWn5SU7n-kgDvvjmtSWtDl6OH-OZXJQ8KVV3NB_0OrbYL-6vhWqCgEbREuc_-1WgT04NRm5o4l01Y6Qt1Uoj7veZ3tSVugl5DGSzoyqfxRDwCZEzGtHBrcPH7mPNQu9N-eLf9e4AKgPES-rdAlPndbQg3GPNvREmxYi8q7w69VKor7j3Ui2u6pAHjBttKkzKcDrg_MVbma-OoNFXmKVnCvY-ECB8rJxRW0GlRmOHCFGRSijQ3G8-uUUBG-dwc9eBxf7HaLdy0z-KaRfyI92Rf_2_EiLlBj6YXt7a8NFHvlF7En6J7cu15iFFzrHUJUW1Oxvzewk_IYlZyDI", "width": 540}], "place_id": "ChIJebQ-qgPdQw0REKm7MVCqaOQ", "plus_code": {"compound_code": "V97P+WC La Cabrera, Spain", "global_code": "8CGRV97P+WC"}, "rating": 4.7, "reference": "ChIJebQ-qgPdQw0REKm7MVCqaOQ", "scope": "GOOGLE", "types": ["supermarket", "grocery_or_supermarket", "store", "food", "point_of_interest", "establishment"], "user_ratings_total": 49, "vicinity": "Calle Carlos Ruiz, 4, La Cabrera"}, {"business_status": "OPERATIONAL", "geometry": {"location": {"lat": 40.8584199, "lng": -3.7120763}, "viewport": {"northeast": {"lat": 40.8597900302915, "lng": -3.710688769708498}, "southwest": {"lat": 40.8570920697085, "lng": -3.713386730291502}}}, "icon": "https://maps.gstatic.com/mapfiles/place_api/icons/v1/png_71/shopping-71.png", "icon_background_color": "#4B96F3", "icon_mask_base_uri": "https://maps.gstatic.com/mapfiles/place_api/icons/v2/shoppingcart_pinlet", "international_phone_number": "+34 918 48 20 81", "name": "Unide Supermercados", "opening_hours": {"open_now": false}, "place_id": "ChIJ7bb48wffQw0RMhMSHTg0EQ0", "plus_code": {"compound_code": "V75Q+95 Bustarviejo, Spain", "global_code": "8CGRV75Q+95"}, "rating": 4.9, "reference": "ChIJ7bb48wffQw0RMhMSHTg0EQ0", "scope": "GOOGLE", "types": ["supermarket", "grocery_or_supermarket", "store", "food", "point_of_interest", "establishment"], "user_ratings_total": 30, "vicinity": "Calle de la Cañada, 9, Bustarviejo"}, {"business_status": "CLOSED_TEMPORARILY", "geometry": {"location": {"lat": 40.8243197, "lng": -3.674018800000001}, "viewport": {"northeast": {"lat": 40.82562688029149, "lng": -3.672660219708498}, "southwest": {"lat": 40.8229289197085, "lng": -3.675358180291502}}}, "icon": "https://maps.gstatic.com/mapfiles/place_api/icons/v1/png_71/shopping-71.png", "icon_background_color": "#4B96F3", "icon_mask_base_uri": "https://maps.gstatic.com/mapfiles/place_api/icons/v2/shoppingcart_pinlet", "international_phone_number": "+34 918 43 23 18", "name": "Sabores de mi tierra", "permanently_closed": true, "photos": [{"height": 810, "html_attributions": ["<a href=\"https://maps.google.com/maps/contrib/117954742026414047239\">Sabores de mi tierra</a>"], "photo_reference": "AWn5SU74xkTWIaWF0KOmBxs9us2xasPrGPRHPFmEmhEjQiyGPaZxmt_erfUwspcmjfEvdDoM_FD2zowwK3KNsEkEg8Yr3Zn2FOLmwW2xuUMAAW0vI01c3nLnHoxfjnJaL8si4JPhE293zNkVbuB6Ky0iS91q7NBYpH329uVb446OzVMtgj26QZopSHlXnmH9wlrAqaIZ19XhlLSlmdJQkb34co43dq4_1Zx1ziMnIaoWv6t8KFOOTyl7tuHIL9BSTUstG41nDSAVrrwu8fMr5Sbcz9QEU3SXV38gIj6mOVIUUJRsWKuJLcbnwa0Wfok_98tRlmCY3mQ573g", "width": 1440}], "place_id": "ChIJ67ZZRzLfQw0RPsm55JcwpxM", "plus_code": {"compound_code": "R8FG+P9 Navalafuente, Spain", "global_code": "8CGRR8FG+P9"}, "rating": 4.6, "reference": "ChIJ67ZZRzLfQw0RPsm55JcwpxM", "scope": "GOOGLE", "types": ["supermarket", "grocery_or_supermarket", "store", "food", "point_of_interest", "establishment"], "user_ratings_total": 43, "vicinity": "Calle Iglesia, 41, Navalafuente"}, {"business_status": "OPERATIONAL", "geometry": {"location": {"lat": 40.9213989, "lng": -3.687909}, "viewport": {"northeast": {"lat": 40.9227374802915, "lng": -3.686547919708497}, "southwest": {"lat": 40.9200395197085, "lng": -3.689245880291502}}}, "icon": "https://maps.gstatic.com/mapfiles/place_api/icons/v1/png_71/shopping-71.png", "icon_background_color": "#4B96F3", "icon_mask_base_uri": "https://maps.gstatic.com/mapfiles/place_api/icons/v2/shoppingcart_pinlet", "international_phone_number": "+34 675 60 93 07", "name": "La Tienda De Conchi", "opening_hours": {"open_now": false}, "photos": [{"height": 3264, "html_attributions": ["<a href=\"https://maps.google.com/maps/contrib/118216692445546941660\">Eduardo CQ</a>"], "photo_reference": "AWn5SU57nKVthkon5dBv3qmwyH4u6qc1oEI9XtIHYeZQcazeWknAbV6cWSqQBYbhmLx7DS4oeyDQVI96971gBNjgDOYJ6y42fWWVeMEqD4J3E8YfObJyQVqPf8r0_NEXFQmnL-Zraor9oTSZlPe-iLSZXiagoQcc9exm4iV78BhpdgEf1WsbiZv5Klsb-G8wf-UzrUK8oouZJeqQbXkPa4Bjha1v1g9N5CSCwe4Xn7yJzby20qnfYS30kbA2cn3xd0q0PC6GjcRzppUSOoWxPiIsj4CIBXYo6Own5GjYF1TPS_fcomG_gxoJSHTm82LmQJsWQRXPi56bZNIwdp2mbUhdQULuQ5uZ48F-jK94CDN5TDVEicCtFX04ZhrXwz5ZHRAXWzH-iLdqBjIQIyfSr4gYzxLmdG0j-NRHX6sH-iG2O61VVCWYNMX5afGo4Do1xMn2Ueer7SV5XH11GDSkqeqcy-8SZLPQLJSjWu74_1H4oAs0znKucurPkj9OPNEpBvrMyAecoctxNDX8XFdKoZuq_LqswMjn8PRCkrg-yazTHAkIIjYCGxNazia21tM8AjPw9g_o4tLdwDwNdliP81pykBK_aakCxpOTKYE2mOlTnta_y6kZpcZzOAGc8q_nJnt1eTTUoGfRozRRZyGqy194GdX_h68", "width": 2448}], "place_id": "ChIJu05BEQHhQw0RfOOHP1XH4M0", "plus_code": {"compound_code": "W8C6+HR Garganta de los Montes, Spain", "global_code": "8CGRW8C6+HR"}, "rating": 4.8, "reference": "ChIJu05BEQHhQw0RfOOHP1XH4M0", "scope": "GOOGLE", "types": ["supermarket", "grocery_or_supermarket", "store", "food", "point_of_interest", "establishment"], "user_ratings_total": 16, "vicinity": "Calle San Isidro, 6, Garganta de los Montes"}]