[{"business_status": "OPERATIONAL", "geometry": {"location": {"lat": 40.1690254, "lng": -3.2753186}, "viewport": {"northeast": {"lat": 40.17033208029149, "lng": -3.273954469708498}, "southwest": {"lat": 40.1676341197085, "lng": -3.276652430291502}}}, "icon": "https://maps.gstatic.com/mapfiles/place_api/icons/v1/png_71/bank-71.png", "icon_background_color": "#909CE1", "icon_mask_base_uri": "https://maps.gstatic.com/mapfiles/place_api/icons/v2/bank-intl_pinlet", "international_phone_number": "+34 918 74 59 28", "name": "BBVA", "opening_hours": {"open_now": false}, "photos": [{"height": 720, "html_attributions": ["<a href=\"https://maps.google.com/maps/contrib/117188502476084618189\">BBVA</a>"], "photo_reference": "AWn5SU77KBkJqxrnXcfQfp9pHQ-DKnAMD3Bx51QxlqT7nQY13oZb8GFNYhgR8Z24ywRLAouseTbPRIhwLo2CfC4gxEVcHhTayfdMWHlOYfHBI3FAmoX6DPufkWE4n2LWm0HZBjb4MsMfq48XZevJLQIXoa_sicv3DHHbFQC1cI9d6h5yUXnlHGLxbbx46skjbFhYLfXzO5ycWzSmGAHp9W0K3Z4_YOipYKjCm8cti1KXNWKhaD4ee7vx_yZ_nlpYPpXXOKiPsQkgq90v1dL_x2IUCyERxikUwAEpIgLyf4NJWGAQ4uhSaNnVbSs0ls8c-jCLMn60RrO97FQ", "width": 1280}], "place_id": "ChIJY1l5RUZvQg0RsdptgFoHvoY", "plus_code": {"compound_code": "5P9F+JV Villarejo de Salvanés, Spain", "global_code": "8CGR5P9F+JV"}, "rating": 2, "reference": "ChIJY1l5RUZvQg0RsdptgFoHvoY", "scope": "GOOGLE", "types": ["bank", "atm", "accounting", "finance", "point_of_interest", "establishment"], "user_ratings_total": 21, "vicinity": "Calle Mayor, 5, Villarejo de Salvanés"}, {"business_status": "OPERATIONAL", "geometry": {"location": {"lat": 40.1682914, "lng": -3.2751447}, "viewport": {"northeast": {"lat": 40.1696063302915, "lng": -3.273816069708498}, "southwest": {"lat": 40.1669083697085, "lng": -3.276514030291502}}}, "icon": "https://maps.gstatic.com/mapfiles/place_api/icons/v1/png_71/bank-71.png", "icon_background_color": "#909CE1", "icon_mask_base_uri": "https://maps.gstatic.com/mapfiles/place_api/icons/v2/bank-intl_pinlet", "international_phone_number": "+34 918 74 20 67", "name": "Eurocaja Rural", "opening_hours": {"open_now": false}, "place_id": "ChIJmzKJWEZvQg0RrZxGZ6R3DoA", "plus_code": {"compound_code": "5P9F+8W Villarejo de Salvanés, Spain", "global_code": "8CGR5P9F+8W"}, "rating": 1, "reference": "ChIJmzKJWEZvQg0RrZxGZ6R3DoA", "scope": "GOOGLE", "types": ["bank", "atm", "finance", "point_of_interest", "establishment"], "user_ratings_total": 11, "vicinity": "Calle de los Mesones, 7, Villarejo de Salvanés"}, {"business_status": "OPERATIONAL", "geometry": {"location": {"lat": 40.16848019999999, "lng": -3.27624}, "viewport": {"northeast": {"lat": 40.1698849302915, "lng": -3.274816069708498}, "southwest": {"lat": 40.1671869697085, "lng": -3.277514030291502}}}, "icon": "https://maps.gstatic.com/mapfiles/place_api/icons/v1/png_71/bank-71.png", "icon_background_color": "#909CE1", "icon_mask_base_uri": "https://maps.gstatic.com/mapfiles/place_api/icons/v2/bank-intl_pinlet", "international_phone_number": "+34 918 74 50 94", "name": "Banco Santander", "opening_hours": {"open_now": false}, "photos": [{"height": 720, "html_attributions": ["<a href=\"https://maps.google.com/maps/contrib/104225973697707282724\">Banco Santander</a>"], "photo_reference": "AWn5SU7x1qnnWRXSGH5dyiXwW0mprqcoZSjdl1kdxp3BhB04w7z9qRek_ltn87j2HTcNfbYAUqcISSazi5uFD-H3-i2af1yqcesUwRwenqLSb_FrtZf3PIRUSw4ZbOxroKPO-bxgRZ8ryRdSGGlFBIjwfKkzSLmiAP6GwyuA6YX1dmniTQBEX1buY5E1oCPk_BsV2pJOw5IGLqAwq2DA6uqcYvr85wcgON4MbWHQH0udUhtbWt6WpaJWdFUtdF1DfXAEiX6Ko4UHehHqox2YZoerT6HA5OGpwsRrqghTM2at9Z9bbRGXFALq5Z91bKC9VT5TE9O_txqh-44", "width": 1280}], "place_id": "ChIJaVj1rEdvQg0R4hYLIBspgro", "plus_code": {"compound_code": "5P9F+9G Villarejo de Salvanés, Spain", "global_code": "8CGR5P9F+9G"}, "rating": 1.2, "reference": "ChIJaVj1rEdvQg0R4hYLIBspgro", "scope": "GOOGLE", "types": ["bank", "atm", "finance", "point_of_interest", "establishment"], "user_ratings_total": 21, "vicinity": "Plaza de España, 16, Villarejo de Salvanés"}, {"business_status": "OPERATIONAL", "geometry": {"location": {"lat": 40.16834599999999, "lng": -3.2754235}, "viewport": {"northeast": {"lat": 40.1696661302915, "lng": -3.274021269708498}, "southwest": {"lat": 40.1669681697085, "lng": -3.276719230291502}}}, "icon": "https://maps.gstatic.com/mapfiles/place_api/icons/v1/png_71/atm-71.png", "icon_background_color": "#909CE1", "icon_mask_base_uri": "https://maps.gstatic.com/mapfiles/place_api/icons/v2/atm_pinlet", "international_phone_number": "+34 900 404 090", "name": "ATM CaixaBank - Cajero", "opening_hours": {"open_now": true}, "photos": [{"height": 681, "html_attributions": ["<a href=\"https://maps.google.com/maps/contrib/113668509069035122416\">ATM CaixaBank - Cajero</a>"], "photo_reference": "AWn5SU7zkczdKJ21Xb4Dtp8sx_AVGP0bFVhVJyHuMQzAk2po9OuRVszcZiofo9hz1sD4HUQKGNQjnatWzcowORqnZTvihQFfp0eS3JL9lzrhAh7FWJmWXn_kHgWdJHUjN1fjc2AoOdiB3_fkX-CC1NZoA6DHGBfQM_D5JLyuYmMw4oJdvhbU7zrDYMWOUNiuYSGg7CemfryQGFQCSWPNSAg65jJsi7MVCOZcCgDNzy1egnIwkyTuR_Cw5D_vP5nMVTi_G54TledbVqxWgXx7X0AHNUt29OdrW9PwcZVOvTupqhtbP_HIjcRktAP5DV9qVm5Qccg5P5NE", "width": 1024}], "place_id": "ChIJ20PJv5hvQg0RHo6C2oHxZmA", "plus_code": {"compound_code": "5P9F+8R Villarejo de Salvanés, Spain", "global_code": "8CGR5P9F+8R"}, "reference": "ChIJ20PJv5hvQg0RHo6C2oHxZmA", "scope": "GOOGLE", "types": ["atm", "finance", "point_of_interest", "establishment"], "vicinity": "Calle de los Mesones, 3, Villarejo de Salvanés"}, {"business_status": "OPERATIONAL", "geometry": {"location": {"lat": 40.1340397, "lng": -3.337282599999999}, "viewport": {"northeast": {"lat": 40.1353614302915, "lng": -3.335889169708498}, "southwest": {"lat": 40.1326634697085, "lng": -3.338587130291502}}}, "icon": "https://maps.gstatic.com/mapfiles/place_api/icons/v1/png_71/atm-71.png", "icon_background_color": "#909CE1", "icon_mask_base_uri": "https://maps.gstatic.com/mapfiles/place_api/icons/v2/atm_pinlet", "international_phone_number": "+34 900 404 090", "name": "ATM CaixaBank - Cajero", "opening_hours": {"open_now": true}, "photos": [{"height": 681, "html_attributions": ["<a href=\"https://maps.google.com/maps/contrib/117321466320183983627\">ATM CaixaBank - Cajero</a>"], "photo_reference": "AWn5SU4RKDhZEfH65SrbZM9wUtB6wy8YmIuX2Gr5lV2t8UKu4DTskwyorOmORcP6THnOGL6qI9BBlPAh0QLGQmTGRLRH3ZvvtSVIt-yZzUfkXUFaGTPQlagIXip1AF06x48vER2kcsoa0aBHx0tyJQiDCLLq7NShMnTfeDVEj18iuEBiO8IbOS9OvzKKF9nZ3bGJE7vmbXo4Wc62muxdhnDhABievPi808FhoHtRIXPZIBgyVjCJFvDIwgp1csz7fsdieEXbh-ftugnYObvlQWiQRSRZ5wZCmw60V50oRVv7BbT3qQinZqAEaTJhKQHSQG8Pabwdw_AsEqI", "width": 1024}], "place_id": "ChIJpxOyYNlvQg0R6SZdKH3RZK8", "plus_code": {"compound_code": "4MM7+J3 Belmonte de Tajo, Spain", "global_code": "8CGR4MM7+J3"}, "reference": "ChIJpxOyYNlvQg0R6SZdKH3RZK8", "scope": "GOOGLE", "types": ["atm", "finance", "point_of_interest", "establishment"], "vicinity": "Calle Barrio Alto, 39, Belmonte de Tajo"}]