[{"business_status": "OPERATIONAL", "geometry": {"location": {"lat": 40.4926523, "lng": -4.1612111}, "viewport": {"northeast": {"lat": 40.4940574302915, "lng": -4.159963219708498}, "southwest": {"lat": 40.4913594697085, "lng": -4.162661180291503}}}, "icon": "https://maps.gstatic.com/mapfiles/place_api/icons/v1/png_71/generic_business-71.png", "icon_background_color": "#7B9EB0", "icon_mask_base_uri": "https://maps.gstatic.com/mapfiles/place_api/icons/v2/generic_pinlet", "international_phone_number": "+34 918 98 90 09", "name": "Campo Polideportivo y Fútbol 7", "place_id": "ChIJmb2YmLCmQQ0RDCDr68U5LBY", "plus_code": {"compound_code": "FRVQ+3G Fresnedillas de la Oliva, Spain", "global_code": "8CGQFRVQ+3G"}, "reference": "ChIJmb2YmLCmQQ0RDCDr68U5LBY", "scope": "GOOGLE", "types": ["doctor", "health", "point_of_interest", "establishment"], "vicinity": "Fresnedillas de la Oliva"}, {"business_status": "OPERATIONAL", "geometry": {"location": {"lat": 40.499167, "lng": -4.2393025}, "viewport": {"northeast": {"lat": 40.5005312302915, "lng": -4.237915969708498}, "southwest": {"lat": 40.4978332697085, "lng": -4.240613930291502}}}, "icon": "https://maps.gstatic.com/mapfiles/place_api/icons/v1/png_71/generic_business-71.png", "icon_background_color": "#7B9EB0", "icon_mask_base_uri": "https://maps.gstatic.com/mapfiles/place_api/icons/v2/generic_pinlet", "international_phone_number": "+34 918 99 60 04", "name": "POLICLINICA MR", "opening_hours": {"open_now": false}, "photos": [{"height": 900, "html_attributions": ["<a href=\"https://maps.google.com/maps/contrib/104827223603131449294\">POLICLINICA MR</a>"], "photo_reference": "AWn5SU5oIlw4jcSd7bGQN8rpc_ZghgjXZqZhJQUdiHe8SSktynLVDly63LqGU9JSOtLbnNXiY4n9AU2jyrJtkiUGV-lVCqJLvMzRaRhjihxIzvOWvK8o0C9hADdxIQ7NcNlPfZrIrlmUbgndH4CY2MWjyqrnZJxU0RX2QrxMtKGfXJnOKGxlxDifZCufbirBNCE6DSdNo6hGpjqTvE5VIh0kX3M9no5jjn5dEDUmCdhkzFPURvfJbOJKdrnCFRzbx2cxUjgCfSob2T_Wr8_sVk7hRVnW6aR76Y8Lx9SopoiH2LSfu50fv08a9c7bbq4xL8IKUCkumcslyyg", "width": 1600}], "place_id": "ChIJ6-gQ49mpQQ0RcQaaSAi2d-Y", "plus_code": {"compound_code": "FQX6+M7 Robledo de Chavela, Spain", "global_code": "8CGQFQX6+M7"}, "rating": 4.5, "reference": "ChIJ6-gQ49mpQQ0RcQaaSAi2d-Y", "scope": "GOOGLE", "types": ["hospital", "gym", "doctor", "health", "point_of_interest", "establishment"], "user_ratings_total": 26, "vicinity": "Avenida de la Constitución, 26 posterior, local 7, Robledo de Chavela"}, {"business_status": "OPERATIONAL", "geometry": {"location": {"lat": 40.53974360000001, "lng": -4.1645781}, "viewport": {"northeast": {"lat": 40.54105738029151, "lng": -4.163232719708498}, "southwest": {"lat": 40.53835941970851, "lng": -4.165930680291503}}}, "icon": "https://maps.gstatic.com/mapfiles/place_api/icons/v1/png_71/generic_business-71.png", "icon_background_color": "#7B9EB0", "icon_mask_base_uri": "https://maps.gstatic.com/mapfiles/place_api/icons/v2/generic_pinlet", "international_phone_number": "+34 918 99 26 39", "name": "Eduardo Rueda Garcia", "opening_hours": {"open_now": false}, "place_id": "ChIJj5QvPyKnQQ0R5ifeJ0iTyLs", "plus_code": {"compound_code": "GRQP+V5 Zarzalejo, Spain", "global_code": "8CGQGRQP+V5"}, "reference": "ChIJj5QvPyKnQQ0R5ifeJ0iTyLs", "scope": "GOOGLE", "types": ["dentist", "doctor", "health", "point_of_interest", "establishment"], "vicinity": "Calle de la Ladera, 2, Zarzalejo"}, {"business_status": "OPERATIONAL", "geometry": {"location": {"lat": 40.54766829999999, "lng": -4.1791182}, "viewport": {"northeast": {"lat": 40.54897688029151, "lng": -4.177734219708498}, "southwest": {"lat": 40.54627891970851, "lng": -4.180432180291502}}}, "icon": "https://maps.gstatic.com/mapfiles/place_api/icons/v1/png_71/generic_business-71.png", "icon_background_color": "#7B9EB0", "icon_mask_base_uri": "https://maps.gstatic.com/mapfiles/place_api/icons/v2/generic_pinlet", "name": "Centro de Salud", "place_id": "ChIJf0JFkUCnQQ0RmLkbbj1XCQo", "plus_code": {"compound_code": "GRXC+39 Zarzalejo, Spain", "global_code": "8CGQGRXC+39"}, "rating": 5, "reference": "ChIJf0JFkUCnQQ0RmLkbbj1XCQo", "scope": "GOOGLE", "types": ["doctor", "health", "point_of_interest", "establishment"], "user_ratings_total": 1, "vicinity": "Calle de la Casa Quemada, 18D, Zarzalejo"}]