[{"business_status": "OPERATIONAL", "geometry": {"location": {"lat": 40.10385369999999, "lng": -3.4875607}, "viewport": {"northeast": {"lat": 40.1051828302915, "lng": -3.486172719708498}, "southwest": {"lat": 40.1024848697085, "lng": -3.488870680291502}}}, "icon": "https://maps.gstatic.com/mapfiles/place_api/icons/v1/png_71/shopping-71.png", "icon_background_color": "#4B96F3", "icon_mask_base_uri": "https://maps.gstatic.com/mapfiles/place_api/icons/v2/shoppingcart_pinlet", "international_phone_number": "+34 912 17 04 53", "name": "Supermercados Dia", "opening_hours": {"open_now": false}, "photos": [{"height": 1536, "html_attributions": ["<a href=\"https://maps.google.com/maps/contrib/102397852127802262337\">Supermercados Dia</a>"], "photo_reference": "AWn5SU5MlJvNgbdz8DTghni_NAtrN_pN8gUFGALFFaC6jl3WfyO6i8ekuaJc_phwem8syVP91VswCs_pSwbq5igAuC7TolM-Rcdbf9rfzzz0BLGFNAHyTz3aoz-CJWwbTC23GcvM83VVpnCerOcxrlmZWkQ2SqGhnHFPhL0hZXt1OLww6SJ-18sIbp9TfASRhij4EgnhiZT7rkIsQnc4hoXYkc3_2KML14QXd90WqYelVygCctsIE2ih_qp5jzeSeZdyzSV_7RhDWk6ESFJ7oAe_2pHWHQWBiv7Ti3hCpNmJ1oO0t1Gf25p2pSbYy1VKUO6PVNPuCbOo_LE", "width": 2048}], "place_id": "ChIJ6ft3zRESQg0RdHPTAs_A4bw", "plus_code": {"compound_code": "4G36+GX Villaconejos, Spain", "global_code": "8CGR4G36+GX"}, "rating": 3.7, "reference": "ChIJ6ft3zRESQg0RdHPTAs_A4bw", "scope": "GOOGLE", "types": ["supermarket", "bakery", "grocery_or_supermarket", "food", "point_of_interest", "store", "establishment"], "user_ratings_total": 296, "vicinity": "Calle Carrretera Aranjuez, 6, Villaconejos"}, {"business_status": "OPERATIONAL", "geometry": {"location": {"lat": 40.1047882, "lng": -3.4832112}, "viewport": {"northeast": {"lat": 40.1061282302915, "lng": -3.481888669708498}, "southwest": {"lat": 40.1034302697085, "lng": -3.484586630291501}}}, "icon": "https://maps.gstatic.com/mapfiles/place_api/icons/v1/png_71/shopping-71.png", "icon_background_color": "#4B96F3", "icon_mask_base_uri": "https://maps.gstatic.com/mapfiles/place_api/icons/v2/shoppingcart_pinlet", "name": "Supermercado Coviran", "opening_hours": {"open_now": false}, "photos": [{"height": 4000, "html_attributions": ["<a href=\"https://maps.google.com/maps/contrib/112268450591350263392\">jesus escalona de blas</a>"], "photo_reference": "AWn5SU4Qtwx6qMvBbMYqlFG8V9YUx1AjQ_YI94kiESR077OkSB2HfzyB7pW0vWpnxlIEnhJd068lR6080F6w0a2eX_LxbUJwpUmzkYC2unbJwP2O8ihUZSVuNTwYn0LRFRuI7HntJ46za7EbnRaV7a9Z5F-Y7Z7ITtIDZuSXxEzVJsMouzQdsFIeDMnA71znIeVKyw5QqQferuz8dHEhoBUK3oglSz6jZRY2rOn6JmUjbi218IPQke1BBxNP78AY4xpiLaHr2ML5R8sOdVutNgvtBfR2tbFYydhyXlb1pS9yXlJro1izhxq8svriIU6FmK7Ol_35wz1dk-XvdoJjaAotVPQdzohO80aYtwP1wiY9ShGc6veWtNrLUURvFjeMG8j1LIEGrLU2oDPzF1K3HK8HLg5dRhBqDO1e7ZDdI1EOEppG59CmnPjSM6lRKyppn0xdIR-aAVqw17ipc150UF92crhIJ1-DMobTFLHE7jHFi3QGXxkqQNTDWDXlSQk_wrBwftLwbSkbs2LlyqQ7i_LtWtpCY1pprl3y1me2m1A_MwR-je2ekFk50mBB90xY7wXvPtXqRO9SPa1B8P8wfy2pcPfFonkBqKSsyJVKJLMGErlISNOeHf1-Qp_bdj3saOcdqShFNfup", "width": 3000}], "place_id": "ChIJmSToXBISQg0Rfcd3aPSnL50", "plus_code": {"compound_code": "4G38+WP Villaconejos, Spain", "global_code": "8CGR4G38+WP"}, "rating": 4.6, "reference": "ChIJmSToXBISQg0Rfcd3aPSnL50", "scope": "GOOGLE", "types": ["supermarket", "grocery_or_supermarket", "food", "point_of_interest", "store", "establishment"], "user_ratings_total": 32, "vicinity": "Spain"}, {"business_status": "OPERATIONAL", "geometry": {"location": {"lat": 40.10390899999999, "lng": -3.487653699999999}, "viewport": {"northeast": {"lat": 40.10519968029151, "lng": -3.486231869708498}, "southwest": {"lat": 40.10250171970851, "lng": -3.488929830291501}}}, "icon": "https://maps.gstatic.com/mapfiles/place_api/icons/v1/png_71/shopping-71.png", "icon_background_color": "#4B96F3", "icon_mask_base_uri": "https://maps.gstatic.com/mapfiles/place_api/icons/v2/shoppingcart_pinlet", "international_phone_number": "+34 918 93 88 95", "name": "Silvia García Frayle Huertes S L", "place_id": "ChIJyaVuzRESQg0RFAcEH2TJtQc", "plus_code": {"compound_code": "4G36+HW Villaconejos, Spain", "global_code": "8CGR4G36+HW"}, "rating": 3.5, "reference": "ChIJyaVuzRESQg0RFAcEH2TJtQc", "scope": "GOOGLE", "types": ["supermarket", "grocery_or_supermarket", "food", "point_of_interest", "store", "establishment"], "user_ratings_total": 2, "vicinity": "Carretera Aranjuez, 6, Villaconejos"}, {"business_status": "OPERATIONAL", "geometry": {"location": {"lat": 40.1028434, "lng": -3.4883375}, "viewport": {"northeast": {"lat": 40.1042343802915, "lng": -3.487078519708498}, "southwest": {"lat": 40.1015364197085, "lng": -3.489776480291502}}}, "icon": "https://maps.gstatic.com/mapfiles/place_api/icons/v1/png_71/shopping-71.png", "icon_background_color": "#4B96F3", "icon_mask_base_uri": "https://maps.gstatic.com/mapfiles/place_api/icons/v2/shoppingcart_pinlet", "international_phone_number": "+34 910 66 90 22", "name": "SUPERMERCADOS AHORRO VILLACONEJOS", "opening_hours": {"open_now": false}, "place_id": "ChIJcbBacAATQg0R8jgddhXupq0", "plus_code": {"compound_code": "4G36+4M Villaconejos, Spain", "global_code": "8CGR4G36+4M"}, "reference": "ChIJcbBacAATQg0R8jgddhXupq0", "scope": "GOOGLE", "types": ["supermarket", "grocery_or_supermarket", "food", "point_of_interest", "store", "establishment"], "vicinity": "Carr. Aranjuez, 13F, Villaconejos"}, {"business_status": "OPERATIONAL", "geometry": {"location": {"lat": 40.1024288, "lng": -3.489819299999999}, "viewport": {"northeast": {"lat": 40.1038753802915, "lng": -3.488470119708498}, "southwest": {"lat": 40.1011774197085, "lng": -3.491168080291501}}}, "icon": "https://maps.gstatic.com/mapfiles/place_api/icons/v1/png_71/shopping-71.png", "icon_background_color": "#4B96F3", "icon_mask_base_uri": "https://maps.gstatic.com/mapfiles/place_api/icons/v2/shoppingcart_pinlet", "international_phone_number": "+34 900 100 578", "name": "Supermercado Unide", "opening_hours": {"open_now": false}, "photos": [{"height": 3000, "html_attributions": ["<a href=\"https://maps.google.com/maps/contrib/101292476057222710739\">Óscar Calle Gutiérrez</a>"], "photo_reference": "AWn5SU6uWkxPD0lH90YobS0uEYfwJkPxXgd2DXvFrDm97dYRlOS1nRRBY3b8a8xYE2MUt1r2-S_VEdU9grSRkVOdO53euv-E5jdZfAwH8XFUZ9nv6iBCT6Z4vcjFGr3DYZYQ-aV-O1CT3UGP3wevuI-RQ5B7oZxp9dhC3MKJGQ2X_O9b0uWDSURIJpj8U-Ce_bVEDrMHGFwjmjyMOrTDjx4ckGo97upzYQIjtsKbX_kWbQ-Khj0XC1a4lxUEQ1bzXupUDJj_Jx0ZGOaGvgfT4rXKYpN5jevuB89yPpwnGrqUoTNqV5KZvRQC1FO2jyJdwSqyNQ9xmgRwcszwqZ8B-KznOPpzb357kWeL4eeZp5utMu85vLYSCn-UIBKWppXNgDydNtkTLK5oXkyNpNI81kTtp7_2keSeYetKvNrVrqmNclWeKao3tRGEIAeVTxq5UHpUSD8wrgTF7W6qCgqsXrUd0tbo-AtEW6P8Foyqe540LeNIW-lEfrY5zP35NOmX5RN91kIKEY487BtUbpnznkXzOgRL-Bt-U3FewSLBWii5IkewFs5VEIwK73joP9RR296FbGtyiH3NL0oEvqmBPNwy4BpdkBLNmx4zkp5cSWK6fWqxMI20AQGeHw5yHyG6uoTxwUr-Kg", "width": 4000}], "place_id": "ChIJ__-b8A8SQg0RfWQgYLKxiao", "plus_code": {"compound_code": "4G26+X3 Villaconejos, Spain", "global_code": "8CGR4G26+X3"}, "rating": 4.3, "reference": "ChIJ__-b8A8SQg0RfWQgYLKxiao", "scope": "GOOGLE", "types": ["supermarket", "grocery_or_supermarket", "food", "point_of_interest", "store", "establishment"], "user_ratings_total": 106, "vicinity": "Avenida de Madrid, 7, Villaconejos"}]