[{"geometry": {"location": {"lat": 40.429024, "lng": -4.0567709}, "viewport": {"northeast": {"lat": 40.43662272098422, "lng": -4.048895872751463}, "southwest": {"lat": 40.42313512875106, "lng": -4.064310054349764}}}, "icon": "https://maps.gstatic.com/mapfiles/place_api/icons/v1/png_71/geocode-71.png", "icon_background_color": "#7B9EB0", "icon_mask_base_uri": "https://maps.gstatic.com/mapfiles/place_api/icons/v2/generic_pinlet", "name": "Quijorna", "photos": [{"height": 1860, "html_attributions": ["<a href=\"https://maps.google.com/maps/contrib/101321764474141234821\">ricardo fernández del Blanco</a>"], "photo_reference": "AWn5SU71NApf42bf8fRpBjiAn_Wz8iw8zdV4wTNfsDHFUoOF6acT6LJGt5N7935K4Ny0tcrSQ0GYfaeh3ihaclIkNNTEODwXbW-SqmtICt7esjGsmWUMBYgvXpU_xc5lrpOBoMjhCrOnv9GCLqYhSSmr_picr2zHZ2t2LqafH9iD26RLMjeCAsqW1PCdYwiFHc63UnMnIeLyxhpOQtcnjWbcpOghEhmbx7BE_MGuhG-RG-QWslI4-c80xO5QOTbrVxmv0H73UTeTE1ph1NoibEtws8BY3md2V3K4oRyj7z7hIVI9qf86L7c8wL4AJ3QWBv0Q0pWvRfDEIH8bdylXzDXsewzgHiWiwnbR3fO4UOQtnDK-avTyrMMXgU32u2yq3LRp3NV7Ok74A8SgaRu0DDnZCDRMewqqnzD2_6Sqn_DsFXCjA3QWjyYySOZ-zpR7l-JNg_LeEzvVFVAF4tU3uAETrJV8k-OaWOziSR49P9F0mMHyly7EGGcw2f2H-4rhwki2tcAO5EnF4f79jGrNuxC6HPHN5iGghu9K-8LQ45skAXHbjfAlsRtvs0PPKEsOoIKa2E61dgEkin3mBwjsaJUd54X58wvOgd7EYasAzy86O6wQKOu1hvHHvXZlBh7QDzimf2Jq_A84", "width": 4032}], "place_id": "ChIJ3cmcgm6YQQ0ROWwUtqxsmO0", "reference": "ChIJ3cmcgm6YQQ0ROWwUtqxsmO0", "scope": "GOOGLE", "types": ["locality", "political"], "vicinity": "Quijorna"}, {"business_status": "OPERATIONAL", "geometry": {"location": {"lat": 40.43003619999999, "lng": -4.057330299999999}, "viewport": {"northeast": {"lat": 40.43136793029149, "lng": -4.055953369708497}, "southwest": {"lat": 40.4286699697085, "lng": -4.058651330291502}}}, "icon": "https://maps.gstatic.com/mapfiles/place_api/icons/v1/png_71/school-71.png", "icon_background_color": "#7B9EB0", "icon_mask_base_uri": "https://maps.gstatic.com/mapfiles/place_api/icons/v2/school_pinlet", "international_phone_number": "+34 918 16 86 64", "name": "Colegio Público Príncipes de Asturias", "opening_hours": {"open_now": false}, "photos": [{"height": 635, "html_attributions": ["<a href=\"https://maps.google.com/maps/contrib/105849035694465541768\">R M</a>"], "photo_reference": "AWn5SU5xg7y2QFUL8FYrZ_JjJ62O0TleDLMeD48N-qLa4JHk1KonI79G52Lo8ROuggybVE-4OF-HaJP8kSnIGoZgechPyEJuXp8J9qIc1Vs3hoWOcM0F9jKchEQD0ebgAJbkUybxnu5OCOk2GWx0bhlVYkV-zpOn31Xf-nhBlkq3aLUOjUc8U-zNChHRCUIE5gjU6j-NlGOLXFuRsq7cZ6t6Stt1F6R1HxZ_yUM8cl7o1oRw4O4sfoExDuoL73T9kPoAtXkvyKUqJ6AmDVFisySfCFJP_Pf4-LYfBEs7CLH3QjkiKPsq5-0YN3qFECUc6thLkoQzG5Q49YS0xn5Qygt1y3wcPjci__S1DPpVC8rNEa0DiUQvv1qG-xMJXmiobNxdNqtKiyNoVk2Mc4458SGVUUn3USG5T6dqWgU6XUtC0nEbEkLP6dtyOTZJTaUvRQnxy9vHdwLg1DVBwIoT4l-iKkTvlwTHpT-lTjxjFB85XCOSrk-InsGHkI4TLpisEENAu-ABjkABz3PhAq6ixc6Qooux5PP6ayuC85BWkkxnDq_xH8TUXwF-On2an5NFYgXZQ-e93VEekpf5STWzaXWcizuE7EwIQX74DMO9VCi8SjWfuF6h60rDdS_gjUklhBuPy61kGQHs", "width": 846}], "place_id": "ChIJgSBlY2-YQQ0RLqbFm4_A29g", "plus_code": {"compound_code": "CWJV+23 Quijorna, Spain", "global_code": "8CGQCWJV+23"}, "reference": "ChIJgSBlY2-YQQ0RLqbFm4_A29g", "scope": "GOOGLE", "types": ["school", "point_of_interest", "establishment"], "vicinity": "Calle Virgen del Rocío, 0, Quijorna"}, {"business_status": "OPERATIONAL", "geometry": {"location": {"lat": 40.4317138, "lng": -4.0545056}, "viewport": {"northeast": {"lat": 40.4330627302915, "lng": -4.053155969708498}, "southwest": {"lat": 40.4303647697085, "lng": -4.055853930291502}}}, "icon": "https://maps.gstatic.com/mapfiles/place_api/icons/v1/png_71/generic_business-71.png", "icon_background_color": "#7B9EB0", "icon_mask_base_uri": "https://maps.gstatic.com/mapfiles/place_api/icons/v2/generic_pinlet", "international_phone_number": "+34 918 15 91 41", "name": "Pavimentos y Soleras Robles Gil S.L.", "place_id": "ChIJJTvzaAuZQQ0RQxQiWX6zlFw", "plus_code": {"compound_code": "CWJW+M5 Quijorna, Spain", "global_code": "8CGQCWJW+M5"}, "reference": "ChIJJTvzaAuZQQ0RQxQiWX6zlFw", "scope": "GOOGLE", "types": ["point_of_interest", "establishment"], "vicinity": "Calle las Huertas, 22, Quijorna"}, {"business_status": "OPERATIONAL", "geometry": {"location": {"lat": 40.4284441, "lng": -4.054115900000001}, "viewport": {"northeast": {"lat": 40.4297236802915, "lng": -4.052798769708498}, "southwest": {"lat": 40.4270257197085, "lng": -4.055496730291502}}}, "icon": "https://maps.gstatic.com/mapfiles/place_api/icons/v1/png_71/generic_business-71.png", "icon_background_color": "#7B9EB0", "icon_mask_base_uri": "https://maps.gstatic.com/mapfiles/place_api/icons/v2/generic_pinlet", "international_phone_number": "+34 918 16 89 50", "name": "Aname Instrumentación Científica", "opening_hours": {"open_now": false}, "photos": [{"height": 674, "html_attributions": ["<a href=\"https://maps.google.com/maps/contrib/108593770718551602981\">Aname Instrumentación Científica</a>"], "photo_reference": "AWn5SU4Lx51XeXYkQhvczaGGLhiL54xbaJ0rVWf25QsU6vxAyvM9ZIgWfAz7OC28E7hoIND2Pffg9gn7jXsUdrOyLkLdwAX_KjDLEF6wme-amFp0CTSDlxGHiarg-VnFfRK1I0vMLuGQBN-7Fj6oAXBdcvemQNbYCMsVzBMvCmpYhAnbtHBZ7M0Cd1sJsknw_tNT8MQOXq9FA431loot3Y9kif5GrokSA456tzUhtAseUnNvmvIwTCnNi16XyATIrLRPH0hVx9WfHFFNjTZlW9xIdXl5yHRibhqc5w9LErWmDn2DLP8XWcHvuEt_wEtMXQFJsLpkzF_9te0", "width": 1198}], "place_id": "ChIJa2ZOFm-YQQ0RSDPM7WtRWbw", "plus_code": {"compound_code": "CWHW+99 Quijorna, Spain", "global_code": "8CGQCWHW+99"}, "rating": 2.6, "reference": "ChIJa2ZOFm-YQQ0RSDPM7WtRWbw", "scope": "GOOGLE", "types": ["point_of_interest", "establishment"], "user_ratings_total": 5, "vicinity": "Calle la Rioja, 1, A, Quijorna"}, {"business_status": "OPERATIONAL", "geometry": {"location": {"lat": 40.4245555, "lng": -4.0584074}, "viewport": {"northeast": {"lat": 40.4258862302915, "lng": -4.056959719708498}, "southwest": {"lat": 40.4231882697085, "lng": -4.059657680291503}}}, "icon": "https://maps.gstatic.com/mapfiles/place_api/icons/v1/png_71/generic_business-71.png", "icon_background_color": "#7B9EB0", "icon_mask_base_uri": "https://maps.gstatic.com/mapfiles/place_api/icons/v2/generic_pinlet", "international_phone_number": "+34 672 58 27 40", "name": "MadridLimpieza", "opening_hours": {"open_now": false}, "place_id": "ChIJ641hpW2YQQ0R_LpGFHqV1uk", "plus_code": {"compound_code": "CWFR+RJ Quijorna, Spain", "global_code": "8CGQCWFR+RJ"}, "reference": "ChIJ641hpW2YQQ0R_LpGFHqV1uk", "scope": "GOOGLE", "types": ["point_of_interest", "establishment"], "vicinity": "Calle Sorolla, 4, Quijorna"}, {"business_status": "OPERATIONAL", "geometry": {"location": {"lat": 40.4267712, "lng": -4.0574365}, "viewport": {"northeast": {"lat": 40.4282226302915, "lng": -4.056098019708497}, "southwest": {"lat": 40.4255246697085, "lng": -4.058795980291502}}}, "icon": "https://maps.gstatic.com/mapfiles/place_api/icons/v1/png_71/worship_general-71.png", "icon_background_color": "#7B9EB0", "icon_mask_base_uri": "https://maps.gstatic.com/mapfiles/place_api/icons/v2/worship_christian_pinlet", "name": "Iglesia de San Juan Evangelista", "opening_hours": {"open_now": false}, "photos": [{"height": 3024, "html_attributions": ["<a href=\"https://maps.google.com/maps/contrib/116113035359974956091\">fernando monzon</a>"], "photo_reference": "AWn5SU4zwwghVq-Nnjif02VEDhR8tr88dMrxi8gaOUXdarLhxjHvfALpY7n90hotMsFxhcujtT6SV3APFmB0Qv2mOfwqg7CiCi-pWyHcfT4-cHbKxW82rbXM-Io-98Pma45on12EY4USM3vrlS22zpB_q2X2PyccIrYSav9JkPSc4oDxPzZi8etjSg4FBVwO8S7WTREnIaUlNhTM9DJTSUZfphKZ9cO7LS-NynOlSaSCW1ayCS-ueiZLrYnoUFkcDzh4k1No7SWW2OP456Gt9QgQle9b0fG9G6WwfaH5SVv00QJddU2--RU2__614xhtXqM7JZmtwsvaSgEIlVtvrF25az_R9XyaAUtaBjyJmBfOpUU4Mlm9RymMm0jgW1MPrdofu6uyZPmH4AI75RNpJNDpD2U9nJyKsL8XBKiigNHfxSwA8qll_o5BN-6P6iJkz1lCcmvnN1QHcwtplw5MLNVdVbPmvijHXuyFIjc-I8rIoH5LP7JxSazqPxokxUJzLAcB33MzGlOuUoHU4bUGYGS5ojuxNDRTQXxtF9Z20Q4aOHhkFyRU8QJdgscPDOEMW4JIqN_c4zQHZRG5xDtF0V4wvwggK_ft7l1Jt4e2MLecKeML9pKXViOl_hml_AWJsgUqBuSeXA", "width": 4032}], "place_id": "ChIJ8zxTd26YQQ0RFNeeLfwvDlU", "plus_code": {"compound_code": "CWGV+P2 Quijorna, Spain", "global_code": "8CGQCWGV+P2"}, "rating": 4.6, "reference": "ChIJ8zxTd26YQQ0RFNeeLfwvDlU", "scope": "GOOGLE", "types": ["church", "place_of_worship", "point_of_interest", "establishment"], "user_ratings_total": 24, "vicinity": "S/N,, Plaza de la Iglesia, Quijorna"}, {"business_status": "OPERATIONAL", "geometry": {"location": {"lat": 40.42664159999999, "lng": -4.057848599999999}, "viewport": {"northeast": {"lat": 40.4280302302915, "lng": -4.056433419708497}, "southwest": {"lat": 40.4253322697085, "lng": -4.059131380291502}}}, "icon": "https://maps.gstatic.com/mapfiles/place_api/icons/v1/png_71/generic_business-71.png", "icon_background_color": "#7B9EB0", "icon_mask_base_uri": "https://maps.gstatic.com/mapfiles/place_api/icons/v2/generic_pinlet", "international_phone_number": "+34 627 91 04 67", "name": "Reforyuste", "opening_hours": {"open_now": false}, "place_id": "ChIJ_QJP2_h1QQ0Rv99ws-Z8i2Q", "plus_code": {"compound_code": "CWGR+MV Quijorna, Spain", "global_code": "8CGQCWGR+MV"}, "rating": 4.8, "reference": "ChIJ_QJP2_h1QQ0Rv99ws-Z8i2Q", "scope": "GOOGLE", "types": ["general_contractor", "point_of_interest", "establishment"], "user_ratings_total": 18, "vicinity": "Calle Navalcarnero, 23, portal 3 bajo a, Quijorna"}, {"business_status": "OPERATIONAL", "geometry": {"location": {"lat": 40.4270646, "lng": -4.057969}, "viewport": {"northeast": {"lat": 40.4285161802915, "lng": -4.056536669708497}, "southwest": {"lat": 40.4258182197085, "lng": -4.059234630291502}}}, "icon": "https://maps.gstatic.com/mapfiles/place_api/icons/v1/png_71/generic_business-71.png", "icon_background_color": "#7B9EB0", "icon_mask_base_uri": "https://maps.gstatic.com/mapfiles/place_api/icons/v2/generic_pinlet", "international_phone_number": "+34 918 16 80 29", "name": "Sonrisabucal", "opening_hours": {"open_now": false}, "photos": [{"height": 400, "html_attributions": ["<a href=\"https://maps.google.com/maps/contrib/100343877861732793504\">Sonrisabucal</a>"], "photo_reference": "AWn5SU4Lm5D09rkyR6PdAfeaJDE6F90Rxajd2LHb5vB6A7pUKrX-TbAvzV0_LplXqa25IRs8uYJg7tSl8f17EQnFPBLw73fNO2BZzu3hQEaS243Vv4I6R3wY3tVs2iIfgDU72pi77NuxWY60ZvUBFIMCrA2XrFpJnRWmEH1ar5fd2UEQNQXnzjBc2qFga7wLFhqbqHk5ORgyA6fWuDPuujjZ-7sjpYRiorwXrpQxt4GPGYSIeXenPb6MmAOIP6XIw7YDlD5aqSx71K0xMYxXH-DbkD5TfL0ud-CvYPQoUZ-3SejZBwT0YXZpl-s4o5V57px0HlQsmLRgMc0", "width": 400}], "place_id": "ChIJX-agcm6YQQ0RmM5UYYybqEk", "plus_code": {"compound_code": "CWGR+RR Quijorna, Spain", "global_code": "8CGQCWGR+RR"}, "rating": 3.9, "reference": "ChIJX-agcm6YQQ0RmM5UYYybqEk", "scope": "GOOGLE", "types": ["health", "point_of_interest", "establishment"], "user_ratings_total": 7, "vicinity": "Calle Navalcarnero, 28, Quijorna"}, {"business_status": "OPERATIONAL", "geometry": {"location": {"lat": 40.4269734, "lng": -4.056525}, "viewport": {"northeast": {"lat": 40.4283647802915, "lng": -4.055142369708499}, "southwest": {"lat": 40.4256668197085, "lng": -4.057840330291503}}}, "icon": "https://maps.gstatic.com/mapfiles/place_api/icons/v1/png_71/civic_building-71.png", "icon_background_color": "#7B9EB0", "icon_mask_base_uri": "https://maps.gstatic.com/mapfiles/place_api/icons/v2/civic-bldg_pinlet", "international_phone_number": "+34 918 15 53 49", "name": "Oficina Rural de Correos", "opening_hours": {"open_now": false}, "photos": [{"height": 2268, "html_attributions": ["<a href=\"https://maps.google.com/maps/contrib/110498914120509478542\">David Ramos</a>"], "photo_reference": "AWn5SU5Kzx-cBxIFpts_tlbVhhHyzPnfUJEoJVM68S-gaVXeKoOrrYKXTYeXM1CfudzeDdwV_rRtyKGDE3nNXB-i7LrkFxEhDCzrMKlhcz73DcYTD8uyMQqbbmqXLxZynOlmAM_nzZeqs08O9nIAVkutSsk9l15HhnmnmYiLWQPsl94tZPEA2UplAEz5TgxTDLsANdqWQnwH00ZO-UjVClwvf1blq-hJpfkDWfWeDEtpc0l2X0aJqvjmV_PNpqZbSUL265-TUCnFGkwcJuO7_3rhcju38HlS9_cd-oDjOqz8z7s7ukByPpZCYd-7DSie4UNsr-Gk24NYPJa4UWsH8roi8SaK0C2Juvf7p5ovsXzWnNSrlgdIrsw0aeUorVT9wQ-_FbilhPKvq-0YQ_Id7nVd_dYa_f8CCeHCBmshBO3W29Q_kn9m5CnkYgLyYVjW3ZXa_DygNPM9Hn8b9bc1RLRN10XqS20Okpci56vfTHy9ALwUvBOJJeoRiJ_5GZVcAOtB2ijJeCA4G3eqKTibey9vFXjo-L0mA3OfIXXFbbcMzzsNDziMHXIPcZb-KGjqzhoZIJ0USks7ks67Yb2XBR3M3AmD7Vguv6yJZef_6it3WruwTGvMF4F86PPVy1wgrSvt8EtK-w", "width": 4032}], "place_id": "ChIJrSlv1m2YQQ0RpdSQk89fM68", "plus_code": {"compound_code": "CWGV+Q9 Quijorna, Spain", "global_code": "8CGQCWGV+Q9"}, "rating": 1.4, "reference": "ChIJrSlv1m2YQQ0RpdSQk89fM68", "scope": "GOOGLE", "types": ["post_office", "finance", "point_of_interest", "establishment"], "user_ratings_total": 19, "vicinity": "Calle del Campo, 8, Quijorna"}, {"business_status": "OPERATIONAL", "geometry": {"location": {"lat": 40.42750829999999, "lng": -4.057566599999999}, "viewport": {"northeast": {"lat": 40.4288065802915, "lng": -4.056177019708498}, "southwest": {"lat": 40.4261086197085, "lng": -4.058874980291503}}}, "icon": "https://maps.gstatic.com/mapfiles/place_api/icons/v1/png_71/pharmacy-71.png", "icon_background_color": "#F88181", "icon_mask_base_uri": "https://maps.gstatic.com/mapfiles/place_api/icons/v2/pharmacy_pinlet", "international_phone_number": "+34 918 16 81 68", "name": "Farmacia Quijorna M T Lobo", "opening_hours": {"open_now": false}, "photos": [{"height": 1080, "html_attributions": ["<a href=\"https://maps.google.com/maps/contrib/117150777421486022655\">Farmacia Maria Teresa Lobo</a>"], "photo_reference": "AWn5SU7JzvbjP2QMcUT5sEB3jTJ_nsSwbie0thhBKDslSq7D3agNNV_gvcM3WLTlBoHliwGjOVMsOGWoYzRjudbxOMnSChSfwfRtg060m3TIE2f4rJ68lB4ORsWCU0HPbItSFdoZVh12Ra7RRFUmtG1P9QPL-YGtRErCfn7XuZHvb2pL-QsnycHXgpDflrOEfaJUjR-UO_MluDJLioxIjws3OqJt7uggdrgZkp44raQ4HtRhR0gtkGfgrpnZ508b8ssUdGI7G59ng3TKhpbH8ZAhKTwnup57q53iPAgsWD8cAuaI-jK1CrOL471nImEDfjiox9-_Jmp4udE", "width": 1920}], "place_id": "ChIJKT0waW6YQQ0RZ2ugOQk8kN8", "plus_code": {"compound_code": "CWHR+2X Quijorna, Spain", "global_code": "8CGQCWHR+2X"}, "rating": 3.7, "reference": "ChIJKT0waW6YQQ0RZ2ugOQk8kN8", "scope": "GOOGLE", "types": ["pharmacy", "health", "store", "point_of_interest", "establishment"], "user_ratings_total": 36, "vicinity": "2 Bis, Plaza del Doctor Santos Muñoz Burón, Quijorna"}, {"business_status": "OPERATIONAL", "geometry": {"location": {"lat": 40.425656, "lng": -4.0572696}, "viewport": {"northeast": {"lat": 40.4269670302915, "lng": -4.055898619708498}, "southwest": {"lat": 40.4242690697085, "lng": -4.058596580291502}}}, "icon": "https://maps.gstatic.com/mapfiles/place_api/icons/v1/png_71/school-71.png", "icon_background_color": "#7B9EB0", "icon_mask_base_uri": "https://maps.gstatic.com/mapfiles/place_api/icons/v2/school_pinlet", "international_phone_number": "+34 918 16 85 87", "name": "Centro educación", "place_id": "ChIJWS0Bz22YQQ0RfmDsAairxz0", "plus_code": {"compound_code": "CWGV+73 Quijorna, Spain", "global_code": "8CGQCWGV+73"}, "reference": "ChIJWS0Bz22YQQ0RfmDsAairxz0", "scope": "GOOGLE", "types": ["school", "point_of_interest", "establishment"], "vicinity": "Paseo de San Isidro, 4, Quijorna"}, {"business_status": "OPERATIONAL", "geometry": {"location": {"lat": 40.42558, "lng": -4.057419999999999}, "viewport": {"northeast": {"lat": 40.4270564802915, "lng": -4.055823769708498}, "southwest": {"lat": 40.4243585197085, "lng": -4.058521730291503}}}, "icon": "https://maps.gstatic.com/mapfiles/place_api/icons/v1/png_71/bank-71.png", "icon_background_color": "#909CE1", "icon_mask_base_uri": "https://maps.gstatic.com/mapfiles/place_api/icons/v2/bank-intl_pinlet", "international_phone_number": "+34 600 40 40 90", "name": "CaixaBank", "opening_hours": {"open_now": false}, "photos": [{"height": 1192, "html_attributions": ["<a href=\"https://maps.google.com/maps/contrib/116482671463484662384\">CaixaBank</a>"], "photo_reference": "AWn5SU7474EPWScfIJLpDnr35aHRSUCv3pWETn9_c6pgJI23X-mAX3F9uHG5wVEMUUn60xEr9lC-RvhjaoxzBO0dnzKMyslJJy2xSdFDVAlKrvosHW-upGLEmMIhIRn_C5M59yimDeB8Wi5h00kwmAtDaj4B9RBbxUFx8v0gt85lDrWkzx2MR2bpj_CpWcbkD_z3eJMzN288jaJtxLgK27ybx3BrGKdpnyi1sv1YT0JzP_cUUZiovuJ6vCOYjI08qwcfj1XttEogzMygDiy0Q85NiJa238njUNnBMUq1JdXhuE9bCjW6uSvxRp49Ls2YjzOhxtWbGi9koA0", "width": 2120}], "place_id": "ChIJHXXDzW2YQQ0RkvbNE-MrKj8", "plus_code": {"compound_code": "CWGV+62 Quijorna, Spain", "global_code": "8CGQCWGV+62"}, "rating": 2, "reference": "ChIJHXXDzW2YQQ0RkvbNE-MrKj8", "scope": "GOOGLE", "types": ["bank", "finance", "point_of_interest", "establishment"], "user_ratings_total": 16, "vicinity": "Paseo de San Isidro, 2, Quijorna"}, {"business_status": "OPERATIONAL", "geometry": {"location": {"lat": 40.4275333, "lng": -4.0580813}, "viewport": {"northeast": {"lat": 40.4288810802915, "lng": -4.056655169708497}, "southwest": {"lat": 40.42618311970851, "lng": -4.059353130291502}}}, "icon": "https://maps.gstatic.com/mapfiles/place_api/icons/v1/png_71/school-71.png", "icon_background_color": "#7B9EB0", "icon_mask_base_uri": "https://maps.gstatic.com/mapfiles/place_api/icons/v2/school_pinlet", "international_phone_number": "+34 656 16 22 65", "name": "Escuela Infantil El Jardín de los Sueños", "opening_hours": {"open_now": false}, "photos": [{"height": 2000, "html_attributions": ["<a href=\"https://maps.google.com/maps/contrib/117984739433273725881\">Escuela Infantil El Jardín de los Sueños</a>"], "photo_reference": "AWn5SU7JSyGI6mUkw2xwFamGpe-7V0sc0bgg17I17vSlU5ToEXARhRKs9o-WCNiOU93xbGZn5bUzHXSIyf8nOlhyTs64T8IL7OWbRC7sdl3AfgeVPeB1y7pqb2ANcUcQDkePIPp9wZdwsfJGTaDprubRJks6N6AvMdKoRKzypXNoVlVLn2PIyAJ-Ta30zFgfWNeGG0Ne75KnhaxeI4AmkoYKwpVkTyDxc3WiGeZU6lBbOjfqGkfiBwO8fVfapXZ3yWDq0Zx7JkrlM3fSelmfpBZwnfs65EtV4Ro5uD4b3Z2P3X28tJ_y_kXA2m9hcXMzOuC_qHEPR9BzAuw", "width": 1500}], "place_id": "ChIJNVAia26YQQ0RJdHlJmOGtQU", "plus_code": {"compound_code": "CWHR+2Q Quijorna, Spain", "global_code": "8CGQCWHR+2Q"}, "rating": 4.7, "reference": "ChIJNVAia26YQQ0RJdHlJmOGtQU", "scope": "GOOGLE", "types": ["school", "point_of_interest", "establishment"], "user_ratings_total": 3, "vicinity": "Plaza del Doctor Santos Muñoz Burón, 7, Quijorna"}, {"business_status": "OPERATIONAL", "geometry": {"location": {"lat": 40.4277048, "lng": -4.057812800000001}, "viewport": {"northeast": {"lat": 40.4290361802915, "lng": -4.056521069708497}, "southwest": {"lat": 40.42633821970851, "lng": -4.059219030291501}}}, "icon": "https://maps.gstatic.com/mapfiles/place_api/icons/v1/png_71/civic_building-71.png", "icon_background_color": "#7B9EB0", "icon_mask_base_uri": "https://maps.gstatic.com/mapfiles/place_api/icons/v2/civic-bldg_pinlet", "international_phone_number": "+34 918 16 83 77", "name": "SERVICIOS SOCIALES DE QUIJORNA", "opening_hours": {"open_now": false}, "place_id": "ChIJmd50am6YQQ0Rwr1XxZouOvk", "plus_code": {"compound_code": "CWHR+3V Quijorna, Spain", "global_code": "8CGQCWHR+3V"}, "rating": 5, "reference": "ChIJmd50am6YQQ0Rwr1XxZouOvk", "scope": "GOOGLE", "types": ["local_government_office", "point_of_interest", "establishment"], "user_ratings_total": 4, "vicinity": "Plaza del Doctor Santos Muñoz Burón, Quijorna"}, {"business_status": "OPERATIONAL", "geometry": {"location": {"lat": 40.4273643, "lng": -4.0551161}, "viewport": {"northeast": {"lat": 40.4286686302915, "lng": -4.053712519708498}, "southwest": {"lat": 40.42597066970851, "lng": -4.056410480291502}}}, "icon": "https://maps.gstatic.com/mapfiles/place_api/icons/v1/png_71/generic_business-71.png", "icon_background_color": "#7B9EB0", "icon_mask_base_uri": "https://maps.gstatic.com/mapfiles/place_api/icons/v2/generic_pinlet", "international_phone_number": "+34 918 16 80 57", "name": "Studio25", "opening_hours": {"open_now": false}, "photos": [{"height": 4032, "html_attributions": ["<a href=\"https://maps.google.com/maps/contrib/108146538042350644705\">Studio25</a>"], "photo_reference": "AWn5SU4tK049PI9L5EGBSSGMnP0lkf3YbTXLLu_ao-iCxduRlyXZMplrSYvbb4f8JxxnuSWN9bZvP5lgG8cLWltM5m7PTe7P6tOzVW4Rsb8lY9kTdG6vsVNR-2Y2X6rfIUxih5BAJxl2oYaRdTTlqRBFyqrYmMDeNbSRIxTGDSqqBA_L00p1eTVKIzwwvJqINei_81Td-4xH-7g29_iuLTEH9oJgVIWD1N_QIRE-0YBfrpWrB91kpHdcp-twUOtXOEjWQxQaoH5sWzKLKrUSFhLhT8Hm2-KUsJqnyCAh8aQAUwI2ml5EEJDDnDvywMiA-51KUrhM5FqLWMA", "width": 3024}], "place_id": "ChIJv0YlvG6YQQ0RYYoFRUCO1D0", "plus_code": {"compound_code": "CWGV+WX Quijorna, Spain", "global_code": "8CGQCWGV+WX"}, "rating": 4.4, "reference": "ChIJv0YlvG6YQQ0RYYoFRUCO1D0", "scope": "GOOGLE", "types": ["hair_care", "point_of_interest", "establishment"], "user_ratings_total": 296, "vicinity": "Avenida Villanueva de la Cañada, 3, Quijorna"}, {"business_status": "OPERATIONAL", "geometry": {"location": {"lat": 40.4282404, "lng": -4.0561611}, "viewport": {"northeast": {"lat": 40.4295408802915, "lng": -4.054771319708497}, "southwest": {"lat": 40.4268429197085, "lng": -4.057469280291501}}}, "icon": "https://maps.gstatic.com/mapfiles/place_api/icons/v1/png_71/generic_business-71.png", "icon_background_color": "#7B9EB0", "icon_mask_base_uri": "https://maps.gstatic.com/mapfiles/place_api/icons/v2/generic_pinlet", "international_phone_number": "+34 649 73 86 07", "name": "La Foto Belle", "opening_hours": {"open_now": true}, "photos": [{"height": 1281, "html_attributions": ["<a href=\"https://maps.google.com/maps/contrib/108367771501696010198\">La Foto Belle</a>"], "photo_reference": "AWn5SU4kSqHqMj3lsjJdYux8TP-UZOPLSC-VeqgcS9SahNRcw2WQ7TSEDNxhHvrGJWHVpt4UoGKe_V3KKnKAkXHyNvvUF6OIBLeVbBnpEY361G_YwkUEqJbHYK-4OTOEBuRHuwrrR6Mc6ZoeAcoBn4MoiNJYUILkQx6iQFoUqKbWQfi_mXFbmeO-NUtZAmFQyXUm40lV-EdB6zvVirfxnqVGtzkbZbkb1_xeT5vCc1hWnxBeQSD8qIt41K8BoT4cLz6oEktw3019H6SakIGiex5bRdr8Djno8GEJ-ae5qIV7i-VqX9htxWiOiNwL7u4okNOB7Y_7So_pwQI", "width": 1920}], "place_id": "ChIJ5fsj7m6YQQ0RkNRK8_PyM-k", "plus_code": {"compound_code": "CWHV+7G Quijorna, Spain", "global_code": "8CGQCWHV+7G"}, "reference": "ChIJ5fsj7m6YQQ0RkNRK8_PyM-k", "scope": "GOOGLE", "types": ["general_contractor", "point_of_interest", "establishment"], "vicinity": "Calle Quejigo, 3, Quijorna"}, {"business_status": "OPERATIONAL", "geometry": {"location": {"lat": 40.4291542, "lng": -4.0547552}, "viewport": {"northeast": {"lat": 40.4304610302915, "lng": -4.053356619708498}, "southwest": {"lat": 40.4277630697085, "lng": -4.056054580291502}}}, "icon": "https://maps.gstatic.com/mapfiles/place_api/icons/v1/png_71/generic_business-71.png", "icon_background_color": "#7B9EB0", "icon_mask_base_uri": "https://maps.gstatic.com/mapfiles/place_api/icons/v2/generic_pinlet", "international_phone_number": "+34 902 88 15 55", "name": "Promolex", "place_id": "ChIJ053TKW-YQQ0RDXaUnMWAAys", "plus_code": {"compound_code": "CWHW+M3 Quijorna, Spain", "global_code": "8CGQCWHW+M3"}, "reference": "ChIJ053TKW-YQQ0RDXaUnMWAAys", "scope": "GOOGLE", "types": ["lawyer", "point_of_interest", "establishment"], "vicinity": "Calle Quejigo, 35, Quijorna"}, {"business_status": "OPERATIONAL", "geometry": {"location": {"lat": 40.4290105, "lng": -4.053332699999999}, "viewport": {"northeast": {"lat": 40.4303786302915, "lng": -4.052053469708497}, "southwest": {"lat": 40.4276806697085, "lng": -4.054751430291502}}}, "icon": "https://maps.gstatic.com/mapfiles/place_api/icons/v1/png_71/generic_business-71.png", "icon_background_color": "#7B9EB0", "icon_mask_base_uri": "https://maps.gstatic.com/mapfiles/place_api/icons/v2/generic_pinlet", "international_phone_number": "+34 619 95 49 80", "name": "Editorial Leibros, S.L.U.", "photos": [{"height": 4032, "html_attributions": ["<a href=\"https://maps.google.com/maps/contrib/102352528045473827526\">Luis Lorenzo Sampedro</a>"], "photo_reference": "AWn5SU4zjjto6NhhqF5ylJ7yyZSJFU_DJxLVMBYyyWx0jVzQqXsjcM7I2at6n42g5BAFjgXuBFXVo0E5SfIQ2VoE2bOTfY3GsCo6TiO-KhgHekUqfsDGrgMXNJsdHvVoVef8q4nKOCjvWOPdkfC-FNr_TNAB6lfb_v-VTuW2iGR_5RaZASwsRh-FK0YPgf_e1x52DROGrEDJ_XefRLuTV2S-DBzM7x-AKLCK-vQKdWRuvkYKvh6fqpYIG0Xrgy5HmILhSgTw8orXUZ_xRURzrW5zXZMBG-0VL1aBgd38e22nRO0nUhEIL6ZBVC1oF2LN3sfKd6skisRmXxrHedHazcifwKkxxbu2UAtVd6lNTNGpcEvuPRxb-s3wKcuYs6reGxDDomH5bs-l-iVxYXl_-ZqsmvRdvu2-UzvnZq0G8WtG_-3DKFSOL2bcIkCB3lk_5Nxqb654K6jx_HocczRVR0t7ewXha0tkWtuI6Np8GMTRmaVhWFa0ZIrmzFDoF3xaj0Mkdz1e35XRiQoZCKWF9GRrY7_w2iEkTHIzPKhWJoZ6SUJRbBTqPLvuQSQ06FxGUR5BFgA-R-RsyzqOGxLJHyGu80Ry73srV1Q4Y57zma4cKPo0dX9II8EGI5JkPGCCiN23OtRURA", "width": 3024}], "place_id": "ChIJYUAiJ2mYQQ0RLN9LwLg6EE0", "plus_code": {"compound_code": "CWHW+JM Quijorna, Spain", "global_code": "8CGQCWHW+JM"}, "rating": 5, "reference": "ChIJYUAiJ2mYQQ0RLN9LwLg6EE0", "scope": "GOOGLE", "types": ["point_of_interest", "establishment"], "user_ratings_total": 12, "vicinity": "Calle la Rioja, 8, Quijorna"}, {"business_status": "OPERATIONAL", "geometry": {"location": {"lat": 40.427157, "lng": -4.051446399999999}, "viewport": {"northeast": {"lat": 40.42847778029149, "lng": -4.050096419708498}, "southwest": {"lat": 40.4257798197085, "lng": -4.052794380291503}}}, "icon": "https://maps.gstatic.com/mapfiles/place_api/icons/v1/png_71/generic_business-71.png", "icon_background_color": "#7B9EB0", "icon_mask_base_uri": "https://maps.gstatic.com/mapfiles/place_api/icons/v2/generic_pinlet", "international_phone_number": "+34 680 22 78 48", "name": "Club de fútbol Quijorna", "opening_hours": {"open_now": false}, "photos": [{"height": 1920, "html_attributions": ["<a href=\"https://maps.google.com/maps/contrib/109927227326565177119\">Manuel Gonzalez</a>"], "photo_reference": "AWn5SU7xtMxUu-0-Vk6P8W1x2HYaA8DnUK-1OTaBTYaLeZrgnS-hpev9rIPpZ3QSPZ-kFdWEGRc_EhXg5JhVFSRylBwQFqQv6bZLaXDosUhN00G7lfl8AM7w7OHAIxJU_O_1YI5MwU3V1jbCGOFA7LOOFnQ4RrL6yVFDkN0kdtqiO0oUEXI7BQNA3XG6rxnBVDmYQEL8YJdmqUJ2Gx3EfOQax2vfLQuWshgMxhsYcCKfXGCGVBzz-s7Evg_Vutn8vQpM_pyx-_0ZGwOE_e4X0_pysXsH7qWelIpBCNPlM8sNJ6EOgAIfwfSOuX9Sf4ZxRVwmX0ZwhXHeP_ywVpn5gslxHnx29kGjjnrfIXbR0pO1AINdUi8hS2gK6_BpZYtGubKcUcmQptCF3-WOPW0SGq9ujMlkEO6SlVTOLiUQKWNeEhqAfy1IlHnXRLXYuGr8kKm5NYst1N8qVApJM3OYihwTPJF6EhQwPiQEWJtgQvWfWuUlKxoi25w0Nfy5paGgZAILOrR3HREluNKQPwEg76pwuOIB8M05tlfrWcSJVAChlWyi9cy8IcPBmWfbYG__YuSY9i-JMPPSXhYMHz8XhiM_7f6xLIR3SE_lBtrZN1E2CgV6iyA4HTzTirnxrk2b9jsndm_nNHmF", "width": 2560}], "place_id": "ChIJCYmKY2mYQQ0RdG4iRDalGCM", "plus_code": {"compound_code": "CWGX+VC Quijorna, Spain", "global_code": "8CGQCWGX+VC"}, "rating": 3.9, "reference": "ChIJCYmKY2mYQQ0RdG4iRDalGCM", "scope": "GOOGLE", "types": ["point_of_interest", "establishment"], "user_ratings_total": 17, "vicinity": "Calle del Pinar, Quijorna"}, {"business_status": "OPERATIONAL", "geometry": {"location": {"lat": 40.43124580000001, "lng": -4.0574197}, "viewport": {"northeast": {"lat": 40.4325684302915, "lng": -4.056125319708498}, "southwest": {"lat": 40.4298704697085, "lng": -4.058823280291502}}}, "icon": "https://maps.gstatic.com/mapfiles/place_api/icons/v1/png_71/generic_business-71.png", "icon_background_color": "#7B9EB0", "icon_mask_base_uri": "https://maps.gstatic.com/mapfiles/place_api/icons/v2/generic_pinlet", "international_phone_number": "+34 902 05 06 50", "name": "Inteligencia Activa", "place_id": "ChIJH14K82-YQQ0R-W8-jEWrI60", "plus_code": {"compound_code": "CWJV+F2 Quijorna, Spain", "global_code": "8CGQCWJV+F2"}, "reference": "ChIJH14K82-YQQ0R-W8-jEWrI60", "scope": "GOOGLE", "types": ["point_of_interest", "establishment"], "vicinity": "Calle Principes de Asturias, 1, Quijorna"}]