[{"geometry": {"location": {"lat": 40.5964617, "lng": -3.5016452}, "viewport": {"northeast": {"lat": 40.60244857187934, "lng": -3.492189160304554}, "southwest": {"lat": 40.58910249695727, "lng": -3.509444479745053}}}, "icon": "https://maps.gstatic.com/mapfiles/place_api/icons/v1/png_71/geocode-71.png", "icon_background_color": "#7B9EB0", "icon_mask_base_uri": "https://maps.gstatic.com/mapfiles/place_api/icons/v2/generic_pinlet", "name": "Algete", "photos": [{"height": 4000, "html_attributions": ["<a href=\"https://maps.google.com/maps/contrib/113497895923388473140\">Antonio Fernandez Hernandez</a>"], "photo_reference": "AWn5SU5H-KSTcUhdPaC0Be7Pa8bIljm_luZkuTLBKzuuPu5ZZVaqPp8rE2veKfZAsBUNUgq2wyicViULv4cgTIE2jUWcR6I9aGYi1U23Kx-wCE-fxoWtvQsi1MDuj0IfVrP0g-Vu2_dxsDafFGSIDYHHN-xT5xn_eS54-VaucNZEnGj61rEPlBxeC1QHG5fRln2G_lEzgMvAcAN9jOPjqum4c2pbFSVnDTNB6F-kqbd1Gfn5idxK67Eij6q3QJOK48G5uc6vOrENOxzt94IWx-XYDCx5cbe1DzK9N8rduy8r3s3Ch75DYstmQDPF4OtY_ZU_LEv478O4Z2SPAQKo1RLNK41hNjJW0YKwFQVLy5V08UKkfbRNseeSH4tCaagK60ElPgiLOa8jyzWYIC472BgjjC468rXwVkQYdzoS5_QHFVBUvHrjuJ1Qz6MEeEZ3UB7bLE_Zg2hv5T_Pc-6NiRDbs_dHr-H7pdeGgNuTFgURCb9SnBOHj7uzbj697Tx9MWzVJq6zpS7jM62M-PBe4HQPaygDq0kiOz7EJLSQWkpIW-0STvGqCPAx37l_lxB3JCUgWn8QQ9P7LCgVjGfPobJsvjv6st3VtdKkw1tNB-m0FSbDcBxnEFFbi6KgpelLI1gRwdZVHjZb", "width": 2250}], "place_id": "ChIJ--WBXafMQw0RhyEXOO-RAqw", "reference": "ChIJ--WBXafMQw0RhyEXOO-RAqw", "scope": "GOOGLE", "types": ["locality", "political"], "vicinity": "Algete"}, {"business_status": "OPERATIONAL", "geometry": {"location": {"lat": 40.5967655, "lng": -3.4951376}, "viewport": {"northeast": {"lat": 40.59813293029151, "lng": -3.493643819708498}, "southwest": {"lat": 40.59543496970851, "lng": -3.496341780291502}}}, "icon": "https://maps.gstatic.com/mapfiles/place_api/icons/v1/png_71/lodging-71.png", "icon_background_color": "#909CE1", "icon_mask_base_uri": "https://maps.gstatic.com/mapfiles/place_api/icons/v2/hotel_pinlet", "international_phone_number": "+34 916 28 29 05", "name": "Hotel Algete", "opening_hours": {"open_now": false}, "photos": [{"height": 2000, "html_attributions": ["<a href=\"https://maps.google.com/maps/contrib/114848903527278904213\">Hotel Algete</a>"], "photo_reference": "AWn5SU56Wi-vkGMVlaUBWeIsO1kylhiEZalI5ZeUA8KjM-4UtijmsH5RmD1bTu9ik6-vsQgPD8MCGr8hYW5LgataYQCkHamnALGOqmMn4RldUE5-BR2y9Z9YK-6CO9G2KuryZ_N4QUEAJ5Mj5groaOCHXSKjrzAMu2kcQEAoES2sQ7EK4eYYd3WdMet868YeSz5V4UESHQA2auer0_XsFCXhciZX-TWSCstZjL-dbo6oSoJ2wu1wi9T9b6A1IDKt7JY8dTU-JE0J6bsPefLCs-ztUvtAslkB6L1J8c2b58vXfyYqqzUNzUIMPJd2ZQuGRiRnhE4TN9AdMxU", "width": 3008}], "place_id": "ChIJj5bA_FvLQw0Rz9O9ijh8zyM", "plus_code": {"compound_code": "HGW3+PW Algete, Spain", "global_code": "8CGRHGW3+PW"}, "price_level": 2, "rating": 4.1, "reference": "ChIJj5bA_FvLQw0Rz9O9ijh8zyM", "scope": "GOOGLE", "types": ["lodging", "point_of_interest", "establishment"], "user_ratings_total": 1266, "vicinity": "Calle San Roque, 25, Algete"}, {"business_status": "OPERATIONAL", "geometry": {"location": {"lat": 40.59630490000001, "lng": -3.4959466}, "viewport": {"northeast": {"lat": 40.59770043029151, "lng": -3.494600269708498}, "southwest": {"lat": 40.59500246970851, "lng": -3.497298230291502}}}, "icon": "https://maps.gstatic.com/mapfiles/place_api/icons/v1/png_71/bank-71.png", "icon_background_color": "#909CE1", "icon_mask_base_uri": "https://maps.gstatic.com/mapfiles/place_api/icons/v2/bank-intl_pinlet", "international_phone_number": "+34 916 28 25 97", "name": "BBVA", "opening_hours": {"open_now": false}, "photos": [{"height": 720, "html_attributions": ["<a href=\"https://maps.google.com/maps/contrib/114738695419741946657\">BBVA</a>"], "photo_reference": "AWn5SU75YpSYzV6Voj7j_sXKloMlFiYarPDmGLArNzQtWvn5EUCHpbQdFEF7fen7r1YdBw9KzY-m-U4kSG0crFZnbsqzJ_-osipIdcsAAWjgU4Qo_g7_lvczbp1ppd6yAeS5H6ckFeTn7sF7xTTYHB7KF8BxFO7SyrHxY2lPu4HTDQ5hxGfTuF67d1z9Y9OY6QIHzv-ZVt4xDlE8UGt8SljlVtpKnkoXNqcskidUXqMvWjQLmUPPBcMGYPZkjX-Su4v8ET-0jDISlVHIbrzq_apZ64CZaYFKW6JgZYexkwzhFMZdOgkR1lB4dtc_gJic_RU1kkQKlIMu", "width": 1280}], "place_id": "ChIJpczDRFnLQw0R6BAL4_awIew", "plus_code": {"compound_code": "HGW3+GJ Algete, Spain", "global_code": "8CGRHGW3+GJ"}, "rating": 2.3, "reference": "ChIJpczDRFnLQw0R6BAL4_awIew", "scope": "GOOGLE", "types": ["bank", "atm", "accounting", "finance", "point_of_interest", "establishment"], "user_ratings_total": 47, "vicinity": "Calle San Roque, 14, Algete"}, {"business_status": "OPERATIONAL", "geometry": {"location": {"lat": 40.6376966, "lng": -3.51763}, "viewport": {"northeast": {"lat": 40.6389842802915, "lng": -3.516318769708499}, "southwest": {"lat": 40.6362863197085, "lng": -3.519016730291502}}}, "icon": "https://maps.gstatic.com/mapfiles/place_api/icons/v1/png_71/generic_business-71.png", "icon_background_color": "#7B9EB0", "icon_mask_base_uri": "https://maps.gstatic.com/mapfiles/place_api/icons/v2/generic_pinlet", "international_phone_number": "+34 918 23 54 00", "name": "Algeco Construcciones Modulares", "opening_hours": {"open_now": false}, "photos": [{"height": 2448, "html_attributions": ["<a href=\"https://maps.google.com/maps/contrib/112418867413302071946\">ramon aragon rodriguez</a>"], "photo_reference": "AWn5SU7z17cH9rFmSJ3kNMsqE8mnBXJS_1YWF63fo4IOLYtkQY7a1QkGi3CKXJOMINY1CnbFc0m3_nbDiwqGnBZxQIJe-Wvcn8qSGnBN_Gts9rVfD9zVD41GR-1AKF4JFNWWQnPx-8kjenirwClu5s1I_oZLG64kMaM3DSdJtQ70oywhVSkY59TsetKfvA0p5WHutJ5vR3qIaCdwYeHkRJ_yiKg8iAkJljg9FbUL_Sv69znB-ouRiOxAeNcMWN-fTypWuQSuxHyZU5ZHaPSKg30FQb9oVa3TcoEcq0_C0-CP4yeGpsA9fp9TzaGz4F-eFSceQBHGy2o0FIVtCvIPjGHqE9j1YqPy1OClwerUqmkl0TuRfe2C5jkHeLWdLNjSRl9ypoowhGEpYuRP5MLSFs8a1AThWF_08jg4xOZZjX4Rr1nPNclAr4PZsFnXTLM9eshze8wH-ddmwFKhhiz5vuWJumaOTWys0Yom2aRyPEhd_nvKK56XGTIa5_UMM16p75dP7rAstbnsUfy8kZ9kUVKRTWOfAScoyjB6D7ZWiiPUvZsNTj_FD-Zd6hgjirESJjLaHaFCgHD3TglUuLTrEQPGbdSO0kXuuyLnOaZrO3dijIHMJRGz5KmcXRmYZmaHiy9uV2hGWg", "width": 3264}], "place_id": "ChIJE5hB0GvMQw0RqF9q_zv0TuU", "plus_code": {"compound_code": "JFQJ+3W Fuente el Saz de Jarama, Spain", "global_code": "8CGRJFQJ+3W"}, "rating": 4.2, "reference": "ChIJE5hB0GvMQw0RqF9q_zv0TuU", "scope": "GOOGLE", "types": ["point_of_interest", "establishment"], "user_ratings_total": 54, "vicinity": "Camino de las Bodegas, 4, Fuente el Saz de Jarama"}, {"business_status": "OPERATIONAL", "geometry": {"location": {"lat": 40.5976383, "lng": -3.502911699999999}, "viewport": {"northeast": {"lat": 40.59895933029151, "lng": -3.501414069708498}, "southwest": {"lat": 40.59626136970851, "lng": -3.504112030291502}}}, "icon": "https://maps.gstatic.com/mapfiles/place_api/icons/v1/png_71/civic_building-71.png", "icon_background_color": "#7B9EB0", "icon_mask_base_uri": "https://maps.gstatic.com/mapfiles/place_api/icons/v2/civic-bldg_pinlet", "international_phone_number": "+34 916 28 22 86", "name": "Algete Health Center", "opening_hours": {"open_now": false}, "photos": [{"height": 3036, "html_attributions": ["<a href=\"https://maps.google.com/maps/contrib/112586997308813566937\">Paolo Álvarez</a>"], "photo_reference": "AWn5SU67KyH_u6qRhox9AYVf3Cpqtmjc5jnH7N7W_z8W7vojUP_aW233jnw20yY1v4U84MWRjwNDYlmRLHtJkSwCC-4GENh2yATx7CjJwe30gl9Exby5Y4IefHa8QEJsj0J26MEMTCwrSbPOw8HQ9BbLu-D03n-ILrxjB4c7LAp2a2rq1neeecrenSpw0duDxdXqmBM6gML6wL00G73hwH-wFKU_BlSy0bxmfDl8U_LvzNnGYDA44y3CQ_0fm5vGcn_xBMgYCTdB5S05ezsHxXEKgS4Iar3jdpdyKO2mGqND3F4LwBh6ho2K99oWTcZWZw3lkWLR3hya3m_ZJfk5R0EoEM-qm3k-Ebekzin2hdf--OS4D_Rtmz4PDgAgYkaRnXmOcv8w23qXdB01p-OAvjS8XVfnVHMqz1Fn04C1Fw7XCVtSaex6HaAyiOvkWn4-abPZt07O--HKX2uFUjAjpqUFB0K_hRljdSZIbX-bkyl91Fh_Pdhi_un-B1CXFS2iDKos4Wp0nFoIoNBT3Fo6Ks5wdCfgcVuGm43C1k27ymbE15zQ0e6TUrZecZIH62mKcA3YG7XDSQJ942uyZsUtAsZHo8dyrKDN7H_0OzDXFZM3sLoVOyEcy1m0extV0MZ6o04d-G3ZKA", "width": 4048}], "place_id": "ChIJIR8BPqHMQw0RRjc5cDgrCSw", "plus_code": {"compound_code": "HFXW+3R Algete, Spain", "global_code": "8CGRHFXW+3R"}, "rating": 2.1, "reference": "ChIJIR8BPqHMQw0RRjc5cDgrCSw", "scope": "GOOGLE", "types": ["health", "point_of_interest", "establishment"], "user_ratings_total": 195, "vicinity": "Calle de Valdeamor, 1, Algete"}, {"business_status": "OPERATIONAL", "geometry": {"location": {"lat": 40.6000244, "lng": -3.499456}, "viewport": {"northeast": {"lat": 40.6013894302915, "lng": -3.498072769708498}, "southwest": {"lat": 40.5986914697085, "lng": -3.500770730291502}}}, "icon": "https://maps.gstatic.com/mapfiles/place_api/icons/v1/png_71/generic_business-71.png", "icon_background_color": "#7B9EB0", "icon_mask_base_uri": "https://maps.gstatic.com/mapfiles/place_api/icons/v2/generic_pinlet", "international_phone_number": "+34 916 29 25 11", "name": "GESA Asesoría Fiscal en la Zona Norte de Madrid (Algete)", "opening_hours": {"open_now": false}, "place_id": "ChIJY-qtm1_LQw0R8Mzgk7XF9_A", "plus_code": {"compound_code": "JG22+26 Algete, Spain", "global_code": "8CGRJG22+26"}, "rating": 1, "reference": "ChIJY-qtm1_LQw0R8Mzgk7XF9_A", "scope": "GOOGLE", "types": ["accounting", "finance", "point_of_interest", "establishment"], "user_ratings_total": 1, "vicinity": "Calle Limón Verde, 49, Algete"}, {"business_status": "OPERATIONAL", "geometry": {"location": {"lat": 40.6269195, "lng": -3.4721832}, "viewport": {"northeast": {"lat": 40.6281078302915, "lng": -3.471322969708498}, "southwest": {"lat": 40.6254098697085, "lng": -3.474020930291501}}}, "icon": "https://maps.gstatic.com/mapfiles/place_api/icons/v1/png_71/school-71.png", "icon_background_color": "#7B9EB0", "icon_mask_base_uri": "https://maps.gstatic.com/mapfiles/place_api/icons/v2/school_pinlet", "international_phone_number": "+34 916 20 51 98", "name": "Colegio Árula", "opening_hours": {"open_now": false}, "photos": [{"height": 1058, "html_attributions": ["<a href=\"https://maps.google.com/maps/contrib/112551556988924520792\">Colegio Árula</a>"], "photo_reference": "AWn5SU4sL7hSYXrsn758fVDc4jLaag8_FhTBPyGTpPChKTj5D0OlZHg0sCGs_gdGXYirTYA8xgmIbAHTsObLJuCdECtb0DYS4jGU5W9QMGUNjVS5NSW2cFFx5JU9qp12JIuOBkt0cBcZ5TZQ3H0MbwksNBFUe1_DaTpg2guaInYhheRxt9lCOT-3g5PhCZ1JNdenPv2iuFmdGqkx5Gwaz5aMl7kwuAtm7Fq3ccqgmXx8tI-B60PEnen21aAI0fpcUcurADtE0QaHYduixB7gDcTAZiY9vjQYkdWOiKApLvvQFzoeFuOOdbLVBbefF6yoC4645NmuXDMT", "width": 2973}], "place_id": "ChIJE9Ilm07KQw0R0GiT3ixoJHw", "plus_code": {"compound_code": "JGGH+Q4 Alalpardo, Spain", "global_code": "8CGRJGGH+Q4"}, "reference": "ChIJE9Ilm07KQw0R0GiT3ixoJHw", "scope": "GOOGLE", "types": ["school", "point_of_interest", "establishment"], "vicinity": "Calle de Alcalá, 23, Alalpardo"}, {"business_status": "OPERATIONAL", "geometry": {"location": {"lat": 40.62322109999999, "lng": -3.5876929}, "viewport": {"northeast": {"lat": 40.6246687302915, "lng": -3.586277819708497}, "southwest": {"lat": 40.6219707697085, "lng": -3.588975780291502}}}, "icon": "https://maps.gstatic.com/mapfiles/place_api/icons/v1/png_71/school-71.png", "icon_background_color": "#7B9EB0", "icon_mask_base_uri": "https://maps.gstatic.com/mapfiles/place_api/icons/v2/school_pinlet", "international_phone_number": "+34 916 59 63 03", "name": "Colegio Internacional SEK-Ciudalcampo", "opening_hours": {"open_now": false}, "photos": [{"height": 1536, "html_attributions": ["<a href=\"https://maps.google.com/maps/contrib/100497509775748619094\">Colegio Internacional SEK-Ciudalcampo</a>"], "photo_reference": "AWn5SU6YHKo2YfYXOTENIhMapn8UXBxF0WNFWjAbMnvMcxNtCwBDInG-T1KWtyfmOE92JYY_ptDtwuph4qX9HlykSCgShA9gBAX86famkMNynwlSr9AtVis70EwTijOsSYV8vEGJJXikUfNZ9a8VFizD_hOeXs5DnsJWJmY03U54H1Es3gi7yVxu5gllN4fCOVfxWWNnnFD3BVhhe7SHKM1ZMQPPYXOVpiJE3jMKW7JNM2h6iOFsE3A0kBoPlvysmFsbXa8W2xmJjHsA5EFIhkCq9-jW7oyeBceXX-v7Daj_7KlLSptBdvtUZCw4GNd4GrTJ-N0cQUOkWm8", "width": 2048}], "place_id": "ChIJTYM7NHzSQw0RceoGBXztQkI", "plus_code": {"compound_code": "JCF6+7W Santo Domingo, Spain", "global_code": "8CGRJCF6+7W"}, "reference": "ChIJTYM7NHzSQw0RceoGBXztQkI", "scope": "GOOGLE", "types": ["primary_school", "secondary_school", "school", "point_of_interest", "establishment"], "vicinity": "Urbanización, Paseo de las Perdices, 2"}, {"business_status": "OPERATIONAL", "geometry": {"location": {"lat": 40.58800919999999, "lng": -3.550925799999999}, "viewport": {"northeast": {"lat": 40.58926973029149, "lng": -3.549678769708498}, "southwest": {"lat": 40.58657176970849, "lng": -3.552376730291501}}}, "icon": "https://maps.gstatic.com/mapfiles/place_api/icons/v1/png_71/generic_business-71.png", "icon_background_color": "#7B9EB0", "icon_mask_base_uri": "https://maps.gstatic.com/mapfiles/place_api/icons/v2/generic_pinlet", "international_phone_number": "+34 916 29 03 16", "name": "El Tesoro materiales de construcción y saneamientos SL", "opening_hours": {"open_now": false}, "photos": [{"height": 587, "html_attributions": ["<a href=\"https://maps.google.com/maps/contrib/106531900320933615732\">El Tesoro materiales de construcción y saneamientos SL</a>"], "photo_reference": "AWn5SU6muczYJQq4Ba3ahuv8171JotwQABKmAYsxLxL6R3RJgOwoCYFzWdX6Ku6fTyf0ume0DBcIUmaZXLKcSNJPDpHNuVm94_fOW_kP8ePL4FtUNIzJSivJfLsBpGZn1d-5dPFanCrkrrzAw3w3tQt-8I6MnjDFScxcnDb0fuMvH1gZctJ7-ZRqXlfKuKS7GxcjoLvjBtNdMqayRJwiQ1mIYBScF9RzVN1aCoQhORngL-Vgr4uKTESGgw80hO0dS-WqVxU_GY9zrGiUNkY683GW2Yyfv9m4qnbK5SZjewP_tZXcdRHN3p5FqSPudJHjgbzyfuN4maUvceA", "width": 571}], "place_id": "ChIJh3lJu1nLQw0RT5eRta6TQDY", "plus_code": {"compound_code": "HCQX+6J Algete, Spain", "global_code": "8CGRHCQX+6J"}, "rating": 4.8, "reference": "ChIJh3lJu1nLQw0RT5eRta6TQDY", "scope": "GOOGLE", "types": ["plumber", "hardware_store", "home_goods_store", "general_contractor", "point_of_interest", "store", "establishment"], "user_ratings_total": 241, "vicinity": "Avenida Nicasio Martin, 6, Algete"}, {"business_status": "OPERATIONAL", "geometry": {"location": {"lat": 40.58849339999999, "lng": -3.5454932}, "viewport": {"northeast": {"lat": 40.58969743029149, "lng": -3.544063219708498}, "southwest": {"lat": 40.5869994697085, "lng": -3.546761180291501}}}, "icon": "https://maps.gstatic.com/mapfiles/place_api/icons/v1/png_71/generic_business-71.png", "icon_background_color": "#7B9EB0", "icon_mask_base_uri": "https://maps.gstatic.com/mapfiles/place_api/icons/v2/generic_pinlet", "international_phone_number": "+34 916 28 14 28", "name": "BARIN Aspiración y Filtración Industrial", "opening_hours": {"open_now": false}, "photos": [{"height": 450, "html_attributions": ["<a href=\"https://maps.google.com/maps/contrib/110515226858673468577\">BARIN Aspiración y Filtración Industrial</a>"], "photo_reference": "AWn5SU4PbwDvVRgIYMjjW9lJgk9mmJtspRdK16rMjQWWD-7tYktv1vgk-yKw4GYpFPX0S_22ETjL4UM7jrJJddU9CP-7hU71FIxTBypDje9vwY451gD6zrnFyBn-K5YkjXOfMacY4OGeLV2zFc-4sUeToJss0XedbKpRlVhjBNZm_O4ScCVj9f0iETSz3TUCoj_eImqP10zXXOrLPjbfVLL9FpvSCbTAqaPC3-T-oYR8Y9r9N29ElGzL2e6iLO6LXIQsPQt6DNw9BNfcVnNvTEQ1tavxQ9N-BiaXMmoZERmuIXgNodNqRwHLTU2RN3a1GHhdltNdEq2RIvo", "width": 450}], "place_id": "ChIJK9l3uijNQw0RkvJdC70ag_c", "plus_code": {"compound_code": "HFQ3+9R Algete, Spain", "global_code": "8CGRHFQ3+9R"}, "rating": 5, "reference": "ChIJK9l3uijNQw0RkvJdC70ag_c", "scope": "GOOGLE", "types": ["point_of_interest", "establishment"], "user_ratings_total": 2, "vicinity": "Calle Cañamarejo, 1, Algete"}, {"business_status": "OPERATIONAL", "geometry": {"location": {"lat": 40.58879509999999, "lng": -3.542122}, "viewport": {"northeast": {"lat": 40.5901230302915, "lng": -3.540754019708498}, "southwest": {"lat": 40.5874250697085, "lng": -3.543451980291502}}}, "icon": "https://maps.gstatic.com/mapfiles/place_api/icons/v1/png_71/shopping-71.png", "icon_background_color": "#4B96F3", "icon_mask_base_uri": "https://maps.gstatic.com/mapfiles/place_api/icons/v2/shopping_pinlet", "international_phone_number": "+34 913 35 19 00", "name": "BMW BYmyCAR Madrid - Algete", "opening_hours": {"open_now": false}, "photos": [{"height": 894, "html_attributions": ["<a href=\"https://maps.google.com/maps/contrib/113397039444032694961\">BMW BYmyCAR Madrid - Algete</a>"], "photo_reference": "AWn5SU6LB0yAYS_mmG_8TV4J0hOKWl23K6N7uolhsPQAhfPcDQIifdmSkLZhP-Jzq7MPVrksNr8x-uLa2H-k4EcbajJPNZelT8_G5yPFBAaySRvenbNc6l6yteQv3cuOSDCxh7iHc70XtkgS5dZvNveg7V39V-gDSFEW2rSdeKiqec8Zda_gEaSRKkJarWXFFCSjpuRGjJ6rHrF8mpU2UBlj_9q3qjCe8-GvM7x0e_Y6hddSy-K7iwwiywBgvCohbDew2sGrpTPOGIq9wd3TgDOQ5sgV-KJXF3DlVsXrx1DE-jrSKAvCL1vfzgCGKhHy5yTRN3lWpPwglUI", "width": 1589}], "place_id": "ChIJxfRHjYxJQg0ROXg7ksOpM7c", "plus_code": {"compound_code": "HFQ5+G5 Prado Norte, Spain", "global_code": "8CGRHFQ5+G5"}, "rating": 4.1, "reference": "ChIJxfRHjYxJQg0ROXg7ksOpM7c", "scope": "GOOGLE", "types": ["car_dealer", "car_repair", "point_of_interest", "store", "establishment"], "user_ratings_total": 1205, "vicinity": "Pol. Industrial Río de Janeiro, C/ de la Tejera, 2, Algete"}, {"business_status": "OPERATIONAL", "geometry": {"location": {"lat": 40.6054044, "lng": -3.5342689}, "viewport": {"northeast": {"lat": 40.6067157302915, "lng": -3.532935919708498}, "southwest": {"lat": 40.60401776970851, "lng": -3.535633880291502}}}, "icon": "https://maps.gstatic.com/mapfiles/place_api/icons/v1/png_71/generic_business-71.png", "icon_background_color": "#7B9EB0", "icon_mask_base_uri": "https://maps.gstatic.com/mapfiles/place_api/icons/v2/generic_pinlet", "international_phone_number": "+34 699 81 25 38", "name": "Centro Canino Prado Norte", "opening_hours": {"open_now": false}, "place_id": "ChIJj9D4lubMQw0R_RcCW5AzLQk", "plus_code": {"compound_code": "JF48+57 Algete, Spain", "global_code": "8CGRJF48+57"}, "rating": 4.6, "reference": "ChIJj9D4lubMQw0R_RcCW5AzLQk", "scope": "GOOGLE", "types": ["point_of_interest", "establishment"], "user_ratings_total": 24, "vicinity": "Camino del Espinar, Algete"}, {"business_status": "OPERATIONAL", "geometry": {"location": {"lat": 40.607116, "lng": -3.578874}, "viewport": {"northeast": {"lat": 40.6084644302915, "lng": -3.577552969708499}, "southwest": {"lat": 40.6057664697085, "lng": -3.580250930291502}}}, "icon": "https://maps.gstatic.com/mapfiles/place_api/icons/v1/png_71/generic_business-71.png", "icon_background_color": "#7B9EB0", "icon_mask_base_uri": "https://maps.gstatic.com/mapfiles/place_api/icons/v2/generic_pinlet", "international_phone_number": "+34 916 58 90 24", "name": "La Quinta de Jarama", "opening_hours": {"open_now": false}, "photos": [{"height": 2731, "html_attributions": ["<a href=\"https://maps.google.com/maps/contrib/104296871204241350368\">La Quinta de Jarama</a>"], "photo_reference": "AWn5SU5kWWuanDVDgQ30kL9hUIWSo0O6Vldknjj78APwKSrLNvzoizJ7bGzfCPgvJFkEjzmFG_-NNUF2sr4nc0eOp-8dxrwMvHP6XLxqEQCG5U89C58jA21bSB78Ou553-H4skc2f_BlM2o7u-PMYUH-MkejHCBYcQpJ5AZ03rY6UYII3LFgf9hmV7JBb3PIMdwKkSeD7cN_fCw38cn4S8GfNmzqwj0_BJqpWvr8EWXOMsZm50m4NHFsjQbcjTyYl64TQhJS6M3Fi8HxX3M4k0vfpe32Cch3RpglwWv-tWTRFZZFIQ348fxorMHGEZv5i1-af030I2gUTcY", "width": 2048}], "place_id": "ChIJeQSxtGPNQw0RmEtPSE4QBCk", "plus_code": {"compound_code": "JC4C+RF Madrid, Spain", "global_code": "8CGRJC4C+RF"}, "rating": 4.6, "reference": "ChIJeQSxtGPNQw0RmEtPSE4QBCk", "scope": "GOOGLE", "types": ["point_of_interest", "establishment"], "user_ratings_total": 1744, "vicinity": "A1 CARRETERA DE BURGOS, KM.26 Ctra. de Burgos, km.26, Madrid"}, {"business_status": "OPERATIONAL", "geometry": {"location": {"lat": 40.6353687, "lng": -3.5128889}, "viewport": {"northeast": {"lat": 40.6366992802915, "lng": -3.511533769708498}, "southwest": {"lat": 40.6340013197085, "lng": -3.514231730291502}}}, "icon": "https://maps.gstatic.com/mapfiles/place_api/icons/v1/png_71/pharmacy-71.png", "icon_background_color": "#F88181", "icon_mask_base_uri": "https://maps.gstatic.com/mapfiles/place_api/icons/v2/pharmacy_pinlet", "international_phone_number": "+34 916 20 02 62", "name": "Farmacia Bellido Alonso", "opening_hours": {"open_now": false}, "photos": [{"height": 422, "html_attributions": ["<a href=\"https://maps.google.com/maps/contrib/113475022938605334760\">Farmacia Bellido Alonso</a>"], "photo_reference": "AWn5SU6AB8o5e_me2-KqbgJ2DE0A0ho_UZ3rNZL3MDrlDILycYUgO3v71a2rGP52O0xfb7lJw7M5TI0knP43gRvLqC2h62seYL9GKXPcgo7HpeZaudbIo7y43ZvZPCvunoMOlkm3FpEDqrZQZ1f2-NODYZLRQ0Q5FED2RE7iRWLLl-M8WKAYRQUlNy6SyOhRooeuba1-D-M20Pd8magvDxR66DBj5RKML3jK1QzIIw7QUcj0GbZxysUF7kzA2AjFOuDrcMak1f-8JTBtPbvd5cAC6s5sLIF-4jn31UxvTS12GL_HGuqPkpvnNkPiN-TOGS2YrcjoIs7BIS4", "width": 750}], "place_id": "ChIJ0QnVQ27MQw0RLzvT-okcfbU", "plus_code": {"compound_code": "JFPP+4R Fuente el Saz de Jarama, Spain", "global_code": "8CGRJFPP+4R"}, "rating": 4.5, "reference": "ChIJ0QnVQ27MQw0RLzvT-okcfbU", "scope": "GOOGLE", "types": ["pharmacy", "health", "point_of_interest", "store", "establishment"], "user_ratings_total": 116, "vicinity": "Calle Martina García, 22, Fuente el Saz de Jarama"}, {"business_status": "OPERATIONAL", "geometry": {"location": {"lat": 40.6301136, "lng": -3.4730502}, "viewport": {"northeast": {"lat": 40.63147523029151, "lng": -3.471657369708498}, "southwest": {"lat": 40.62877726970851, "lng": -3.474355330291502}}}, "icon": "https://maps.gstatic.com/mapfiles/place_api/icons/v1/png_71/generic_business-71.png", "icon_background_color": "#7B9EB0", "icon_mask_base_uri": "https://maps.gstatic.com/mapfiles/place_api/icons/v2/generic_pinlet", "international_phone_number": "+34 916 20 57 63", "name": "Clinica Veterinaria Alalpardo", "opening_hours": {"open_now": false}, "photos": [{"height": 498, "html_attributions": ["<a href=\"https://maps.google.com/maps/contrib/113935528482512660376\">Clinica Veterinaria Alalpardo</a>"], "photo_reference": "AWn5SU4EjQ4og8njbjiLIk1CNCnmvTawXMD3d0xu2BRlVlxB-3gDp7RUdg9ifVnjF3SsKO6xGUFT5OrYIHB1ojbCsgzz7tchGqZDDct7pM4BEa2bTche8nolIbtWhQEK-oqQGSxDP5iIUXbpeu5fAABp6sufssoAqCECHC-J8k2naZ3_HaxtrD3XT1s7E5GAKb5VyUKDYD7luO97LLIaA6J4KKksc8tFvdX874DyGtwvdjzkAO5qxuV-Aemb5NpZhVpEiAzmlZ81TPeGLmp-kt0UbQFMjZtL8OA3OEKu_OP-6tdC-PmNX5vAfuXxnxcYR7aC2ExvxruYJBQ", "width": 800}], "place_id": "ChIJBdUUTqTLQw0RWwTRZA1ut3Y", "plus_code": {"compound_code": "JGJG+2Q Alalpardo, Spain", "global_code": "8CGRJGJG+2Q"}, "rating": 4.8, "reference": "ChIJBdUUTqTLQw0RWwTRZA1ut3Y", "scope": "GOOGLE", "types": ["veterinary_care", "point_of_interest", "establishment"], "user_ratings_total": 184, "vicinity": "Calle de Carlos Martín Álvarez, 37, Alalpardo"}, {"business_status": "OPERATIONAL", "geometry": {"location": {"lat": 40.6296617, "lng": -3.5155931}, "viewport": {"northeast": {"lat": 40.6310678302915, "lng": -3.514332169708498}, "southwest": {"lat": 40.6283698697085, "lng": -3.517030130291502}}}, "icon": "https://maps.gstatic.com/mapfiles/place_api/icons/v1/png_71/school-71.png", "icon_background_color": "#7B9EB0", "icon_mask_base_uri": "https://maps.gstatic.com/mapfiles/place_api/icons/v2/school_pinlet", "international_phone_number": "+34 916 20 08 25", "name": "Public school Martina García", "opening_hours": {"open_now": false}, "photos": [{"height": 2268, "html_attributions": ["<a href=\"https://maps.google.com/maps/contrib/113442560321346712786\">Pablo Romero López-Romero</a>"], "photo_reference": "AWn5SU65FSehXv_wbDQrQCBslGQhqFkcCqkvsO0ZFC3Pa5TnN8B0Pt7vk4uS1Zh03Pjdo2nBnVpVHIA7GXGYBT9ojKLCYKoRRXQgAvVIuwTGYcuqdEL-gjCjuy7lRTxMHjc6LO5qvFKB-qyzZ3w-DE9ETPDu8kSqguvidP1fbHs7890_nHIIT4U5P4vRBuxVLZmFXVRS27aeabMbLNiGARxujL2qsjKpPUdRPZe3weEeQtXlfVjdcOEAljyio6x6uRMeS9pXzgfIQFLZL9Cori__FUUSmNE47WOKvNjRum-FR4k6bgO-Y_XWcr0uEl1b-pqVOtMir5my5bWZEHhuH6LoWnYAwmj-b5nKDItKyX8nI0rIYjsPbvieQABARcV81uQm83BE5fd_BEhU2MEb7RoZ2QplW20T1YxAR07VGlHA7tkKtuOKyPr7063cH5tVK3ogfi_thadfbXHIiiUJf_EnHwPFfhUACHsrzTNa9RegNryg25IMxhbdxPTgAGcQ-v0Ve90CZ7Mw9joVi2d3GupXOB2tMlLnb-d9mHqmTCK2xAItkytdyFaQa223Emtmbfd09kPuq7GQ5Kg-DzCzRV3G0_4wEMOG-sykLx3rQAR581su6yXIxxsk9QMPUAPTktvNHB_tn1sS", "width": 4032}], "place_id": "ChIJp7e8fWbMQw0ROEYmyNwqNic", "plus_code": {"compound_code": "JFHM+VQ Fuente el Saz de Jarama, Spain", "global_code": "8CGRJFHM+VQ"}, "reference": "ChIJp7e8fWbMQw0ROEYmyNwqNic", "scope": "GOOGLE", "types": ["school", "point_of_interest", "establishment"], "vicinity": "Avenida Julián Sánchez, 17, Fuente el Saz de Jarama"}, {"business_status": "OPERATIONAL", "geometry": {"location": {"lat": 40.6461099, "lng": -3.5110263}, "viewport": {"northeast": {"lat": 40.6474592302915, "lng": -3.509596319708498}, "southwest": {"lat": 40.6447612697085, "lng": -3.512294280291502}}}, "icon": "https://maps.gstatic.com/mapfiles/place_api/icons/v1/png_71/generic_business-71.png", "icon_background_color": "#7B9EB0", "icon_mask_base_uri": "https://maps.gstatic.com/mapfiles/place_api/icons/v2/generic_pinlet", "international_phone_number": "+34 915 60 82 54", "name": "Comercial Albe", "opening_hours": {"open_now": false}, "photos": [{"height": 2268, "html_attributions": ["<a href=\"https://maps.google.com/maps/contrib/102297760495097566769\">Borja Eugui</a>"], "photo_reference": "AWn5SU7kTFPdlwLAcvIBWROEPFLgyN4Ok3-JHc7ONPxUEWO5iLal2vmLILO_lON-z3XzBZiMea0PXdwl2zzfrpe-FbkvzLVkhBjcmDRtHfU4Qs-JCmabGg9neTcCt2MoXBAiU2ODIF9JGlj8fw1peoAN5rvcv6f3cXcRKIj-yxxLSLkDha3mtPKqRz0OV7B4dbXax41MJKSqV56xqMPAi6LrvaEJX-ma5pSse50eQ30tKXSGwrPjienJJNSl-_pQOk7PfDmlh0IijI5cCPvf7KDJxev9LuDenRzErqdfIr0NWWt1-UviA81uxVxX_vg0jOrfSnA0Pt3oXmTRKXI5aOrS-i-5NSIAEeTIXBdT4ar6hIo6CNacpkHnQRwIB4TOglQT6qAzJuO5cFCSIrz1CgQgDbSCxPtZObQ_wvO3GakhNoZcwcNSsTjLdNTGLHNZv_wvUCKUr6D2hKFcHh0J9LeMQh-hHfq9U3Tjys5TdKFAsR2DS9z5L9do57ALzjswwjB598icTeEUnoMeMsrpzNddPRIqiMdc4zx4nVfBkLlia7EM2GPHymMDySkDlNdCxUzAl2QmGJ7mpMGmI9PNUImVWTD770kiJCzsWfao0dIGklGU233AO4aqsZXpCA7cE3CcA5MNZEFf", "width": 4032}], "place_id": "ChIJGf0GDr8nQg0Ru6vZ5Z41NpE", "plus_code": {"compound_code": "JFWQ+CH Fuente el Saz de Jarama, Spain", "global_code": "8CGRJFWQ+CH"}, "rating": 3.4, "reference": "ChIJGf0GDr8nQg0Ru6vZ5Z41NpE", "scope": "GOOGLE", "types": ["point_of_interest", "food", "establishment"], "user_ratings_total": 21, "vicinity": "Calle Torrelaguna, 79, Fuente el Saz de Jarama"}, {"business_status": "OPERATIONAL", "geometry": {"location": {"lat": 40.6335637, "lng": -3.514337099999999}, "viewport": {"northeast": {"lat": 40.63495218029149, "lng": -3.512984369708497}, "southwest": {"lat": 40.63225421970849, "lng": -3.515682330291501}}}, "icon": "https://maps.gstatic.com/mapfiles/place_api/icons/v1/png_71/school-71.png", "icon_background_color": "#7B9EB0", "icon_mask_base_uri": "https://maps.gstatic.com/mapfiles/place_api/icons/v2/school_pinlet", "international_phone_number": "+34 916 20 17 93", "name": "Biblioteca Pública Municipal de Fuente el Saz de Jarama.", "opening_hours": {"open_now": false}, "photos": [{"height": 4000, "html_attributions": ["<a href=\"https://maps.google.com/maps/contrib/107387282961839177400\">Pablo Trinidad</a>"], "photo_reference": "AWn5SU4DG6EiXz_jRvlQYfXWvNWkNAARxggt35nHA2YCoh3v5vvUavNk4g2rtUJZecpuCbUggpxdLY8BkZuO4SljXcncnKqaC629TEaaD5yr1JxunhJhY2wHb3be4-0rlopMlHqLv0InlrL6c6zGcjGHkucPEY8OffgUqS8D0BQyiUAMi0Fb0dTI8Y3mAZqDP6u2Jz8WDuvTE9WKnUio6WuYWh0RQNGuH-swfbxHsOBLwxHAok53JtW_Kl9HMZO1QQhAOtTNUnrGwsfZEJPyLqVlylFuUTzZ9Vi-R9x5ksefEaUHbpZqfS7FngzbkKTq9xDCZtOKJ1erzRcjv60MqFe6j2_swmDiWUoTHQI07QpdHshnkfnnOdZPbJu9VUjtz0edGWsDj_4sfJ1rETRTzKcYRS1laB-Iy6N37V2n8MhB9K0CQdG5CbOvu2O2BiYtDXR7w75Ah0Y92AOcPR6NY5qkGU5IT8zYbElxLJUNNu25uQFOWDHeRnnYP9gl9_d0R35CwqVzZIDHYqYlMd1JAsrGWV7-fm8k18VxcCB3aVPM2jJwZdNhsCNFj5txL-Z8r4g2c32PgYwgGuxkYYCkde4L79bP5f9UQWlEeVJm3o0T5oIG00tVMFsqxgLdotvqFh7EW26loA", "width": 3000}], "place_id": "ChIJL5HQGF3MQw0R-YBcKBxPflU", "plus_code": {"compound_code": "JFMP+C7 Fuente el Saz de Jarama, Spain", "global_code": "8CGRJFMP+C7"}, "rating": 4.3, "reference": "ChIJL5HQGF3MQw0R-YBcKBxPflU", "scope": "GOOGLE", "types": ["library", "point_of_interest", "establishment"], "user_ratings_total": 28, "vicinity": "Avenida del Pilar, 3, Fuente el Saz de Jarama"}, {"business_status": "OPERATIONAL", "geometry": {"location": {"lat": 40.63868829999999, "lng": -3.5176726}, "viewport": {"northeast": {"lat": 40.6400257802915, "lng": -3.516264169708498}, "southwest": {"lat": 40.6373278197085, "lng": -3.518962130291502}}}, "icon": "https://maps.gstatic.com/mapfiles/place_api/icons/v1/png_71/generic_business-71.png", "icon_background_color": "#7B9EB0", "icon_mask_base_uri": "https://maps.gstatic.com/mapfiles/place_api/icons/v2/generic_pinlet", "international_phone_number": "+34 916 20 12 11", "name": "Cerrajeria Moreira Sl", "place_id": "ChIJtwHesGvMQw0Rcc_dBMQ8QLU", "plus_code": {"compound_code": "JFQJ+FW Fuente el Saz de Jarama, Spain", "global_code": "8CGRJFQJ+FW"}, "rating": 4, "reference": "ChIJtwHesGvMQw0Rcc_dBMQ8QLU", "scope": "GOOGLE", "types": ["locksmith", "point_of_interest", "establishment"], "user_ratings_total": 4, "vicinity": "Calle Pozo Lirón, 11, Fuente el Saz de Jarama"}, {"geometry": {"location": {"lat": 40.6326883, "lng": -3.5787384}, "viewport": {"northeast": {"lat": 40.64611342797096, "lng": -3.568057580716761}, "southwest": {"lat": 40.6198209660574, "lng": -3.588536646954024}}}, "icon": "https://maps.gstatic.com/mapfiles/place_api/icons/v1/png_71/geocode-71.png", "icon_background_color": "#7B9EB0", "icon_mask_base_uri": "https://maps.gstatic.com/mapfiles/place_api/icons/v2/generic_pinlet", "name": "Santo Domingo", "photos": [{"height": 4160, "html_attributions": ["<a href=\"https://maps.google.com/maps/contrib/105216141907803539482\">Antonio Barradas Perez</a>"], "photo_reference": "AWn5SU4diZzGMR_Wv6fRhhH1Jb99izNO9g8sDRz-qBYIBcUHOXb9ZG2Pk6pE2tsW3SwMUUXI9MwiuOIljRn8RaCxff4wEtBsJalXkgMkpH8S4YF4YOqXtbzNsJOLQN5gZIU8cbgR0On3z1yGrgZatrOGCN_pHLNguG8uQf1rh26OMTEIhPrW5c_um7fLOLkR9S7k4UP9aixP6XwCi1_lO7EEOr7bhdIj7R4Qsq9wtNgSmb7Z9iyf66dtzEIiCK0eYBEevDgLcjYv4w6DQU2dz7XSdx9kf7XNI0VRfhUH-AaUyz_mTcyF6Hgyl5hnw-GJIck9SL_sQQREfBg0nYrCiLNzapmXmSGBQT1gQOd3ahmmFVA3anCE0KQcAxK0HaC0o_1lxJ61eKV4RqW3FlgLu1rhc31YJpW7EK1vdCIN7rNNEf_JHUNWsTy3-ssHxo5YbvUgDquUhXHagDgTkupK7yyl7fc_DSHA5KIxCLjlu_iNh6WDO_kp8MFprpTHO7zR_yXXYHTnmHsIQIwEhnvoyAOfgP_WP5KdlFNuaTQs5C_lk90TOgt6sMw_rna_qI8fRcch2efGpa4h--7ecz1DMOC09Q8R_crVtbWj_8d81bCjA0v-vt6j5eddlg-hGKQCj0bx5In-x3clMo_pDkwxH1fm8zDEysk", "width": 3120}], "place_id": "ChIJK_VXI4nNQw0RVKuGUxjain8", "reference": "ChIJK_VXI4nNQw0RVKuGUxjain8", "scope": "GOOGLE", "types": ["locality", "political"], "vicinity": "Santo Domingo"}]