[{"business_status": "OPERATIONAL", "geometry": {"location": {"lat": 40.3094711, "lng": -4.491703}, "viewport": {"northeast": {"lat": 40.3108058802915, "lng": -4.490362019708497}, "southwest": {"lat": 40.3081079197085, "lng": -4.493059980291502}}}, "icon": "https://maps.gstatic.com/mapfiles/place_api/icons/v1/png_71/generic_business-71.png", "icon_background_color": "#7B9EB0", "icon_mask_base_uri": "https://maps.gstatic.com/mapfiles/place_api/icons/v2/generic_pinlet", "name": "Ctra.M507-Doctor Fleming", "photos": [{"height": 2988, "html_attributions": ["<a href=\"https://maps.google.com/maps/contrib/102314771075757599483\">Manuel Mayo Ortega</a>"], "photo_reference": "AWn5SU6sH-IEpiMuOtvUx0TePPUtFurb70T5c8GlwGHOqDVf7VlqvE7jQisONPBmPdWUgsUBwQUtAAoKJopFxyyfoMJO1DQ2d6lsnsaN8R1b4bnaxhAj2P2L5LYsk7chkabFwenqLSPnTmeWJxDl8MvZ_sD0E10DrAaRUfcUF8kxSj0clqwsl4zvWlrjU_QcbK0YsCwYMzCQL_JtXoY75gWZ5fPV2-azQPrCMWpSnJgI4ZR9T-jf1TzjISqMtiXpIltXtS3TtNq9gyeClb6whG4MP89p27q_drUFjCzOY_xcl8DoKeHBgkif5wC7j2tzJwob2EOnvPAm5qXg58TTW6A70-lkW-JtSHWm8GpoZCZBpnnBWYCGnFwjwfTl_31kJKaB6qB_s2N7QzID--XBREi-sXvr1zSVGh354uPLiXIqj2-_ZLkz2MVC7p96VEjQ6d6VX1A_1X81ex-SD-C0Dc3kbungYUVLOatSdhM1rqd-Cb0B9sii33H7owUnqV48WRrp1yLULM7ialGi_CST4brTkIrOlWq-UCqww6ZgH35BdJTY5uwcEAJjo2YAYkD6EWkoEEOc5wA16dJyHk0pwOI7B4Cpj8Q1CoInTJV_BqWKT5Wf9Rdp2i0YgSsnxpU0dGIDmpuZMg", "width": 5312}], "place_id": "ChIJFb4Fk7FOQA0RvETESzYDfwE", "plus_code": {"compound_code": "8G55+Q8 Rozas de Puerto Real, Spain", "global_code": "8CGQ8G55+Q8"}, "reference": "ChIJFb4Fk7FOQA0RvETESzYDfwE", "scope": "GOOGLE", "types": ["transit_station", "point_of_interest", "establishment"], "vicinity": "Spain"}, {"business_status": "OPERATIONAL", "geometry": {"location": {"lat": 40.30929, "lng": -4.491639999999999}, "viewport": {"northeast": {"lat": 40.31061023029149, "lng": -4.490257819708497}, "southwest": {"lat": 40.3079122697085, "lng": -4.492955780291502}}}, "icon": "https://maps.gstatic.com/mapfiles/place_api/icons/v1/png_71/bus-71.png", "icon_background_color": "#10BDFF", "icon_mask_base_uri": "https://maps.gstatic.com/mapfiles/place_api/icons/v2/bus_share_taxi_pinlet", "name": "Ctra.M507-Av.de la Constitución", "place_id": "ChIJacmXkrFOQA0R4WXbxkpZApU", "plus_code": {"compound_code": "8G55+P8 Rozas de Puerto Real, Spain", "global_code": "8CGQ8G55+P8"}, "reference": "ChIJacmXkrFOQA0R4WXbxkpZApU", "scope": "GOOGLE", "types": ["bus_station", "transit_station", "point_of_interest", "establishment"], "vicinity": "Spain"}, {"business_status": "OPERATIONAL", "geometry": {"location": {"lat": 40.30708, "lng": -4.4935}, "viewport": {"northeast": {"lat": 40.3084293802915, "lng": -4.492152819708497}, "southwest": {"lat": 40.3057314197085, "lng": -4.494850780291502}}}, "icon": "https://maps.gstatic.com/mapfiles/place_api/icons/v1/png_71/generic_business-71.png", "icon_background_color": "#7B9EB0", "icon_mask_base_uri": "https://maps.gstatic.com/mapfiles/place_api/icons/v2/generic_pinlet", "name": "Av.de la Constitución-Cerro", "place_id": "ChIJU-Q7pLNOQA0ROEElSPg7Eno", "plus_code": {"compound_code": "8G44+RH Rozas de Puerto Real, Spain", "global_code": "8CGQ8G44+RH"}, "reference": "ChIJU-Q7pLNOQA0ROEElSPg7Eno", "scope": "GOOGLE", "types": ["transit_station", "point_of_interest", "establishment"], "vicinity": "Spain"}, {"business_status": "OPERATIONAL", "geometry": {"location": {"lat": 40.307044, "lng": -4.4935938}, "viewport": {"northeast": {"lat": 40.30839478029151, "lng": -4.492252619708498}, "southwest": {"lat": 40.30569681970851, "lng": -4.494950580291502}}}, "icon": "https://maps.gstatic.com/mapfiles/place_api/icons/v1/png_71/generic_business-71.png", "icon_background_color": "#7B9EB0", "icon_mask_base_uri": "https://maps.gstatic.com/mapfiles/place_api/icons/v2/generic_pinlet", "name": "Av.de la Constitución-Cerro", "place_id": "ChIJx4CUo7NOQA0RyiJr6ubkXVE", "plus_code": {"compound_code": "8G44+RH Rozas de Puerto Real, Spain", "global_code": "8CGQ8G44+RH"}, "reference": "ChIJx4CUo7NOQA0RyiJr6ubkXVE", "scope": "GOOGLE", "types": ["transit_station", "point_of_interest", "establishment"], "vicinity": "Spain"}, {"business_status": "OPERATIONAL", "geometry": {"location": {"lat": 40.30841059999999, "lng": -4.4857841}, "viewport": {"northeast": {"lat": 40.30973273029149, "lng": -4.484408369708498}, "southwest": {"lat": 40.30703476970849, "lng": -4.487106330291502}}}, "icon": "https://maps.gstatic.com/mapfiles/place_api/icons/v1/png_71/generic_business-71.png", "icon_background_color": "#7B9EB0", "icon_mask_base_uri": "https://maps.gstatic.com/mapfiles/place_api/icons/v2/generic_pinlet", "name": "Ctra Entrepinos-Residencia", "place_id": "ChIJgY4tG6xOQA0Rev9fX0sXVoU", "plus_code": {"compound_code": "8G57+9M Rozas de Puerto Real, Spain", "global_code": "8CGQ8G57+9M"}, "reference": "ChIJgY4tG6xOQA0Rev9fX0sXVoU", "scope": "GOOGLE", "types": ["transit_station", "point_of_interest", "establishment"], "vicinity": "Spain"}, {"business_status": "OPERATIONAL", "geometry": {"location": {"lat": 40.3082504, "lng": -4.4858394}, "viewport": {"northeast": {"lat": 40.3095973302915, "lng": -4.484487769708497}, "southwest": {"lat": 40.3068993697085, "lng": -4.487185730291502}}}, "icon": "https://maps.gstatic.com/mapfiles/place_api/icons/v1/png_71/generic_business-71.png", "icon_background_color": "#7B9EB0", "icon_mask_base_uri": "https://maps.gstatic.com/mapfiles/place_api/icons/v2/generic_pinlet", "name": "Ctra Entrepinos-Residencia", "place_id": "ChIJfyyjGqxOQA0R-mM01aTwz0w", "plus_code": {"compound_code": "8G57+8M Rozas de Puerto Real, Spain", "global_code": "8CGQ8G57+8M"}, "reference": "ChIJfyyjGqxOQA0R-mM01aTwz0w", "scope": "GOOGLE", "types": ["transit_station", "point_of_interest", "establishment"], "vicinity": "Spain"}, {"business_status": "OPERATIONAL", "geometry": {"location": {"lat": 40.31482, "lng": -4.46991}, "viewport": {"northeast": {"lat": 40.31618123029151, "lng": -4.468564519708497}, "southwest": {"lat": 40.31348326970851, "lng": -4.471262480291502}}}, "icon": "https://maps.gstatic.com/mapfiles/place_api/icons/v1/png_71/generic_business-71.png", "icon_background_color": "#7B9EB0", "icon_mask_base_uri": "https://maps.gstatic.com/mapfiles/place_api/icons/v2/generic_pinlet", "name": "Urb.Entrepinos-Av.Madrid", "photos": [{"height": 4032, "html_attributions": ["<a href=\"https://maps.google.com/maps/contrib/116581888886119649084\">Daniel Lopez</a>"], "photo_reference": "AWn5SU7xhzNTBWQgCP8q7ILTjjciPmEcSSMmC8uuwwoFMfG62ocNh4bkbNIXI4ZxzCDHVT1upRMpXh1i_d4F8WQdi7J2RTGUvU0x6cZ08XMiZVosVWwoos866M7nx0l23BZsXSh15aDve4vZdMaIW6Cw9s3IdK8ens8scEynJwIPthKhjKit6pBcAfeRBNI-GaRPd-Ph-qeEzJKvmTHJGnvOVJLncTvPktheyPkC0ErBYEDeTLvOfNyBXa-eRvS-tYxGo8CByQ8uI9CVXNCmUXTjtXBbO6R5V47CBCNvDOMe49_Xx6gT2QDQ6UEhZl9UvwYsh_IP13TZ4sJkbz9a_Ul2nc28mzAvJGxNDw4pPwDf3Dz6drHnJ2MaRWWKAlVflfrDSKDbSBY0zs2TCMr6sffxjt-hLXuo_GvudPSdIxPmMsxa2P0V40L2fvVVBIk1A9Ob7hbkJt893vLI9CsY7orUMDMu2JTLxvRrKQMctOi5s4v61zPjax5VqixUWVLTbkPgPqEOURH4DLAqxMfWK9IQsQT6Q_iGIhEGPQEoMzlv1EkFcg0ID6VgeiUUvAaNIyDvvaEipTe0vUmMprGmlGQ4z5B_DMJXX-2FT9uvw8Gujlia6jsuo4QAu6K4io8WLOm7mHUu4g", "width": 3024}], "place_id": "ChIJna9nLBtMQA0RAMnKjrnm4ko", "plus_code": {"compound_code": "8G7J+W2 Entrepinos, Spain", "global_code": "8CGQ8G7J+W2"}, "rating": 4.7, "reference": "ChIJna9nLBtMQA0RAMnKjrnm4ko", "scope": "GOOGLE", "types": ["transit_station", "point_of_interest", "establishment"], "user_ratings_total": 3, "vicinity": "Spain"}, {"business_status": "OPERATIONAL", "geometry": {"location": {"lat": 40.31503, "lng": -4.46934}, "viewport": {"northeast": {"lat": 40.3163631802915, "lng": -4.467985419708499}, "southwest": {"lat": 40.3136652197085, "lng": -4.470683380291502}}}, "icon": "https://maps.gstatic.com/mapfiles/place_api/icons/v1/png_71/generic_business-71.png", "icon_background_color": "#7B9EB0", "icon_mask_base_uri": "https://maps.gstatic.com/mapfiles/place_api/icons/v2/generic_pinlet", "name": "Urb.Entrepinos-Av.Madrid", "place_id": "ChIJkxb8LRtMQA0RgwDtr78IKbA", "plus_code": {"compound_code": "8G8J+27 Entrepinos, Spain", "global_code": "8CGQ8G8J+27"}, "rating": 5, "reference": "ChIJkxb8LRtMQA0RgwDtr78IKbA", "scope": "GOOGLE", "types": ["transit_station", "point_of_interest", "establishment"], "user_ratings_total": 1, "vicinity": "Spain"}, {"business_status": "OPERATIONAL", "geometry": {"location": {"lat": 40.31408, "lng": -4.46328}, "viewport": {"northeast": {"lat": 40.3154426302915, "lng": -4.461961369708498}, "southwest": {"lat": 40.3127446697085, "lng": -4.464659330291503}}}, "icon": "https://maps.gstatic.com/mapfiles/place_api/icons/v1/png_71/generic_business-71.png", "icon_background_color": "#7B9EB0", "icon_mask_base_uri": "https://maps.gstatic.com/mapfiles/place_api/icons/v2/generic_pinlet", "name": "Urb.Entrepinos-Av.San Sebastián", "place_id": "ChIJZ6TzlA1MQA0RkOhMBJbFaK4", "plus_code": {"compound_code": "8G7P+JM Entrepinos, Spain", "global_code": "8CGQ8G7P+JM"}, "reference": "ChIJZ6TzlA1MQA0RkOhMBJbFaK4", "scope": "GOOGLE", "types": ["transit_station", "point_of_interest", "establishment"], "vicinity": "Spain"}, {"business_status": "OPERATIONAL", "geometry": {"location": {"lat": 40.2908287, "lng": -4.4546108}, "viewport": {"northeast": {"lat": 40.2921827802915, "lng": -4.453305069708498}, "southwest": {"lat": 40.2894848197085, "lng": -4.456003030291503}}}, "icon": "https://maps.gstatic.com/mapfiles/place_api/icons/v1/png_71/generic_business-71.png", "icon_background_color": "#7B9EB0", "icon_mask_base_uri": "https://maps.gstatic.com/mapfiles/place_api/icons/v2/generic_pinlet", "name": "Ctra.M541-CºDe Los Barrancos", "place_id": "ChIJAT4k55NLQA0RA2tC65nTJQs", "plus_code": {"compound_code": "7GRW+85 Cadalso de los Vidrios, Spain", "global_code": "8CGQ7GRW+85"}, "reference": "ChIJAT4k55NLQA0RA2tC65nTJQs", "scope": "GOOGLE", "types": ["transit_station", "point_of_interest", "establishment"], "vicinity": "Spain"}, {"business_status": "OPERATIONAL", "geometry": {"location": {"lat": 40.2869568, "lng": -4.4563985}, "viewport": {"northeast": {"lat": 40.2882955802915, "lng": -4.455025019708498}, "southwest": {"lat": 40.2855976197085, "lng": -4.457722980291503}}}, "icon": "https://maps.gstatic.com/mapfiles/place_api/icons/v1/png_71/generic_business-71.png", "icon_background_color": "#7B9EB0", "icon_mask_base_uri": "https://maps.gstatic.com/mapfiles/place_api/icons/v2/generic_pinlet", "name": "Ctra.M541-CºDe Los Barrancos", "place_id": "ChIJFxLtrJVLQA0RLjQfXTMuwnA", "plus_code": {"compound_code": "7GPV+QC Cadalso de los Vidrios, Spain", "global_code": "8CGQ7GPV+QC"}, "reference": "ChIJFxLtrJVLQA0RLjQfXTMuwnA", "scope": "GOOGLE", "types": ["transit_station", "point_of_interest", "establishment"], "vicinity": "Spain"}, {"business_status": "OPERATIONAL", "geometry": {"location": {"lat": 40.29924009999999, "lng": -4.442307899999999}, "viewport": {"northeast": {"lat": 40.3006111802915, "lng": -4.440936669708498}, "southwest": {"lat": 40.2979132197085, "lng": -4.443634630291503}}}, "icon": "https://maps.gstatic.com/mapfiles/place_api/icons/v1/png_71/generic_business-71.png", "icon_background_color": "#7B9EB0", "icon_mask_base_uri": "https://maps.gstatic.com/mapfiles/place_api/icons/v2/generic_pinlet", "name": "Av.Constitución-La Almazara", "place_id": "ChIJG1bRxoNLQA0R3S8o0XajUSA", "plus_code": {"compound_code": "7HX5+M3 Cadalso de los Vidrios, Spain", "global_code": "8CGQ7HX5+M3"}, "reference": "ChIJG1bRxoNLQA0R3S8o0XajUSA", "scope": "GOOGLE", "types": ["transit_station", "point_of_interest", "establishment"], "vicinity": "Spain"}, {"business_status": "OPERATIONAL", "geometry": {"location": {"lat": 40.2993431, "lng": -4.4422159}, "viewport": {"northeast": {"lat": 40.30066628029149, "lng": -4.440892869708498}, "southwest": {"lat": 40.2979683197085, "lng": -4.443590830291503}}}, "icon": "https://maps.gstatic.com/mapfiles/place_api/icons/v1/png_71/bus-71.png", "icon_background_color": "#10BDFF", "icon_mask_base_uri": "https://maps.gstatic.com/mapfiles/place_api/icons/v2/bus_share_taxi_pinlet", "name": "Av.Constitución-La Almazara", "place_id": "ChIJNZ3jw4NLQA0Rx1J62H561OY", "plus_code": {"compound_code": "7HX5+P4 Cadalso de los Vidrios, Spain", "global_code": "8CGQ7HX5+P4"}, "rating": 3, "reference": "ChIJNZ3jw4NLQA0Rx1J62H561OY", "scope": "GOOGLE", "types": ["bus_station", "transit_station", "point_of_interest", "establishment"], "user_ratings_total": 1, "vicinity": "Spain"}, {"business_status": "OPERATIONAL", "geometry": {"location": {"lat": 40.2996521, "lng": -4.436833399999999}, "viewport": {"northeast": {"lat": 40.3009947802915, "lng": -4.435483819708497}, "southwest": {"lat": 40.2982968197085, "lng": -4.438181780291502}}}, "icon": "https://maps.gstatic.com/mapfiles/place_api/icons/v1/png_71/generic_business-71.png", "icon_background_color": "#7B9EB0", "icon_mask_base_uri": "https://maps.gstatic.com/mapfiles/place_api/icons/v2/generic_pinlet", "name": "Av.Constitución-Doctor Menéndez", "place_id": "ChIJv0pO23hLQA0RF-kyqKmwt54", "plus_code": {"compound_code": "7HX7+V7 Cadalso de los Vidrios, Spain", "global_code": "8CGQ7HX7+V7"}, "reference": "ChIJv0pO23hLQA0RF-kyqKmwt54", "scope": "GOOGLE", "types": ["transit_station", "point_of_interest", "establishment"], "vicinity": "Spain"}, {"business_status": "OPERATIONAL", "geometry": {"location": {"lat": 40.2994537, "lng": -4.436888199999999}, "viewport": {"northeast": {"lat": 40.3008781302915, "lng": -4.435554869708498}, "southwest": {"lat": 40.2981801697085, "lng": -4.438252830291503}}}, "icon": "https://maps.gstatic.com/mapfiles/place_api/icons/v1/png_71/generic_business-71.png", "icon_background_color": "#7B9EB0", "icon_mask_base_uri": "https://maps.gstatic.com/mapfiles/place_api/icons/v2/generic_pinlet", "name": "Av.Constitución-Doctor Menéndez", "place_id": "ChIJJ5gpw3hLQA0RS_6zIeOnCOw", "plus_code": {"compound_code": "7HX7+Q6 Cadalso de los Vidrios, Spain", "global_code": "8CGQ7HX7+Q6"}, "reference": "ChIJJ5gpw3hLQA0RS_6zIeOnCOw", "scope": "GOOGLE", "types": ["transit_station", "point_of_interest", "establishment"], "vicinity": "Spain"}, {"business_status": "OPERATIONAL", "geometry": {"location": {"lat": 40.26567529999999, "lng": -4.468327299999999}, "viewport": {"northeast": {"lat": 40.2669859802915, "lng": -4.466919469708497}, "southwest": {"lat": 40.2642880197085, "lng": -4.469617430291501}}}, "icon": "https://maps.gstatic.com/mapfiles/place_api/icons/v1/png_71/generic_business-71.png", "icon_background_color": "#7B9EB0", "icon_mask_base_uri": "https://maps.gstatic.com/mapfiles/place_api/icons/v2/generic_pinlet", "name": "Plaza de Los Caños-Piscina Municipal", "place_id": "ChIJ7QrvgtJLQA0Rn8jng4RzWfY", "plus_code": {"compound_code": "7G8J+7M Cenicientos, Spain", "global_code": "8CGQ7G8J+7M"}, "rating": 4, "reference": "ChIJ7QrvgtJLQA0Rn8jng4RzWfY", "scope": "GOOGLE", "types": ["transit_station", "point_of_interest", "establishment"], "user_ratings_total": 1, "vicinity": "Spain"}, {"business_status": "OPERATIONAL", "geometry": {"location": {"lat": 40.2655463, "lng": -4.4682499}, "viewport": {"northeast": {"lat": 40.26691013029149, "lng": -4.466896019708499}, "southwest": {"lat": 40.2642121697085, "lng": -4.469593980291503}}}, "icon": "https://maps.gstatic.com/mapfiles/place_api/icons/v1/png_71/generic_business-71.png", "icon_background_color": "#7B9EB0", "icon_mask_base_uri": "https://maps.gstatic.com/mapfiles/place_api/icons/v2/generic_pinlet", "name": "Plaza de Los Caños-Piscina Municipal", "photos": [{"height": 4032, "html_attributions": ["<a href=\"https://maps.google.com/maps/contrib/116561955222523314367\">Андрей Фомушкин</a>"], "photo_reference": "AWn5SU5Jh8fKi3XRv1UwrfbBhGBUgp81cIkZ4JYMB86A3-CrlA1i8LORiHP0rCG43vUSH9BpqXlBr4aEACTgkzy8O_onyAFggNNes9exTUEcWvo9pIfwPdGiNvdyn0NAX8Z2X5jUFMsAjCChs3rDqY9wNIdVxbw4qXLg-XJvt-YW51K2FX4pr8Ph3z1dmfUJEP7By9uhGjwqDoTsQdbkOjmnxhwfwab0vVVxy6i3axi-hxHQx9XGWSSm437uNWqWUpdUUgSdBaZLQGFXNjN7IH6By5ZxDdYxa4YDbqxmZngnHRs-zxjF3k3IYS6aVqt-Y2uOeebb8_5zOhv5WqL8hhKkqPUVpqTadscfAs1jbp846V2cjzDgc-H8cee1GnpVw4IabjM5MfKp7gU43YJsEvGO1zogeyZOb2H8vvhzc661aQ9mFZlGODtVLRHn7NrjgLgRyWFUfChwwvFd3MiHwYgHnpvhH0T369c0tHYu8ZlTrn0QyB_awsTynrw7-ZlsZrH9OAmTnmTKhZ7h77GRH2nLUyZRANI6r2lQMd4uYK_MMVpY9n6QV8DSj_xTFIQm68iG38MQnWnSVjinW434MuRUiGQyknYlcMIXVw1kaE1vnrZMytQvd60XDuhiSk0QU7rq", "width": 3024}], "place_id": "ChIJGRfWYs1LQA0RkZu17Szw5UA", "plus_code": {"compound_code": "7G8J+6P Cenicientos, Spain", "global_code": "8CGQ7G8J+6P"}, "rating": 5, "reference": "ChIJGRfWYs1LQA0RkZu17Szw5UA", "scope": "GOOGLE", "types": ["transit_station", "point_of_interest", "establishment"], "user_ratings_total": 2, "vicinity": "Spain"}, {"business_status": "OPERATIONAL", "geometry": {"location": {"lat": 40.26699069999999, "lng": -4.463661699999999}, "viewport": {"northeast": {"lat": 40.2683918802915, "lng": -4.462314869708496}, "southwest": {"lat": 40.2656939197085, "lng": -4.465012830291501}}}, "icon": "https://maps.gstatic.com/mapfiles/place_api/icons/v1/png_71/generic_business-71.png", "icon_background_color": "#7B9EB0", "icon_mask_base_uri": "https://maps.gstatic.com/mapfiles/place_api/icons/v2/generic_pinlet", "name": "Ronda del Este-Depósito", "place_id": "ChIJC-ptmstLQA0R8ln1Rhy_FHc", "plus_code": {"compound_code": "7G8P+QG Cenicientos, Spain", "global_code": "8CGQ7G8P+QG"}, "reference": "ChIJC-ptmstLQA0R8ln1Rhy_FHc", "scope": "GOOGLE", "types": ["transit_station", "point_of_interest", "establishment"], "vicinity": "Spain"}, {"business_status": "OPERATIONAL", "geometry": {"location": {"lat": 40.2670593, "lng": -4.4633808}, "viewport": {"northeast": {"lat": 40.26840848029151, "lng": -4.462033169708498}, "southwest": {"lat": 40.26571051970851, "lng": -4.464731130291502}}}, "icon": "https://maps.gstatic.com/mapfiles/place_api/icons/v1/png_71/generic_business-71.png", "icon_background_color": "#7B9EB0", "icon_mask_base_uri": "https://maps.gstatic.com/mapfiles/place_api/icons/v2/generic_pinlet", "name": "Ronda del Este-Depósito", "photos": [{"height": 452, "html_attributions": ["<a href=\"https://maps.google.com/maps/contrib/117792403804593508945\">Piedad Lago</a>"], "photo_reference": "AWn5SU4Qgg34sCL24HCFLgpJ-v5mVQz02AH-CdWwUmMuiyx5qdgw-lhdv9L0g6oB9okXoLrh8xsSSxZrzyncZVjDGNgvreMSCtkv5-WGmAYLIkhRDDNTvSGBGPlHhTcreeqaFrylcojWt57fr6Qrsc5j-XtjyYj_2G9h1w9d5-5VCQk8X_s_UFbsaDINLocllpqQc-AkUqQi7iyI985p3cGyJUHOvLLFk-AOxps6QtfHzpW0ye3z_VcCt_YSucOEZcTLMAtkKYuwEbxH2zHBQL-c8p17PG9y4HKvyB0KJ5sGWqrPi-zhbZK7CoacooLbJWNg5w3zWZq0ajKafBXT2WEATmIlfzHZ_MvcgkMjyKTupX0Dd7hFs6V9nszqACYTDZF1I_Y532maSymLim1V_P6kmcnEvCL8QIpa94YZDetTXZ7ZljkDy6_-w1Dpyq-o6WXqWQbt5BgfI7ipKlgfEnQOhnhoLQf33iZ0Bo8h-8euzA19JJbj1youp_fU_Y7EWeaa1h7kfM8IdFtt5IZJkVDm5_Bb-2Vk9yUNQXBgfOPJEssmkpR-YQVqrz6Uk78ge6Ag4ux3DUi8FKjzIMBeJTFK_C4mKTHnKAxxxvjdo2aYHXuU6_iLrQ6rUZ_rp4Vee54kN99OLQ", "width": 603}], "place_id": "ChIJb9mGl8tLQA0RDhNZ-tVpJCI", "plus_code": {"compound_code": "7G8P+RJ Cenicientos, Spain", "global_code": "8CGQ7G8P+RJ"}, "reference": "ChIJb9mGl8tLQA0RDhNZ-tVpJCI", "scope": "GOOGLE", "types": ["transit_station", "point_of_interest", "establishment"], "vicinity": "Spain"}, {"business_status": "OPERATIONAL", "geometry": {"location": {"lat": 40.2628593, "lng": -4.4756141}, "viewport": {"northeast": {"lat": 40.2641863802915, "lng": -4.474246969708497}, "southwest": {"lat": 40.2614884197085, "lng": -4.476944930291501}}}, "icon": "https://maps.gstatic.com/mapfiles/place_api/icons/v1/png_71/generic_business-71.png", "icon_background_color": "#7B9EB0", "icon_mask_base_uri": "https://maps.gstatic.com/mapfiles/place_api/icons/v2/generic_pinlet", "name": "Cenicientos-Gasolinera", "photos": [{"height": 2736, "html_attributions": ["<a href=\"https://maps.google.com/maps/contrib/115895291279167822560\">Fernando Rebollo</a>"], "photo_reference": "AWn5SU6pAPc-D9Osl7s5szB-4ExK-1CL7IgQ7UMuliQcF0HdgmG0BkAm2Wdl63ofuY1cVEZLc_3qbYF-AETTiXF0bXtOKQ4LcILAUsDVsawP0-1PMoT8NsX5pOsQw4invovLG6ObwHmEbvue2Htbo7lpA03P-TwieqvwiXN0AMJkQPpmOwwkS-dalwJU8wThyqmTxuUKLUlH1z7_y3e6HWHnahyeQoNOrkM5CG8YaueKgVsyh8tbN9le3oAHNcZEJe-mu0uShXrb1OZdTN_LEau_rvwh7Ba4XR4IUcqR1vVfvO_p9BX0kDJOu12OR1qLpyMgdqcSt2kukYkMZjExiN9x6HwtzQMlewlPQT6ldHUWQxxi1kQDfHdNmobFBWud5InJO8HuaEzkNon4EkQr4DmpIKgYBfKhXxgyXIGmjsByA8qKPy6gnc24-V8UpGSZrVpKQc6jWNo_Yzgj2GOY7q4tefmapR-3heihF9f7B7fUJNuz0Tv_Ermo-ZB1gUeKp5dxF4DENbiLSM7d1pp4gDOCrFztxbYMj2R3N8WLx4phESaTgepRu0M2tgeTuH5oOd0kpECHAfXm1b1ObJrys2_2qNWkjTQhhHAGveW1VznvHtdoShrJjjfDz_-KXAHkUka2", "width": 3648}], "place_id": "ChIJiZymTytKQA0RiPLLTqNpbUQ", "plus_code": {"compound_code": "7G7F+4Q Cenicientos, Spain", "global_code": "8CGQ7G7F+4Q"}, "reference": "ChIJiZymTytKQA0RiPLLTqNpbUQ", "scope": "GOOGLE", "types": ["transit_station", "point_of_interest", "establishment"], "vicinity": "Spain"}]