[{"business_status": "OPERATIONAL", "geometry": {"location": {"lat": 40.4895972, "lng": -3.961521100000001}, "viewport": {"northeast": {"lat": 40.49089378029151, "lng": -3.960077069708499}, "southwest": {"lat": 40.48819581970851, "lng": -3.962775030291503}}}, "icon": "https://maps.gstatic.com/mapfiles/place_api/icons/v1/png_71/bank-71.png", "icon_background_color": "#909CE1", "icon_mask_base_uri": "https://maps.gstatic.com/mapfiles/place_api/icons/v2/bank-intl_pinlet", "international_phone_number": "+34 918 15 05 22", "name": "BBVA", "opening_hours": {"open_now": false}, "photos": [{"height": 720, "html_attributions": ["<a href=\"https://maps.google.com/maps/contrib/115649436409644996098\">BBVA</a>"], "photo_reference": "AWn5SU4gnyiH4rMkeLGUGNF302Tvh6x2qPVz2TPldTiOWzEzPx8uEns3wuXcP26n_HiH1NXDQg8_GeRJ4HLEDHieWZ68-bIkkIGl3AwU9WTyhK4RwqbdTlM8p3lcjbIs-iv4CppIl0wqx4Tb_kdFlTOJTNUSJWn-NI41gmLqafXjWFV34pMf--Ujx7iQS4P70U6Ttrg82oEFnENnJpzKJGh_rtbCPSmCcIZOJhaf3cHjX3BH62riA3i5dA3t7epFFrQp7KhAo9sO8VnqCVXBdinTd10J_oiRCbDn1lQjIjowQUmQpTPvflraFGxW_br5viPgnNSwcERRGAg", "width": 1280}], "place_id": "ChIJZZH4_XOcQQ0RTZaUbrn_Uw8", "plus_code": {"compound_code": "F2QQ+R9 Villanueva del Pardillo, Spain", "global_code": "8CGRF2QQ+R9"}, "rating": 2.1, "reference": "ChIJZZH4_XOcQQ0RTZaUbrn_Uw8", "scope": "GOOGLE", "types": ["bank", "atm", "accounting", "finance", "point_of_interest", "establishment"], "user_ratings_total": 57, "vicinity": "Av. Guadarrama, S/N - Blq. Mimosas, Avenida del Guadarrama, 9, Villanueva del Pardillo"}, {"business_status": "OPERATIONAL", "geometry": {"location": {"lat": 40.5049374, "lng": -3.893988099999999}, "viewport": {"northeast": {"lat": 40.5064822302915, "lng": -3.892398919708497}, "southwest": {"lat": 40.5037842697085, "lng": -3.895096880291502}}}, "icon": "https://maps.gstatic.com/mapfiles/place_api/icons/v1/png_71/bank-71.png", "icon_background_color": "#909CE1", "icon_mask_base_uri": "https://maps.gstatic.com/mapfiles/place_api/icons/v2/bank-intl_pinlet", "international_phone_number": "+34 916 36 40 10", "name": "BBVA", "opening_hours": {"open_now": false}, "photos": [{"height": 720, "html_attributions": ["<a href=\"https://maps.google.com/maps/contrib/117584490528383154676\">BBVA</a>"], "photo_reference": "AWn5SU4mAccIo0Y7wFGk9Wsu-2jnBRWXbVxwdoTYiFEJJ8CMPx8nGDanR2ayNZcMSpNKe8rZmR1gYEuG9HOJz9HW96pfRG2SQ8aokwmmtLhW5VZw5dR_gJ7g0I72_JymTqZ_MVyq7RsPDN-X63tSOsIkTWMy7ydNNfmJ57tgrmEI2Ly7omh9FJy_DA8kH5Ncts8bm1Us-OXf07f91zwbyCnAb50BI-so7KPR-SqqV6fgD9W7dPnPlFJzTPZCrmmzKr-k-tiz5EkgIbOyk2bb2McwaF777cRYMXMNCBBkYH85rjcd5mqf8FzCl_fEROMXAb17tEtS-PJ1Ihk", "width": 1280}], "place_id": "ChIJ9Q92xUeDQQ0RzqOiUO9TUhI", "plus_code": {"compound_code": "G434+XC Las Rozas de Madrid, Spain", "global_code": "8CGRG434+XC"}, "rating": 2.5, "reference": "ChIJ9Q92xUeDQQ0RzqOiUO9TUhI", "scope": "GOOGLE", "types": ["bank", "atm", "accounting", "finance", "point_of_interest", "establishment"], "user_ratings_total": 51, "vicinity": "Calle Castillo de Belmonte, 2, Las Rozas de Madrid"}, {"business_status": "OPERATIONAL", "geometry": {"location": {"lat": 40.44531409999999, "lng": -4.0039993}, "viewport": {"northeast": {"lat": 40.4466481302915, "lng": -4.002705919708498}, "southwest": {"lat": 40.4439501697085, "lng": -4.005403880291501}}}, "icon": "https://maps.gstatic.com/mapfiles/place_api/icons/v1/png_71/bank-71.png", "icon_background_color": "#909CE1", "icon_mask_base_uri": "https://maps.gstatic.com/mapfiles/place_api/icons/v2/bank-intl_pinlet", "international_phone_number": "+34 918 15 71 74", "name": "BBVA", "opening_hours": {"open_now": false}, "photos": [{"height": 720, "html_attributions": ["<a href=\"https://maps.google.com/maps/contrib/117977943517335022507\">BBVA</a>"], "photo_reference": "AWn5SU6DB2jyWQ2IVuQIKk5ImVm3IYCHvCSMWAFXODX8Wyf8MtqqBrWGPFmr1uMc8lan7YaLHoQcugsf9zGf89oXZjKBx1gQT_QstlhV7CyPlwXcrXEBiSqatiCoAhM30vvFuTpzu5iPdfaJKpkkeH_23ILGVlzj_W6ta1yglZMPMX1U8v_DyBU48ZsnLUEZfaPIEhaHL4BOZuhYF23l0V5h0dt_bF4LOX9cIqttaaAiRnc8VppMEdi2DJUDPLVLmnYP70YuaO11CY_JVC683bwkURPHwFHvxjDtGFrVQvruj3a0PfRd2cPnO2rLgZUkuhum3HVLuitZUGE", "width": 1280}], "place_id": "ChIJ8R9XxHWZQQ0RlWlwXmKYdrc", "plus_code": {"compound_code": "CXWW+4C Villanueva de la Cañada, Spain", "global_code": "8CGQCXWW+4C"}, "rating": 2, "reference": "ChIJ8R9XxHWZQQ0RlWlwXmKYdrc", "scope": "GOOGLE", "types": ["bank", "atm", "accounting", "finance", "point_of_interest", "establishment"], "user_ratings_total": 81, "vicinity": "Calle Real, 65, Villanueva de la Cañada"}, {"business_status": "OPERATIONAL", "geometry": {"location": {"lat": 40.51977199999999, "lng": -3.8956469}, "viewport": {"northeast": {"lat": 40.52117093029149, "lng": -3.894305819708498}, "southwest": {"lat": 40.51847296970849, "lng": -3.897003780291502}}}, "icon": "https://maps.gstatic.com/mapfiles/place_api/icons/v1/png_71/bank-71.png", "icon_background_color": "#909CE1", "icon_mask_base_uri": "https://maps.gstatic.com/mapfiles/place_api/icons/v2/bank-intl_pinlet", "international_phone_number": "+34 916 30 93 15", "name": "Banco Santander - Smart Red", "opening_hours": {"open_now": false}, "photos": [{"height": 720, "html_attributions": ["<a href=\"https://maps.google.com/maps/contrib/103062869343074212655\">Banco Santander - Smart Red</a>"], "photo_reference": "AWn5SU6J0AzfyQfeIRE8Kw54eMI4QoKUHulFK9eCf58VTgDam0574aDmXXQdg2cXkzIv7WOwgqITO-b7C2gmIybz0sALdd92yZgEyEDtegTjL8uUeFL7vRPeKvdpYCf-zlfWifXg6jiSKeMMlXzN8ogHLqoRdXaPApvxERDd__wo4WGBUl3Q__beI-7Lvm_aFmfxmsv7Tm7b8lbWyOATXTzL09Y9iExswyjHhy3UvxbJdB2tLn1IWGHxwQpuOKjayXqQRO53S73fB5l27ND64akUFL-98Mmy7-ebajPq9Jofx8GoM-wJN7_aSecTDL-RKR7NryKc-4DKqk8", "width": 1280}], "place_id": "ChIJc_BnCSeDQQ0RLR3ICSxn5Sg", "plus_code": {"compound_code": "G493+WP Las Rozas de Madrid, Spain", "global_code": "8CGRG493+WP"}, "rating": 2.3, "reference": "ChIJc_BnCSeDQQ0RLR3ICSxn5Sg", "scope": "GOOGLE", "types": ["bank", "atm", "finance", "point_of_interest", "establishment"], "user_ratings_total": 45, "vicinity": "Calle Camilo José Cela, 10, Las Rozas de Madrid"}, {"business_status": "OPERATIONAL", "geometry": {"location": {"lat": 40.4895934, "lng": -3.9627496}, "viewport": {"northeast": {"lat": 40.4909009302915, "lng": -3.961422569708497}, "southwest": {"lat": 40.4882029697085, "lng": -3.964120530291502}}}, "icon": "https://maps.gstatic.com/mapfiles/place_api/icons/v1/png_71/bank-71.png", "icon_background_color": "#909CE1", "icon_mask_base_uri": "https://maps.gstatic.com/mapfiles/place_api/icons/v2/bank-intl_pinlet", "international_phone_number": "+34 918 15 43 36", "name": "Ibercaja Banco", "opening_hours": {"open_now": false}, "photos": [{"height": 900, "html_attributions": ["<a href=\"https://maps.google.com/maps/contrib/106188914563377211263\">Ibercaja Banco</a>"], "photo_reference": "AWn5SU6FW3Ck3ZwstS_WVvm3A9LnGa2ZTmpFuYxBjhi1LoTNccKj1fFJHoqZ3-UDuoTx7O89XlrmTgwlDeGjC2-GqKfDCZngjAqGc8lc0hFBgz5FKrbaqIwrbV5ZNYsqADHMm39mYjMtDMGiZ2eAfjyPjeOVPzUN_V1Yab0JVSxdWdA7iUCVyS_Po3i6k5Ke9WMZA5LqtZ5ReljRi3yTo2mtUF-pFw6jlBdEZiIdsEMlqJbTVlJPXzy4HzGsMKztbN-QbBU2f0noXWusnpl1ttqx9wQQXPvyWXGhRmdYgcWoWpScjNasANXqO06HlUB5CJv5jJuZW9bXD74", "width": 1600}], "place_id": "ChIJl1ztGHScQQ0Rz1VUrFWikSY", "plus_code": {"compound_code": "F2QP+RW Villanueva del Pardillo, Spain", "global_code": "8CGRF2QP+RW"}, "rating": 4, "reference": "ChIJl1ztGHScQQ0Rz1VUrFWikSY", "scope": "GOOGLE", "types": ["bank", "atm", "accounting", "finance", "point_of_interest", "establishment"], "user_ratings_total": 9, "vicinity": "Avenida de Madrid, 19, Villanueva del Pardillo"}, {"business_status": "OPERATIONAL", "geometry": {"location": {"lat": 40.4882885, "lng": -3.9648531}, "viewport": {"northeast": {"lat": 40.48962038029151, "lng": -3.963470069708498}, "southwest": {"lat": 40.48692241970851, "lng": -3.966168030291503}}}, "icon": "https://maps.gstatic.com/mapfiles/place_api/icons/v1/png_71/bank-71.png", "icon_background_color": "#909CE1", "icon_mask_base_uri": "https://maps.gstatic.com/mapfiles/place_api/icons/v2/bank-intl_pinlet", "international_phone_number": "+34 918 12 32 18", "name": "Banco Santander", "opening_hours": {"open_now": false}, "photos": [{"height": 720, "html_attributions": ["<a href=\"https://maps.google.com/maps/contrib/100634585682074865758\">Banco Santander</a>"], "photo_reference": "AWn5SU6vWeCQSJcm677qFVD-WbiEj-lSe--0tBv2Jfz70XVj2rG75x5EaWj2Gf9cXTYjeaAYTgAcFQ6xu7742_K8joGrl2HJpHQdyeMihflzOZxanu7Wj8NBy8k9B7Rfgz0IHlP9bPCu2xJ1fHddYr24swvs09zfsDKtVwVcynGA3pg9SLyABuBps9EbhLP0CGzcFXrCTB84ZeiiwgEBngnwMF36KpOjkyXDqnbdFXZzfhELPAQ5ygeLuEAAHBBPSEjC9bOCNH-ixAYPXg_OoCFBVbseESFihQZf95WBSE41FmRNDg4tkiwdfG-anC5T8vYHkqsLmQbcMhY", "width": 1280}], "place_id": "ChIJ2VlsVHScQQ0RR7Lr6fa5y10", "plus_code": {"compound_code": "F2QP+83 Villanueva del Pardillo, Spain", "global_code": "8CGRF2QP+83"}, "rating": 1.8, "reference": "ChIJ2VlsVHScQQ0RR7Lr6fa5y10", "scope": "GOOGLE", "types": ["bank", "atm", "finance", "point_of_interest", "establishment"], "user_ratings_total": 39, "vicinity": "Avenida de Madrid, 2, Villanueva del Pardillo"}, {"business_status": "OPERATIONAL", "geometry": {"location": {"lat": 40.5176332, "lng": -3.928447799999999}, "viewport": {"northeast": {"lat": 40.5188984302915, "lng": -3.927053119708498}, "southwest": {"lat": 40.5162004697085, "lng": -3.929751080291503}}}, "icon": "https://maps.gstatic.com/mapfiles/place_api/icons/v1/png_71/bank-71.png", "icon_background_color": "#909CE1", "icon_mask_base_uri": "https://maps.gstatic.com/mapfiles/place_api/icons/v2/bank-intl_pinlet", "international_phone_number": "+34 600 40 40 90", "name": "CaixaBank", "opening_hours": {"open_now": false}, "photos": [{"height": 1192, "html_attributions": ["<a href=\"https://maps.google.com/maps/contrib/106220982120561757218\">CaixaBank</a>"], "photo_reference": "AWn5SU5ciK-OxX_KNZwt6ATbzZGGwvt-B3ix8fxFfe3cC46vifdbT1QeNzdW_2GsrEX-ryzVR1S4ZAP9vjczvN7bx_fj9FvoDWwtAZIdl7mcYGNnXXoF-u-5emk-UMwwymAybi5Igmeo0gzUAmyjNu_YF9odaOZfIDsT4k5bTxgiQ0btWvxVKdTS_orJEhyXmkfQ7MxCVKWc7n_QdwOtVVrHMujEee5Mt7FZwtC4Pm0pLVg-oCIJ605GchhSgNtz2REOKiYrqY3YzkJWgdh6xbGjLV3uOETS5RqIbHzJBVEN9Ols80nqZdPycb6lIt7TKLJjwSd3d8p4nVg", "width": 2120}], "place_id": "ChIJRSZH2-ecQQ0RNcf5_57cRnw", "plus_code": {"compound_code": "G39C+3J Las Rozas de Madrid, Spain", "global_code": "8CGRG39C+3J"}, "rating": 1.4, "reference": "ChIJRSZH2-ecQQ0RNcf5_57cRnw", "scope": "GOOGLE", "types": ["bank", "finance", "point_of_interest", "establishment"], "user_ratings_total": 47, "vicinity": "Calle Santolina, 2, Las Rozas de Madrid"}, {"business_status": "OPERATIONAL", "geometry": {"location": {"lat": 40.450292, "lng": -4.0060522}, "viewport": {"northeast": {"lat": 40.4516584302915, "lng": -4.004804219708499}, "southwest": {"lat": 40.4489604697085, "lng": -4.007502180291503}}}, "icon": "https://maps.gstatic.com/mapfiles/place_api/icons/v1/png_71/bank-71.png", "icon_background_color": "#909CE1", "icon_mask_base_uri": "https://maps.gstatic.com/mapfiles/place_api/icons/v2/bank-intl_pinlet", "international_phone_number": "+34 918 46 02 04", "name": "Banco Sabadell", "opening_hours": {"open_now": false}, "photos": [{"height": 1080, "html_attributions": ["<a href=\"https://maps.google.com/maps/contrib/114438250576874400734\">Banco Sabadell</a>"], "photo_reference": "AWn5SU5-upVLZhRx_BBReEibg_AxcTTRCkyKiEWpRadCblrucEhk5mJlZqwJhp6FYXNNqguB2BP1Yjn_EIoOUfbVVrgoh3f2l27NXoeU9ya43jOXXRbO5wXA2Q2yIcUuEk0ah6h0VviGsXCqoJ7rI9nEH_n-faoGNtjyCbns4-NQuv_EnzNqso3qhGlqTp0T2W3iokc63YWP2K5_qCyX8_a_iMMIOAwS52HVVmyJQBtufEMgi9pE8h_grthO9X7y4FP6GK0Gqo9Qe-oQaD7fyUkVxiu8VOw8VVkjFy54orPaJ4gjjUimKVXgSRRyU1-JCB83b13Obs22V0Y", "width": 1920}], "place_id": "ChIJt73BzVxYTg0RheNM4c33A2o", "plus_code": {"compound_code": "FX2V+4H Villanueva de la Cañada, Spain", "global_code": "8CGQFX2V+4H"}, "rating": 2.7, "reference": "ChIJt73BzVxYTg0RheNM4c33A2o", "scope": "GOOGLE", "types": ["bank", "atm", "accounting", "finance", "point_of_interest", "establishment"], "user_ratings_total": 46, "vicinity": "Calle Real, 1, Villanueva de la Cañada"}, {"business_status": "OPERATIONAL", "geometry": {"location": {"lat": 40.50696839999999, "lng": -3.8943492}, "viewport": {"northeast": {"lat": 40.5083719302915, "lng": -3.892997019708498}, "southwest": {"lat": 40.5056739697085, "lng": -3.895694980291502}}}, "icon": "https://maps.gstatic.com/mapfiles/place_api/icons/v1/png_71/bank-71.png", "icon_background_color": "#909CE1", "icon_mask_base_uri": "https://maps.gstatic.com/mapfiles/place_api/icons/v2/bank-intl_pinlet", "international_phone_number": "+34 916 40 09 04", "name": "Banco Santander - Smart Red", "opening_hours": {"open_now": false}, "photos": [{"height": 720, "html_attributions": ["<a href=\"https://maps.google.com/maps/contrib/102659115853196508698\">Banco Santander - Smart Red</a>"], "photo_reference": "AWn5SU5n0yZnlvX5U1FSWR-7B0ggw6ZolTaeVQm9qdHP7QIucodDemzh_ZFzgzWaUEj5ISFO7TaiMrTSBzrEEJz6TlioksyZV1I-tL9BEQXDXau1WT8M9_DILazGKIli3S6zMDensq1nLbLu5H6WKujVs-qwu1J6ST5aS-pWrrfnaXDvlrDOYN3vHc3RUOx7HeWLudeq42bYBDB5Jrj8Vm0AYPwlcsbucl_f4N0ixGzh_6gRsiMe8rRF44CqibmE3SRf2gKPUg0vSpb6r8WAtBDdxWRfDVtHUeoE_kLrxx6X8gZuTztClSybA6T0wNSBHGXl0Crd4DX4eCU", "width": 1280}], "place_id": "ChIJl7spx0eDQQ0RhRJVFmTfvrc", "plus_code": {"compound_code": "G444+Q7 Las Rozas de Madrid, Spain", "global_code": "8CGRG444+Q7"}, "rating": 1.7, "reference": "ChIJl7spx0eDQQ0RhRJVFmTfvrc", "scope": "GOOGLE", "types": ["bank", "atm", "finance", "point_of_interest", "establishment"], "user_ratings_total": 39, "vicinity": "Calle Castillo de Arévalo, 3, Las Rozas de Madrid"}, {"business_status": "OPERATIONAL", "geometry": {"location": {"lat": 40.500977, "lng": -3.887413999999999}, "viewport": {"northeast": {"lat": 40.5024200802915, "lng": -3.886165119708497}, "southwest": {"lat": 40.4997221197085, "lng": -3.888863080291502}}}, "icon": "https://maps.gstatic.com/mapfiles/place_api/icons/v1/png_71/bank-71.png", "icon_background_color": "#909CE1", "icon_mask_base_uri": "https://maps.gstatic.com/mapfiles/place_api/icons/v2/bank-intl_pinlet", "international_phone_number": "+34 917 10 40 80", "name": "Unicaja Banco", "opening_hours": {"open_now": false}, "photos": [{"height": 3024, "html_attributions": ["<a href=\"https://maps.google.com/maps/contrib/109428974996353658694\">cerrea cortijo</a>"], "photo_reference": "AWn5SU7VvVntEWzcWB8DZWPA5TgQLHPXGDZptrp6dX5H43XizUoi8jkUr2VlOzd_Rd-DbK2YujnBImAZcGSIDJ0Rju-P366glgJqlDr7_b3JSBPbBLWLu1q_eT2NkrqJqtxpOvJMeDGvrqCr_XKOFlIQOfS5KkKjjTHpIQxoV0mIGIvZNsUuInHpjI5ukHX2hIiBKOgKoyIrPNiPRiSwFRow6m2EvJKrY6jIqcvq099YquX8TytLiZshalBkTi7WvAQ-1K9iQ-obB1xVqditmV7XQLPDqxN0OlVQKQp-73MHiCRj1_cZQtvlsUoPCTdghaTOZ172FPvQwJKX300Na4WTypQtCxrKtXVHEV4DPETv_udes-BkufKVhu8T-uy3tD0tkBiuWF8zcz0GNZnUeqVbVhcjafTKwf8tq05I0QTtJfJuOVnlqjBCsdjJ1zu7RXurGsDSNQ2jS7WA4k6OqJwVIU4qIS08D9b6LOSDiYMvCmRe6yeVd-dT9zH0Q05iwi27WwvYc8bdCFISuQSJEchGRQoplvXYtCRcWmJ1hsj4l31VETBx6WXJ6EbC8jfrQW5QykTrAGQ8DJng8kIIfstQRF9LKPi0MIC_60tm56oShK2IklQnwWaufrHWV0DUBFaioVAFBY-_", "width": 4032}], "place_id": "ChIJt5yZREKDQQ0RBJfrlYjZj6I", "plus_code": {"compound_code": "G427+92 Las Rozas de Madrid, Spain", "global_code": "8CGRG427+92"}, "rating": 2.7, "reference": "ChIJt5yZREKDQQ0RBJfrlYjZj6I", "scope": "GOOGLE", "types": ["bank", "finance", "point_of_interest", "establishment"], "user_ratings_total": 25, "vicinity": "Calle del Cabo Rufino Lázaro, 1, Las Rozas de Madrid"}, {"business_status": "OPERATIONAL", "geometry": {"location": {"lat": 40.502068, "lng": -3.8880216}, "viewport": {"northeast": {"lat": 40.5033768802915, "lng": -3.886675269708498}, "southwest": {"lat": 40.5006789197085, "lng": -3.889373230291502}}}, "icon": "https://maps.gstatic.com/mapfiles/place_api/icons/v1/png_71/generic_business-71.png", "icon_background_color": "#7B9EB0", "icon_mask_base_uri": "https://maps.gstatic.com/mapfiles/place_api/icons/v2/generic_pinlet", "international_phone_number": "+34 902 50 52 50", "name": "America eConsulting", "opening_hours": {"open_now": false}, "place_id": "ChIJ_eS7SUKDQQ0RM3w0YgYQjoE", "plus_code": {"compound_code": "G426+RQ Las Rozas de Madrid, Spain", "global_code": "8CGRG426+RQ"}, "reference": "ChIJ_eS7SUKDQQ0RM3w0YgYQjoE", "scope": "GOOGLE", "types": ["bank", "finance", "point_of_interest", "establishment"], "vicinity": "Calle Luxemburgo, 2, Las Rozas de Madrid"}, {"business_status": "OPERATIONAL", "geometry": {"location": {"lat": 40.52018999999999, "lng": -3.89669}, "viewport": {"northeast": {"lat": 40.52153073029149, "lng": -3.895328169708498}, "southwest": {"lat": 40.5188327697085, "lng": -3.898026130291503}}}, "icon": "https://maps.gstatic.com/mapfiles/place_api/icons/v1/png_71/bank-71.png", "icon_background_color": "#909CE1", "icon_mask_base_uri": "https://maps.gstatic.com/mapfiles/place_api/icons/v2/bank-intl_pinlet", "international_phone_number": "+34 600 40 40 90", "name": "CaixaBank Holabank", "opening_hours": {"open_now": false}, "photos": [{"height": 1192, "html_attributions": ["<a href=\"https://maps.google.com/maps/contrib/113724361520025788810\">CaixaBank Holabank</a>"], "photo_reference": "AWn5SU6cyMgx4WhT_TYYAJUJD1pVDPyyBldZ36g4HAWVl6P93LEh8TJSgmjIuuWhhDgeBb9M1iXHPq_niTa5Ts2twtAIjT9ViXEEVJ1UXXSBrMkaPGWy0-w1-IOUljSkCur42ShlZZd7eUzrnOMz4I3u9zHAGLRBmNQz0mPtXnAFW3IVzW2fbDmY7TsvXWk6X8Q4l457ZACtRagN3CMEetClQaph2OcLKyQEkzk4mBlTa7rslxHsD53x5QhAFrT24LbjFwEhM_vTLRukyfSPLv-FkeVIZdsnSlLMPj3NLIg5gC1n6rz754okipByg8KFh5i8wmjTuVCuGVM", "width": 2120}], "place_id": "ChIJJzsHkS-DQQ0RDt_5j-tZrK8", "plus_code": {"compound_code": "G4C3+38 Las Rozas de Madrid, Spain", "global_code": "8CGRG4C3+38"}, "rating": 2.1, "reference": "ChIJJzsHkS-DQQ0RDt_5j-tZrK8", "scope": "GOOGLE", "types": ["bank", "finance", "point_of_interest", "establishment"], "user_ratings_total": 44, "vicinity": "Calle Camilo José Cela, 5, Las Rozas de Madrid"}, {"business_status": "OPERATIONAL", "geometry": {"location": {"lat": 40.4970873, "lng": -3.8860046}, "viewport": {"northeast": {"lat": 40.4984870302915, "lng": -3.884654419708498}, "southwest": {"lat": 40.4957890697085, "lng": -3.887352380291502}}}, "icon": "https://maps.gstatic.com/mapfiles/place_api/icons/v1/png_71/bank-71.png", "icon_background_color": "#909CE1", "icon_mask_base_uri": "https://maps.gstatic.com/mapfiles/place_api/icons/v2/bank-intl_pinlet", "international_phone_number": "+34 916 36 33 28", "name": "Euro Fomento Pecuario SA", "place_id": "ChIJKVXXX12DQQ0Ri2135WMNcGo", "plus_code": {"compound_code": "F4W7+RH Las Rozas de Madrid, Spain", "global_code": "8CGRF4W7+RH"}, "reference": "ChIJKVXXX12DQQ0Ri2135WMNcGo", "scope": "GOOGLE", "types": ["bank", "finance", "point_of_interest", "establishment"], "vicinity": "Calle Berna, 12, A, Las Rozas de Madrid"}, {"business_status": "OPERATIONAL", "geometry": {"location": {"lat": 40.5206034, "lng": -3.8948307}, "viewport": {"northeast": {"lat": 40.5220304302915, "lng": -3.893452619708498}, "southwest": {"lat": 40.5193324697085, "lng": -3.896150580291503}}}, "icon": "https://maps.gstatic.com/mapfiles/place_api/icons/v1/png_71/bank-71.png", "icon_background_color": "#909CE1", "icon_mask_base_uri": "https://maps.gstatic.com/mapfiles/place_api/icons/v2/bank-intl_pinlet", "international_phone_number": "+34 916 40 00 54", "name": "BBVA", "opening_hours": {"open_now": false}, "photos": [{"height": 720, "html_attributions": ["<a href=\"https://maps.google.com/maps/contrib/104901091952903413252\">BBVA</a>"], "photo_reference": "AWn5SU5syqhew8ARr7EEF-Sh5rTSuLtw0IINq0vah5GlbLR6l0ZccjbpRjLH_PYKqb256DOoNME73Vd_Qw8TXcWyNwgNS-NjMx7KmqdNDjW_rOU60Ud3hnvnZqb6u6O2gzdmEDzLWOn5v3eOJHPJ_JzE4g7zCDwjPszK9j8RjFODMGyRtpUYcJioLtq3gJkUd7tecqx8q_sEbq8ftssGJitdkK93oA2prZQJMYOBNwr43Z-zDg3mIuUgO4KefUjO7bvfyZsaHgteyNBND3On14PlBMrFNEGupUK7wh4o2vrC1yomTGhbonNPB1fPP0S2PGYlt5L6Y4nGxgo", "width": 1280}], "place_id": "ChIJqZ78ayWDQQ0RqxMvi8Vokwo", "plus_code": {"compound_code": "G4C4+63 Las Rozas de Madrid, Spain", "global_code": "8CGRG4C4+63"}, "rating": 2.2, "reference": "ChIJqZ78ayWDQQ0RqxMvi8Vokwo", "scope": "GOOGLE", "types": ["bank", "atm", "accounting", "finance", "point_of_interest", "establishment"], "user_ratings_total": 54, "vicinity": "Calle Camilo José Cela, 12, Monterrozas, Las Rozas de Madrid"}, {"business_status": "OPERATIONAL", "geometry": {"location": {"lat": 40.520541, "lng": -3.892225600000001}, "viewport": {"northeast": {"lat": 40.5218899802915, "lng": -3.890876619708498}, "southwest": {"lat": 40.51919201970851, "lng": -3.893574580291503}}}, "icon": "https://maps.gstatic.com/mapfiles/place_api/icons/v1/png_71/bank-71.png", "icon_background_color": "#909CE1", "icon_mask_base_uri": "https://maps.gstatic.com/mapfiles/place_api/icons/v2/bank-intl_pinlet", "international_phone_number": "+34 900 822 982", "name": "Triodos Bank, N.V., sucursal en España", "opening_hours": {"open_now": false}, "photos": [{"height": 498, "html_attributions": ["<a href=\"https://maps.google.com/maps/contrib/113558452840594393960\">Triodos Bank, N.V., España</a>"], "photo_reference": "AWn5SU4KJAbbOHuXNJISAClgYKxUcMmP6NRjMKnRkJIsdexuRwpe__xMpg9tuaAyQTpbjK6G7SdrcOBMrh-paj3N3loOBq1iacxglYi8Bq4MdLuAMUmTsygzv96TvBFJit3F4KXoqWMxT9_N9LB1QDsq_APlb1UqrMCWwUnaHJOXThUVnGWUnyksqMUeGFyJHztnGtXmkplUgq5vD3h5qa8GK9ZHb9ojm7rUEk89nWQqXCF8xKkpaqqwZ0D5CZeL83ZSMUBe4hZLZoPdJMFstc7ewl2EtpExjVqHTPvmb5iE-3Yg4zshT6aUksQI5kGLoR3wW64FQXyTtMw", "width": 750}], "place_id": "ChIJC-jy3iSDQQ0RXj6UmifgQ_E", "plus_code": {"compound_code": "G4C5+64 Las Rozas de Madrid, Spain", "global_code": "8CGRG4C5+64"}, "rating": 2.5, "reference": "ChIJC-jy3iSDQQ0RXj6UmifgQ_E", "scope": "GOOGLE", "types": ["bank", "finance", "point_of_interest", "establishment"], "user_ratings_total": 46, "vicinity": "Calle José Echegaray, 7, Las Rozas de Madrid"}, {"business_status": "OPERATIONAL", "geometry": {"location": {"lat": 40.489285, "lng": -3.9619837}, "viewport": {"northeast": {"lat": 40.49060713029149, "lng": -3.960722269708499}, "southwest": {"lat": 40.48790916970849, "lng": -3.963420230291503}}}, "icon": "https://maps.gstatic.com/mapfiles/place_api/icons/v1/png_71/bank-71.png", "icon_background_color": "#909CE1", "icon_mask_base_uri": "https://maps.gstatic.com/mapfiles/place_api/icons/v2/bank-intl_pinlet", "international_phone_number": "+34 600 40 40 90", "name": "CaixaBank", "opening_hours": {"open_now": false}, "photos": [{"height": 1192, "html_attributions": ["<a href=\"https://maps.google.com/maps/contrib/113038428240174144691\">CaixaBank</a>"], "photo_reference": "AWn5SU6Vae-JXYE_FYNw3kMT2BCqn2UlrrVNlGAk4WuRhl8gN-Gg1MCJ2JuwQCdjGQqHrqW7y7DCjn3r54_tH3ydqxlY446jsRFOjRGZfWsGk0_TkxNwIQ8vvFvLKAbEo6VGwwT5yAveQ0E1hWdjH-Z3G6QSLfClXcXhlMxLdls-7D5tOkutotZ8jhO6jdMJFIJmVG9umgDbeuRY2vT80nplJ38G3tpilQktu7OXQ_r0tPE59RkDlAXCoimwzjpvXtmIOfE530CgpD8T5jkOgP8TMvHuBCRfPad85AHQAs4DZgQ3xT-rzfSbAG07Am69eulrUNY1zn1PZII", "width": 2120}], "place_id": "ChIJg32jybGdQQ0RdO8d23SoUPQ", "plus_code": {"compound_code": "F2QQ+P6 Villanueva del Pardillo, Spain", "global_code": "8CGRF2QQ+P6"}, "rating": 1.9, "reference": "ChIJg32jybGdQQ0RdO8d23SoUPQ", "scope": "GOOGLE", "types": ["bank", "finance", "point_of_interest", "establishment"], "user_ratings_total": 28, "vicinity": "Avenida de Madrid, 18, Villanueva del Pardillo"}, {"business_status": "OPERATIONAL", "geometry": {"location": {"lat": 40.452735, "lng": -3.984893000000001}, "viewport": {"northeast": {"lat": 40.45435398029149, "lng": -3.983359619708498}, "southwest": {"lat": 40.45165601970849, "lng": -3.986057580291503}}}, "icon": "https://maps.gstatic.com/mapfiles/place_api/icons/v1/png_71/bank-71.png", "icon_background_color": "#909CE1", "icon_mask_base_uri": "https://maps.gstatic.com/mapfiles/place_api/icons/v2/bank-intl_pinlet", "international_phone_number": "+34 918 12 57 19", "name": "Santander Work Café - Banco Santander", "opening_hours": {"open_now": false}, "photos": [{"height": 817, "html_attributions": ["<a href=\"https://maps.google.com/maps/contrib/109601488391066539992\">Santander Work Café - Banco Santander</a>"], "photo_reference": "AWn5SU4wwa3BVgrbyehtbPvRfAB8o_TMFIsAXy5bAwxyy226ytsQ6vkeIm77DVpeUiGlZ5kVgkcYYbIS2C_Y2lwQqljPdGmbMCV6l71fRmM2EG8wgCINZtrrD-JC7knM5t3ydFpBwF9wX7jhkZz7tY1102Gm0Axo27PVAhdOW0dINPh7r0cH9DKLAj15FLoDWT0bW1UREt_ESMJ2UH0OVPquZjoINUbORfjKqh7qwdF7PB-7jZmuosZw81pccLPztR1kF2y0SywYtifDm0s7_RM5u5jxhq-W6yVYPTnsX-lahMsubR_4kykJ5dspMnENG9JKjkZXFLuKeIk", "width": 1452}], "place_id": "ChIJ_ekiVD-ZQQ0R19V9394uyz8", "plus_code": {"compound_code": "F238+32 Villanueva de la Cañada, Spain", "global_code": "8CGRF238+32"}, "rating": 5, "reference": "ChIJ_ekiVD-ZQQ0R19V9394uyz8", "scope": "GOOGLE", "types": ["bank", "finance", "point_of_interest", "establishment"], "user_ratings_total": 12, "vicinity": "Avenida Universidad, 1, Villanueva de la Cañada"}, {"business_status": "OPERATIONAL", "geometry": {"location": {"lat": 40.4442173, "lng": -4.003665}, "viewport": {"northeast": {"lat": 40.44555388029151, "lng": -4.002379969708498}, "southwest": {"lat": 40.44285591970851, "lng": -4.005077930291502}}}, "icon": "https://maps.gstatic.com/mapfiles/place_api/icons/v1/png_71/bank-71.png", "icon_background_color": "#909CE1", "icon_mask_base_uri": "https://maps.gstatic.com/mapfiles/place_api/icons/v2/bank-intl_pinlet", "international_phone_number": "+34 918 11 76 11", "name": "Banco Santander", "opening_hours": {"open_now": false}, "photos": [{"height": 720, "html_attributions": ["<a href=\"https://maps.google.com/maps/contrib/116440449931838626904\">Banco Santander</a>"], "photo_reference": "AWn5SU74_i1e4UCo5_d_IwTHy1uAB-Q43QF2KcGejCvw9B8Wnph4nvzYEOlbJcxHbWTSXqb_sRoFA73FPYznjbsfi7BnEigP10YDWc-K-2pWx_uhneS5khYqFH9aEZCVfNdjj1RH8tOIVTvAYCxT4UTbwdecAqtJxpzsJJ-6492zFq1WdyZ0u3uw1jfIoLedAw4yKvxUPDIQFZxVwR8-2H9KQvYitxKiFdBAZp-loucZVWf1BsVtcVVN5KPjbN9wSclSa-BTpL-UrIp5ErNgEBJu0JuMRm8cdaTDu9ZID8x7V4ffdKei292OYfa9yydskw6YS3qKoXKRZ6k", "width": 1280}], "place_id": "ChIJqUWk-nWZQQ0RCUWDHWgMZ-A", "plus_code": {"compound_code": "CXVW+MG Villanueva de la Cañada, Spain", "global_code": "8CGQCXVW+MG"}, "rating": 2.9, "reference": "ChIJqUWk-nWZQQ0RCUWDHWgMZ-A", "scope": "GOOGLE", "types": ["bank", "atm", "finance", "point_of_interest", "establishment"], "user_ratings_total": 36, "vicinity": "Calle Real, 79, Villanueva de la Cañada"}, {"business_status": "OPERATIONAL", "geometry": {"location": {"lat": 40.4488109, "lng": -4.0054454}, "viewport": {"northeast": {"lat": 40.4501452302915, "lng": -4.004156069708499}, "southwest": {"lat": 40.4474472697085, "lng": -4.006854030291503}}}, "icon": "https://maps.gstatic.com/mapfiles/place_api/icons/v1/png_71/bank-71.png", "icon_background_color": "#909CE1", "icon_mask_base_uri": "https://maps.gstatic.com/mapfiles/place_api/icons/v2/bank-intl_pinlet", "international_phone_number": "+34 918 15 61 75", "name": "Ibercaja Banco", "opening_hours": {"open_now": false}, "photos": [{"height": 900, "html_attributions": ["<a href=\"https://maps.google.com/maps/contrib/104895079111190296229\">Ibercaja Banco</a>"], "photo_reference": "AWn5SU7tPF1LXGEI8YeSh4ImxO1nTPj046gSl1PkuZCuC7ALHTvSTCwhAW_UgEWY8kMOlzaPF3K4zjHKIFoQEWFf_xM-6Y5WQsO_EPDf21lEG5bSr_ztDlcpT-2d5sUbZLgdbGQKcx1x5slAfE_TDQpoHW-ikPR66iMyUrK64sA9hyZcEA7yVeZUKQtCEuSEnCDprs9-Jk8zzlqqB8NDvuYvPmd4TGdHv9wcmVfe-9m-2MoewPCy6gi3fHKPFS6oknC0Zu7O9JX7nfdpLT5l6BNzQ1k1DNcCqt7H7pt1ALxXptB--GIVV-odZaBv0W8RREV4g5z0k5R5Cgw", "width": 1600}], "place_id": "ChIJJbWog3OZQQ0RmtEenqiFLcE", "plus_code": {"compound_code": "CXXV+GR Villanueva de la Cañada, Spain", "global_code": "8CGQCXXV+GR"}, "rating": 2.4, "reference": "ChIJJbWog3OZQQ0RmtEenqiFLcE", "scope": "GOOGLE", "types": ["bank", "atm", "accounting", "finance", "point_of_interest", "establishment"], "user_ratings_total": 14, "vicinity": "Calle Real, 21, Villanueva de la Cañada"}, {"business_status": "OPERATIONAL", "geometry": {"location": {"lat": 40.44860309999999, "lng": -4.005245100000001}, "viewport": {"northeast": {"lat": 40.4499234802915, "lng": -4.003999869708498}, "southwest": {"lat": 40.4472255197085, "lng": -4.006697830291503}}}, "icon": "https://maps.gstatic.com/mapfiles/place_api/icons/v1/png_71/atm-71.png", "icon_background_color": "#909CE1", "icon_mask_base_uri": "https://maps.gstatic.com/mapfiles/place_api/icons/v2/atm_pinlet", "name": "Punto Nickel - LA OFICINA", "opening_hours": {"open_now": false}, "place_id": "ChIJ3URAP0SZQQ0RYxNjHjRKu50", "plus_code": {"compound_code": "CXXV+CW Villanueva de la Cañada, Spain", "global_code": "8CGQCXXV+CW"}, "reference": "ChIJ3URAP0SZQQ0RYxNjHjRKu50", "scope": "GOOGLE", "types": ["atm", "bank", "finance", "point_of_interest", "establishment"], "vicinity": "Calle Real, 27, Villanueva de la Cañada"}]