[{"geometry": {"location": {"lat": 40.3453499, "lng": -4.1021346}, "viewport": {"northeast": {"lat": 40.34910087967738, "lng": -4.095051312176264}, "southwest": {"lat": 40.34236647172148, "lng": -4.108264103867247}}}, "icon": "https://maps.gstatic.com/mapfiles/place_api/icons/v1/png_71/geocode-71.png", "icon_background_color": "#7B9EB0", "icon_mask_base_uri": "https://maps.gstatic.com/mapfiles/place_api/icons/v2/generic_pinlet", "name": "Villanueva de Perales", "photos": [{"height": 3024, "html_attributions": ["<a href=\"https://maps.google.com/maps/contrib/116765567352143167279\">Emilio Jose Barrios Juarez</a>"], "photo_reference": "AWn5SU6ZJZSh7iBZyYqa-oPQNqa3aLxCH725tn0RZllImItJt4tGsxTDir0iImO1Gg9owYUjxh-jJCA_kdkCU5-NtIkSCoIvEjeWBqrUHWNWWNBKEk1ncceiYQyKlTeoMTZb-Wdhd5jo3K0nDoQBSOSH66fxh6zHY7Q2Gvm0jVxsAx7b2eqeKhxSYVoIlV4JrjXWcw47TB13uc099gG0QwSuldarBwRwTu4rPnuFJfYXWp-hauWwrc7v9CDmTRg8k61DF5xx5J6zrCQwnsbY9Bzxn5UbbsbkSYYIbbQPVycIxJQ3zV-gGip-wANIX_k6FBpLtXkNAbgjY6FkRVoiuQViHds91OZvp0S3Z-s8k7kDTqtlgFAE41RZm59p9_uWMPbzHMX7g455LZjBD41GMFlJxjEiSsB-NXB2-PFQm46eWc9Iv-vOjwHVWuT2S0A4rXx-XxCh1dxeGml8hxtJJYH8gFeAzFsn-JQbsMG7OftNseZQhgujBem0uX1Qtpxj_gRA2xBf-hZV5LvwGFyOiPYxKInVgXdahmBgvWPPOaXm1JkopN2jtbKJq6i6gf83CGWjSpGeNTUOjkQlOs-i1AZDRxlHRP-GCtFK_O5RnaHhvM9p8jIyHKrGVTFZF8oOn7A8wUKvGA", "width": 4032}], "place_id": "ChIJxdolj7C9QQ0RRxxl-mCMrPE", "reference": "ChIJxdolj7C9QQ0RRxxl-mCMrPE", "scope": "GOOGLE", "types": ["locality", "political"], "vicinity": "Villanueva de Perales"}, {"business_status": "OPERATIONAL", "geometry": {"location": {"lat": 40.34542479999999, "lng": -4.1279469}, "viewport": {"northeast": {"lat": 40.34649693029149, "lng": -4.126666719708498}, "southwest": {"lat": 40.34379896970849, "lng": -4.129364680291502}}}, "icon": "https://maps.gstatic.com/mapfiles/place_api/icons/v1/png_71/school-71.png", "icon_background_color": "#7B9EB0", "icon_mask_base_uri": "https://maps.gstatic.com/mapfiles/place_api/icons/v2/school_pinlet", "international_phone_number": "+34 918 13 75 21", "name": "Colegio Público San Miguel", "place_id": "ChIJzbook0K8QQ0Rwj9Vc0o5ac0", "plus_code": {"compound_code": "8VWC+5R Villamantilla, Spain", "global_code": "8CGQ8VWC+5R"}, "reference": "ChIJzbook0K8QQ0Rwj9Vc0o5ac0", "scope": "GOOGLE", "types": ["school", "point_of_interest", "establishment"], "vicinity": "Calle de las Viñas, 9, Villamantilla"}, {"business_status": "OPERATIONAL", "geometry": {"location": {"lat": 40.3458788, "lng": -4.1300913}, "viewport": {"northeast": {"lat": 40.34723728029149, "lng": -4.128778719708498}, "southwest": {"lat": 40.3445393197085, "lng": -4.131476680291502}}}, "icon": "https://maps.gstatic.com/mapfiles/place_api/icons/v1/png_71/generic_business-71.png", "icon_background_color": "#7B9EB0", "icon_mask_base_uri": "https://maps.gstatic.com/mapfiles/place_api/icons/v2/generic_pinlet", "international_phone_number": "+34 918 13 72 28", "name": "TALLERES BORDAS S.L.", "opening_hours": {"open_now": false}, "place_id": "ChIJmYKG30G8QQ0RAC0oo7ZNy10", "plus_code": {"compound_code": "8VW9+9X Villamantilla, Spain", "global_code": "8CGQ8VW9+9X"}, "rating": 4.7, "reference": "ChIJmYKG30G8QQ0RAC0oo7ZNy10", "scope": "GOOGLE", "types": ["locksmith", "store", "point_of_interest", "establishment"], "user_ratings_total": 6, "vicinity": "Carretera de San Martín de Valdeiglesias nº 6, Villamantilla"}, {"business_status": "OPERATIONAL", "geometry": {"location": {"lat": 40.3387605, "lng": -4.129603099999999}, "viewport": {"northeast": {"lat": 40.3400589802915, "lng": -4.128163919708497}, "southwest": {"lat": 40.3373610197085, "lng": -4.130861880291501}}}, "icon": "https://maps.gstatic.com/mapfiles/place_api/icons/v1/png_71/worship_general-71.png", "icon_background_color": "#7B9EB0", "icon_mask_base_uri": "https://maps.gstatic.com/mapfiles/place_api/icons/v2/worship_christian_pinlet", "international_phone_number": "+34 918 13 74 06", "name": "Iglesia de San Miguel Arcángel", "photos": [{"height": 4000, "html_attributions": ["<a href=\"https://maps.google.com/maps/contrib/101321764474141234821\">ricardo fernández del Blanco</a>"], "photo_reference": "AWn5SU52cB9UrQzYx8cueONzuBxcgMyd_gWi8myCmcSsCe7xXC4PMe_889YJ6Omc2Psjw2BsYYOH7nRdiub3Ma2xV4OFgY9mJ1jSRZ_ZV1to2vnbQhTXL8F2A1Cnnsw5amnJlytG7LwhAzWHjlZygkv8iBlzq30iQ_fTuOQMxdjt3zNYfDFThbnafUKNNbL0Ma0ojz4hKTJqlkRgdXCNdSFbEQMtJVj7Jpr3Q7NxjbX8LkcqDZuBy9BTKiTxdUzJ4JQx1HD3IYrQPV2EIONvs62ZKhsMh17grCzXzFrcELfQxdGcTR77fqgYQ2wqj5eVsA-GFqG79LoQ95c_Cd8Dts5W0QEt1u3naJOyCOnXOZcAR1uE_fUOiESI6St6r1UdDs517qCcVfC5etB_sWl-gE8X8hD4DLZlhawKUF8cVEHJQ48WeuQN0z7cTj-bFZ2JJ2SHgDxHNl_Rc-vv7gn9Jpw7_ioiSD6UfgHDhw7XLrxPnn70TmV21qbjXF-N7UtCaiU4rO6S2OW6MseCTnL3-rkIt8eJvCHqJCrIe0JVMd71bla4Wa4oWSjyMvOQQ7PLHsCE4CrWPywTDH1ekjTjVJ04_7WO3W6JQhkKRSBMFih98bg_aFltPErkc2JUequ_HNsmtGYcn055", "width": 1800}], "place_id": "ChIJC2EQQkC8QQ0R78-pE8HFTvc", "plus_code": {"compound_code": "8VQC+G5 Villamantilla, Spain", "global_code": "8CGQ8VQC+G5"}, "rating": 4.7, "reference": "ChIJC2EQQkC8QQ0R78-pE8HFTvc", "scope": "GOOGLE", "types": ["church", "place_of_worship", "point_of_interest", "establishment"], "user_ratings_total": 21, "vicinity": "Calle Antonino Rofazza, 15, Villamantilla"}, {"business_status": "OPERATIONAL", "geometry": {"location": {"lat": 40.34049629999999, "lng": -4.129755799999999}, "viewport": {"northeast": {"lat": 40.3418646802915, "lng": -4.128482669708498}, "southwest": {"lat": 40.3391667197085, "lng": -4.131180630291502}}}, "icon": "https://maps.gstatic.com/mapfiles/place_api/icons/v1/png_71/generic_business-71.png", "icon_background_color": "#7B9EB0", "icon_mask_base_uri": "https://maps.gstatic.com/mapfiles/place_api/icons/v2/generic_pinlet", "name": "FORMACIONES CONSTRUCTIVAS VILLAMANTA, S.L.", "opening_hours": {"open_now": false}, "photos": [{"height": 3000, "html_attributions": ["<a href=\"https://maps.google.com/maps/contrib/104992947982124478038\">FORMACIONES CONSTRUCTIVAS VILLAMANTA, S.L.</a>"], "photo_reference": "AWn5SU6J5lykNUmAP7DXnk_Z0UDPWNdyKyRxCRMSybqBsNEoZeG3toq0RpUH3YwrTtFMEZNsXIThj2Fn9y-aO8JaWzr2CwYHZq_QZaPu-uMAC5_ukGxdFIbRbeKijpk7Y0cA-GO4P8f6pJV7rucSMcFv0GTFZJH4Ujam9Z8o0wzPGoDn1TcYPbpPj4XzhoBoDf6dsNkosOK8meCEKqMkU2I8pPKWSd-SK0xfzHAPL1HQhl54rt3dn88sqzb29nWmcpFbtdsc2qkt0Lr92M1savuwEHFxRkPGS6qHy8pJLVzl7_z4KKC7ybn9Zi5F-Ov3j7lK5210rN5SVzU", "width": 4000}], "place_id": "ChIJ9WJKTWC-QQ0RwN_P9Vwq-vg", "plus_code": {"compound_code": "8VRC+53 Villamantilla, Spain", "global_code": "8CGQ8VRC+53"}, "reference": "ChIJ9WJKTWC-QQ0RwN_P9Vwq-vg", "scope": "GOOGLE", "types": ["general_contractor", "point_of_interest", "establishment"], "vicinity": "Calle San Miguel, 4, Villamantilla"}, {"business_status": "OPERATIONAL", "geometry": {"location": {"lat": 40.3445249, "lng": -4.1283219}, "viewport": {"northeast": {"lat": 40.3458368302915, "lng": -4.126903519708498}, "southwest": {"lat": 40.3431388697085, "lng": -4.129601480291503}}}, "icon": "https://maps.gstatic.com/mapfiles/place_api/icons/v1/png_71/shopping-71.png", "icon_background_color": "#4B96F3", "icon_mask_base_uri": "https://maps.gstatic.com/mapfiles/place_api/icons/v2/shopping_pinlet", "international_phone_number": "+34 918 13 73 02", "name": "Confecciones Maycoll", "photos": [{"height": 1192, "html_attributions": ["<a href=\"https://maps.google.com/maps/contrib/114127913772232287390\">Confecciones Maycoll</a>"], "photo_reference": "AWn5SU5WsretGQEAl2eCPfkYR_5p46_LiHaZpVLK4tL0lyY-CEk6dS5sZFelMSZthbvBKl36GEHPvecca8qNVnwzMGgx4cPQ0QURv6a1atqAIq787KZrO-93S9CcCLWtwlGao72q-lTRoz5Tm8KSTrdhcflo6naAmAJc-SZAlLxR0D9WwmiHli4nbx381yXY6nLGtypd8RRL3EesmH-GwHYl4A5pZKdJXZt3rR6thvYI0txELFrHBAc6xyy_2nsvwZkBk6LgA-tpiMR0kYnLOTFjfbNBrRpn2y1Gj3m4uzBEVJFjP72JV37bEMKqnyEEFvzxG8J_jpKBpEo", "width": 2120}], "place_id": "ChIJkWcyqmq8QQ0RknMdBXw48nA", "plus_code": {"compound_code": "8VVC+RM Villamantilla, Spain", "global_code": "8CGQ8VVC+RM"}, "rating": 4.2, "reference": "ChIJkWcyqmq8QQ0RknMdBXw48nA", "scope": "GOOGLE", "types": ["clothing_store", "store", "point_of_interest", "establishment"], "user_ratings_total": 16, "vicinity": "Calle de los Cedros, 1, Villamantilla"}, {"business_status": "OPERATIONAL", "geometry": {"location": {"lat": 40.338215, "lng": -4.1305991}, "viewport": {"northeast": {"lat": 40.3394394302915, "lng": -4.129474819708498}, "southwest": {"lat": 40.3367414697085, "lng": -4.132172780291502}}}, "icon": "https://maps.gstatic.com/mapfiles/place_api/icons/v1/png_71/generic_business-71.png", "icon_background_color": "#7B9EB0", "icon_mask_base_uri": "https://maps.gstatic.com/mapfiles/place_api/icons/v2/generic_pinlet", "international_phone_number": "+34 648 42 47 53", "name": "MULTIVALLE SL", "place_id": "ChIJISMLHEC8QQ0RWub4AH-yrt0", "plus_code": {"compound_code": "8VQ9+7Q Villamantilla, Spain", "global_code": "8CGQ8VQ9+7Q"}, "rating": 4, "reference": "ChIJISMLHEC8QQ0RWub4AH-yrt0", "scope": "GOOGLE", "types": ["point_of_interest", "establishment"], "user_ratings_total": 3, "vicinity": "Calle General Yagüe, 5, Villamantilla"}, {"business_status": "OPERATIONAL", "geometry": {"location": {"lat": 40.3380569, "lng": -4.130836}, "viewport": {"northeast": {"lat": 40.3393539302915, "lng": -4.129444369708498}, "southwest": {"lat": 40.3366559697085, "lng": -4.132142330291502}}}, "icon": "https://maps.gstatic.com/mapfiles/place_api/icons/v1/png_71/civic_building-71.png", "icon_background_color": "#7B9EB0", "icon_mask_base_uri": "https://maps.gstatic.com/mapfiles/place_api/icons/v2/civic-bldg_pinlet", "international_phone_number": "+34 918 13 72 95", "name": "Villamantilla Town Hall", "opening_hours": {"open_now": false}, "photos": [{"height": 1920, "html_attributions": ["<a href=\"https://maps.google.com/maps/contrib/114701663474349976132\">OjeiEye</a>"], "photo_reference": "AWn5SU6nMYKHSz3EbAdQXCfz-gLyAdDaHUgLQADxFeACYjG-ChvUpqlT8HCtEXwNQDKzahu1fiGuAc0ypxAN569GjoK3aNu1T5RIkhas9gDNvvpUBLhyJjivfJk6FceMEuFJmS-jg7sGmAcB7_FvpcVXHxJsxGrfz7yWqpBdClTiEZwSa3_r0QZoJSJhUGslzzqw3n65MCfRWJP9L_A6P8qMLVvdgc3RJoFtttUFu_soA78SoBZPQ70eCmT9ei-BlgTdsFkUAVtIu6Mr5OodDdWw6QeAdpo2BFHomX2x3vBTqTsL1BOHLpJJSH30MMmSFEnLjW2slb-rTbF-9tWi40f6C0OLNNtcSUoeBnL0PxfY6kh37Re9GkVDSAU16sQM_8dOWf997kdb063_lPwj91GAavahiWclGuxZG2vGwwey0wS4JHJHbv9elB2a68NBYXoe8ErkYHNeEk70N_v_TWGjYHGbmjhu0SslWjXeX-Xo2H6bR3zflT9GfrYO-4s919Cmeb4DjnymlXTiX2ZAdB4lx5Z9Qk_tDnIFIGktOyo3xKAEhlRK6y1gm4TuqCotHd-8N_9pMGO2DvC65AuBPQ2ocC7_A9AEvmaf6QQZFNdO-oxfEySZCtP9XwabNpU2-V_9dNFhinI-RM6N80k66OO86Pev-9w", "width": 2560}], "place_id": "ChIJL3MkHUC8QQ0RHAP_vCj7G9s", "plus_code": {"compound_code": "8VQ9+6M Villamantilla, Spain", "global_code": "8CGQ8VQ9+6M"}, "rating": 3.9, "reference": "ChIJL3MkHUC8QQ0RHAP_vCj7G9s", "scope": "GOOGLE", "types": ["city_hall", "local_government_office", "point_of_interest", "establishment"], "user_ratings_total": 27, "vicinity": "Plaza de España, 1, Villamantilla"}, {"business_status": "OPERATIONAL", "geometry": {"location": {"lat": 40.3371564, "lng": -4.1297207}, "viewport": {"northeast": {"lat": 40.3384753302915, "lng": -4.128544819708498}, "southwest": {"lat": 40.33577736970851, "lng": -4.131242780291503}}}, "icon": "https://maps.gstatic.com/mapfiles/place_api/icons/v1/png_71/generic_business-71.png", "icon_background_color": "#7B9EB0", "icon_mask_base_uri": "https://maps.gstatic.com/mapfiles/place_api/icons/v2/generic_pinlet", "name": "Centro Cultural", "opening_hours": {"open_now": false}, "photos": [{"height": 4032, "html_attributions": ["<a href=\"https://maps.google.com/maps/contrib/114109886163672594678\">Ruben Mora</a>"], "photo_reference": "AWn5SU5x-JbCyH8qIWlG_U6r3RMicsyR0soxLVzO5UNAQ_6IQSPYUn0_CtOhBN-sYEzSZafRQ2yWuPsj61bz1lYMiSw_tuB2qOVXvCGQKMdgVXvkEtEtIc0b2AiK95f0g0maxE7ZmJgHQigLRrpPUZ3oC-b3XxahDO3_l-w3aIu7EmiKfSber9UF8ED2fReD-TES8S06zCJT5icu4yCwQyHRXb-QcDjxrKNWZUkENcigfyjqygDOIauVinChiO0oCJcB78923Ix0f7d5NABbf5yzzGEc_oibmWqxqW5rO7CMPhbTAS67hNSIPB94GCNIUAUdE9i5IB0oCjdgegoN6gpE3TOAAKp94ciKSG0N3tN5ZcIlsYI4o_xvyIflgLFFZ9J7PlJLMFx5AuZxt1255Oo9CDRRvRipVNzb1sroFG9zkbDYthnbFp62sBI-qmieWJVdnIU5arvZM-0TS3S2NeIwCgRJ_wUKZc5B8l1xV4Ofdfao02sJKvZxcZTW_EWYzNhZvXUxb4h06oN19nzWqWAYxScMSZpHmgJiPSO3Xzj6KBksg7sBT5Ap_4m7ovosY2z-Ocm-EE_l1qpOsqJew1pDe0y2U28A2qjOXWyoFPit1cQqKVAuMQwIRwd-6vXfE6CK", "width": 1816}], "place_id": "ChIJYxzp9D-8QQ0RGX60gYzVWH8", "plus_code": {"compound_code": "8VPC+V4 Villamantilla, Spain", "global_code": "8CGQ8VPC+V4"}, "rating": 3.9, "reference": "ChIJYxzp9D-8QQ0RGX60gYzVWH8", "scope": "GOOGLE", "types": ["point_of_interest", "establishment"], "user_ratings_total": 25, "vicinity": "Calle de la Cultura, 1, Villamantilla"}, {"business_status": "OPERATIONAL", "geometry": {"location": {"lat": 40.3368925, "lng": -4.1300825}, "viewport": {"northeast": {"lat": 40.3382540802915, "lng": -4.128684619708498}, "southwest": {"lat": 40.33555611970851, "lng": -4.131382580291502}}}, "icon": "https://maps.gstatic.com/mapfiles/place_api/icons/v1/png_71/generic_business-71.png", "icon_background_color": "#7B9EB0", "icon_mask_base_uri": "https://maps.gstatic.com/mapfiles/place_api/icons/v2/generic_pinlet", "international_phone_number": "+34 918 13 71 92", "name": "Comunidad Autónoma de Madrid", "place_id": "ChIJk-0_8T-8QQ0RTNvS6HRefL0", "plus_code": {"compound_code": "8VP9+QX Villamantilla, Spain", "global_code": "8CGQ8VP9+QX"}, "rating": 5, "reference": "ChIJk-0_8T-8QQ0RTNvS6HRefL0", "scope": "GOOGLE", "types": ["general_contractor", "point_of_interest", "establishment"], "user_ratings_total": 1, "vicinity": "Calle General Yagüe, 16, Villamantilla"}, {"business_status": "OPERATIONAL", "geometry": {"location": {"lat": 40.33684969999999, "lng": -4.1301847}, "viewport": {"northeast": {"lat": 40.3382253302915, "lng": -4.128732469708498}, "southwest": {"lat": 40.3355273697085, "lng": -4.131430430291503}}}, "icon": "https://maps.gstatic.com/mapfiles/place_api/icons/v1/png_71/hospital-71.png", "icon_background_color": "#F88181", "icon_mask_base_uri": "https://maps.gstatic.com/mapfiles/place_api/icons/v2/hospital-H_pinlet", "international_phone_number": "+34 918 13 72 76", "name": "Clinic", "opening_hours": {"open_now": false}, "photos": [{"height": 4032, "html_attributions": ["<a href=\"https://maps.google.com/maps/contrib/102243648526755885308\">Ana Fuejo</a>"], "photo_reference": "AWn5SU7ydjoVH-RKAViwWHGjYe34F_byNtpklmTNBmYYvaSRbgdFoZeuRwbVVcZwr6mdbjF2_6I1QzMFxhI0UsNGdmiA-Z_Pbl_UA0p_ZBNww8aTJXnDghgpbUHSaqK9EJb4nA3XUg20SfXKZqObaNLrR2kjvxJ1GarTAq9gHGY_Pc_h6YHrdOfm2yEqqXkJMedXD8aN5wFeZdIr3iHvd5wmQ4ZcAL5FV5117vjvwn54ZSLXpzYXRuE_3qdwl5Xg32BlyDpcXmjtkQV686hLGVUpWN3rGbJegRJ-EIiQQMqVBpjovtRu1681Xh-PN4lKrreD8or-8vcxbkKaPos3YwYnsgAHZ3xgzXWkvd1dBjXibDgx0cD73gKtu7AVhqbCb8hR1lUI8XJBe9XugOUptU1H73_6lSCjyZgEOl2ZSFvPyuGbHhLRabUmPzkws7up-SocW98SYRREhvBkfHA3FGhBAANCSj6yLC2z5RkxndJkt6AzunPsXx-KXcWTRQ6siQsCiZ_cS3TVj5gv4fL1I64pOHT7g4HPhAH4GKpvoZMX8sSB5wFxgCEDNmaBlx1qBDqyc2PoFvSIBf4855IlPRKvib8_WPWkNGHzggYw0IqdN6ASpDzSo7FVenZzVtzj3H8Lsq4VtBYr", "width": 1816}], "place_id": "ChIJHfBd8D-8QQ0RnYbPcsQeywc", "plus_code": {"compound_code": "8VP9+PW Villamantilla, Spain", "global_code": "8CGQ8VP9+PW"}, "rating": 3, "reference": "ChIJHfBd8D-8QQ0RnYbPcsQeywc", "scope": "GOOGLE", "types": ["hospital", "point_of_interest", "health", "establishment"], "user_ratings_total": 6, "vicinity": "Calle General Yagüe, 16, Villamantilla"}, {"business_status": "OPERATIONAL", "geometry": {"location": {"lat": 40.33644839999999, "lng": -4.1308045}, "viewport": {"northeast": {"lat": 40.3378595302915, "lng": -4.129443719708498}, "southwest": {"lat": 40.3351615697085, "lng": -4.132141680291503}}}, "icon": "https://maps.gstatic.com/mapfiles/place_api/icons/v1/png_71/restaurant-71.png", "icon_background_color": "#FF9E67", "icon_mask_base_uri": "https://maps.gstatic.com/mapfiles/place_api/icons/v2/restaurant_pinlet", "international_phone_number": "+34 628 44 86 07", "name": "La Cueva de Villamantilla", "opening_hours": {"open_now": false}, "photos": [{"height": 4608, "html_attributions": ["<a href=\"https://maps.google.com/maps/contrib/108391191081982370326\">Antonio Rodríguez Gata</a>"], "photo_reference": "AWn5SU7MPPUohIS8QytWrk4w8s5bGOliql4rHoe-usqUa2xKcmcng3RfnQ7FYdqTAqbPwVgIROea8LMf_gu4WtqnTMHU1LOHdNhwAVI9GKfoq7kVEL6xu4kIJijz53m17YNIfYPaa3v-8VnkVYxYuZDUGHPovF6pDeH0Y5DGqD0YHPNCoIiXCUBOXg23KR-P0J4aX5LJ45ZYNc-budonrFucZ_hW9WDwhbYCWS6M7hE5WR2dOY3QWaNdDYo4j7w4D47y1_7yRSZeCOBtHJ2a4fTFUzgxfDGXxGbf-jOjMTPpq9b_alPrAWuJTqZn0YGVYxCJ5nAGLChVGBr9tYeCacn5KbOQLkxCJTB6oqGvJNUaKlhhhlnT8VhFGGS_dy0M9SLZHEENPbjyrbWgqnNy2gbDXiF9U3i26F9x4rK7D5MaWmD5f9MKp79iNGGREO_DTYAAKeErqLKCZi2fUPv3JtGrDJtSKUg2pPXJFhZECzs0bl9oy3HIoFibR2_M43FpamYbNDpW9Nu2z3Ss5sGdMztRJeHmThuKet1nYgsuayLyOwgJQM7m_3bj-OmQr1zMwnQiu4KUFcEv6g42q3ZG-ZFWoOUVRKgIBHXGjz0-xfnNiRDmxgal4M0TX3GkplMAqui6Br1P2508", "width": 3456}], "place_id": "ChIJLy4T_T-8QQ0RSlUTj8U385o", "plus_code": {"compound_code": "8VP9+HM Villamantilla, Spain", "global_code": "8CGQ8VP9+HM"}, "price_level": 2, "rating": 4.4, "reference": "ChIJLy4T_T-8QQ0RSlUTj8U385o", "scope": "GOOGLE", "types": ["restaurant", "food", "point_of_interest", "establishment"], "user_ratings_total": 801, "vicinity": "Paseo San Antonio, Villamantilla"}, {"business_status": "OPERATIONAL", "geometry": {"location": {"lat": 40.3444213, "lng": -4.1283721}, "viewport": {"northeast": {"lat": 40.34574128029151, "lng": -4.126968819708498}, "southwest": {"lat": 40.34304331970851, "lng": -4.129666780291503}}}, "icon": "https://maps.gstatic.com/mapfiles/place_api/icons/v1/png_71/generic_business-71.png", "icon_background_color": "#7B9EB0", "icon_mask_base_uri": "https://maps.gstatic.com/mapfiles/place_api/icons/v2/generic_pinlet", "name": "Pistas De Tenis Y Pádel De Villamantilla", "photos": [{"height": 2336, "html_attributions": ["<a href=\"https://maps.google.com/maps/contrib/101881490061674311221\">Javier Sevilla</a>"], "photo_reference": "AWn5SU7NRRZBGwc3x1TPkHLHOGNpxIhjIyqG0dbBXpxVrlntsyIlqD8tz1_klDWASEznNoenlhIoL0uYGf3KrC30_KTDsj9QW6bYSVTRQBd1pT0UoFUz06ooTcpYuBegMy_H2cG9b9kUs62mAbzS0xj6zR1G-tOgjD8RZgAGtZneDx1gNQ1Q3_7HmBLmEdS_l8whPyiUwgTIWLX-zQd95Rrvjk2JNGZ1_aY2OLKJscDCR_XN1WYxa9lXvE-tcKOzMYuLThdjQZVGygRG-Oib88UgVAsq33UDsBX99ozHVsHIM7H3yQ--9PTJDMtZHPPKMMQ4ei54wTu0DlTEfSqDR8RloeLB73vcUL3K-SNowdxbGNG8IEYbTVs7oBJ0q9Y8_nQ5V61KXo8go8dwGSeZF9bCGlD4_Lh14gVyD-0xIYH0MjKWDY3gk261zEsomrqZ1Qza5pVnQ2Ytwb6Mxko5PI-lcvGA0LNtq6oI-8T5k8Djj5rfO4ApALMECldM42wdGTwiEBTaC0YLWuFy9zX8jjJUGDJ7eLm6_l6mVCB45iB264dg70dNq3s684jiFkW9C5_2cnPDt1Xtx217GThIe75BMN6PZocA0WKK7D02N56y_AQ55eE9NTbRGAdkw0H-PItc1KJgcQ", "width": 4160}], "place_id": "ChIJRTJur0O8QQ0R9PsSocymwxg", "plus_code": {"compound_code": "8VVC+QM Villamantilla, Spain", "global_code": "8CGQ8VVC+QM"}, "rating": 4.1, "reference": "ChIJRTJur0O8QQ0R9PsSocymwxg", "scope": "GOOGLE", "types": ["point_of_interest", "establishment"], "user_ratings_total": 37, "vicinity": "Calle de los Cedros, 2, Villamantilla"}, {"business_status": "OPERATIONAL", "geometry": {"location": {"lat": 40.345774, "lng": -4.1291171}, "viewport": {"northeast": {"lat": 40.34704798029151, "lng": -4.127831819708498}, "southwest": {"lat": 40.34435001970851, "lng": -4.130529780291503}}}, "icon": "https://maps.gstatic.com/mapfiles/place_api/icons/v1/png_71/generic_business-71.png", "icon_background_color": "#7B9EB0", "icon_mask_base_uri": "https://maps.gstatic.com/mapfiles/place_api/icons/v2/generic_pinlet", "international_phone_number": "+34 695 02 95 09", "name": "ARTIPACK S.L.", "photos": [{"height": 654, "html_attributions": ["<a href=\"https://maps.google.com/maps/contrib/105258032516717766229\">ARTIPACK S.L.</a>"], "photo_reference": "AWn5SU5sKulf7iPNJwa-YmT3Y5t4Us70w1yO8JnxdSsrm2dng2KBWPq5M4hvSzix2jK5LlNCsutOTcoYZzuuiuvWTC2C7rftncL7-ssvAJHidppu7YI8JoR9C2Ut0c9PfT0zWvMyLo_zO2yrYyMk1ZH7ywIsjB3p9r2IFK40pHS1mwAcx0KD3D20UiZjHSjC7ELxRObHoNP1gEuoTttyI-deTeZ4eCxBb3jlslC9RyTVwhJBL5ygTjb65_pLR3PsB9BfSl3QvmCE3oysVLbTAjBBRe6f21DA-fLggOym-iMt0EyIcZIP4XDJAMakGfKEe3PLOPq5IdnAsGg", "width": 1277}], "place_id": "ChIJfRMB-hspQg0RSd1u-x_xDzw", "plus_code": {"compound_code": "8VWC+89 Villamantilla, Spain", "global_code": "8CGQ8VWC+89"}, "rating": 5, "reference": "ChIJfRMB-hspQg0RSd1u-x_xDzw", "scope": "GOOGLE", "types": ["point_of_interest", "establishment"], "user_ratings_total": 1, "vicinity": "Calle de los Cedros, 5, Villamantilla"}, {"business_status": "OPERATIONAL", "geometry": {"location": {"lat": 40.3460001, "lng": -4.103356000000001}, "viewport": {"northeast": {"lat": 40.3473178802915, "lng": -4.102012869708497}, "southwest": {"lat": 40.3446199197085, "lng": -4.104710830291502}}}, "icon": "https://maps.gstatic.com/mapfiles/place_api/icons/v1/png_71/generic_business-71.png", "icon_background_color": "#7B9EB0", "icon_mask_base_uri": "https://maps.gstatic.com/mapfiles/place_api/icons/v2/generic_pinlet", "name": "Asociación la Chaparra", "opening_hours": {"open_now": false}, "place_id": "ChIJD0URqLG9QQ0RWhbfa0-T_kA", "plus_code": {"compound_code": "8VWW+CM Villanueva de Perales, Spain", "global_code": "8CGQ8VWW+CM"}, "rating": 5, "reference": "ChIJD0URqLG9QQ0RWhbfa0-T_kA", "scope": "GOOGLE", "types": ["point_of_interest", "establishment"], "user_ratings_total": 1, "vicinity": "Calle San Antonio, Villanueva de Perales"}, {"business_status": "OPERATIONAL", "geometry": {"location": {"lat": 40.34607999999999, "lng": -4.10307}, "viewport": {"northeast": {"lat": 40.3473764302915, "lng": -4.101718769708497}, "southwest": {"lat": 40.3446784697085, "lng": -4.104416730291502}}}, "icon": "https://maps.gstatic.com/mapfiles/place_api/icons/v1/png_71/generic_business-71.png", "icon_background_color": "#7B9EB0", "icon_mask_base_uri": "https://maps.gstatic.com/mapfiles/place_api/icons/v2/generic_pinlet", "international_phone_number": "+34 918 13 77 04", "name": "Excavaciones Serpa", "opening_hours": {"open_now": false}, "photos": [{"height": 1536, "html_attributions": ["<a href=\"https://maps.google.com/maps/contrib/118281181838325939824\">Excavaciones Serpa</a>"], "photo_reference": "AWn5SU42_ZDzebc_SWxy5Wj9SeOVFQ69d8Cm0FP_qqX1eWs3YkRXadmq_jaIHSakB-HbokT9lscLd94YO4xo9oyUq-C28U9aughcLovizKOUK0Dhve9VQJi4uZCMNqfkOdAxHSxX_Yj--8krDMAM-X3pmw13hBqNmtZogxQU2qpG42dM-ipf2v3-VgaoBg9bEsCX5gNrRWQXgRr3MnrOnkDn4hGYUpVMpjv1miRmT2n_eJ-9r768qErUPfF6eKsXTA0o0O4u5ZnQPeK7MK0AEyPVGPw9tVPjYDDNigdfPt44Q-3w0i6RnuvaockAfGicFYYEvBtEW2-OcF4", "width": 2048}], "place_id": "ChIJv5LMqbG9QQ0RvOg2oqR6smM", "plus_code": {"compound_code": "8VWW+CQ Villanueva de Perales, Spain", "global_code": "8CGQ8VWW+CQ"}, "rating": 4.4, "reference": "ChIJv5LMqbG9QQ0RvOg2oqR6smM", "scope": "GOOGLE", "types": ["general_contractor", "point_of_interest", "establishment"], "user_ratings_total": 7, "vicinity": "Calle San Antonio, 3, Villanueva de Perales"}, {"business_status": "OPERATIONAL", "geometry": {"location": {"lat": 40.3375969, "lng": -4.131073499999999}, "viewport": {"northeast": {"lat": 40.3390188302915, "lng": -4.129780619708498}, "southwest": {"lat": 40.33632086970851, "lng": -4.132478580291502}}}, "icon": "https://maps.gstatic.com/mapfiles/place_api/icons/v1/png_71/restaurant-71.png", "icon_background_color": "#FF9E67", "icon_mask_base_uri": "https://maps.gstatic.com/mapfiles/place_api/icons/v2/restaurant_pinlet", "international_phone_number": "+34 918 13 75 36", "name": "Restaurante Las Meigas", "opening_hours": {"open_now": false}, "photos": [{"height": 2458, "html_attributions": ["<a href=\"https://maps.google.com/maps/contrib/105227986060372799923\">José Luis Guerrero</a>"], "photo_reference": "AWn5SU4rudYWpvA8DOuGxrYnA9_wtZ3AgWcaf4DBIWNduJVv7NOCPwOCnhQA_cnwbrfXApoDtFuXADqUK7ZQsAb4Ye40k5UoTkhhL2XJtlkYRz-CiJiOSRwe07EiUYMq23QIRFYcqh9mLXckb4Khig-H0XnczIoe1aTt_8KGRHU1tUpjMUwxGKJmhYgW9PXvHWlVZhtkK_DQUB27jZX0psadHDRlMDbplAbhw1xx_UCNoiTm61G8Sws0d2jity5PppH7v44nYg8WOZ9bBG1lAc8wzzCeUWD-AGgwCMpBcGyfct6M2oP-VMTtnQI3C3fNA8MceqYw7q_AFxtqjcBasbfRML3UuFipFO8ly8ckAy41VYbld324DLiTwCXfM3i6hJJO12Yw0XRVypTppRNldzqF_X9j_fBvVqBDDx-rh5wq9HAl_f5JpkqoB7SKuwzLYs5rtL7BcV9MGSNznhbYvR5G-P00vUZL8-hpULejAcM-FJ97m6QE9IQQSa0ed8fxTdjWSVXPtPntYo-XoueZow4Bbc7W3crgLw7IkUMFUjY9kZ6hIAPAkfW4t16d2_HMXMRJD9Tf5aaJVbkza4fcedtruH2185ixFQnwP1ib42ilh3qAKGlOQF6SyJ2TFQpzJZ3e", "width": 4944}], "place_id": "ChIJkWcyqmq8QQ0RKQDKNGldBnw", "plus_code": {"compound_code": "8VQ9+2H Villamantilla, Spain", "global_code": "8CGQ8VQ9+2H"}, "price_level": 1, "rating": 4.4, "reference": "ChIJkWcyqmq8QQ0RKQDKNGldBnw", "scope": "GOOGLE", "types": ["restaurant", "food", "point_of_interest", "establishment"], "user_ratings_total": 956, "vicinity": "Plaza de España, 9, Villamantilla"}, {"business_status": "OPERATIONAL", "geometry": {"location": {"lat": 40.33795740000001, "lng": -4.130741499999999}, "viewport": {"northeast": {"lat": 40.3393063802915, "lng": -4.129392519708497}, "southwest": {"lat": 40.33660841970851, "lng": -4.132090480291501}}}, "icon": "https://maps.gstatic.com/mapfiles/place_api/icons/v1/png_71/shopping-71.png", "icon_background_color": "#4B96F3", "icon_mask_base_uri": "https://maps.gstatic.com/mapfiles/place_api/icons/v2/shopping_pinlet", "name": "MERCADILLOS SEMANAL MARTES", "place_id": "ChIJ-Z18XAC9QQ0RMTwWRMncmrM", "plus_code": {"compound_code": "8VQ9+5P Villamantilla, Spain", "global_code": "8CGQ8VQ9+5P"}, "reference": "ChIJ-Z18XAC9QQ0RMTwWRMncmrM", "scope": "GOOGLE", "types": ["point_of_interest", "establishment"], "vicinity": "Plaza de España, Villamantilla"}, {"business_status": "OPERATIONAL", "geometry": {"location": {"lat": 40.3380637, "lng": -4.130841599999999}, "viewport": {"northeast": {"lat": 40.3393575302915, "lng": -4.129446769708497}, "southwest": {"lat": 40.3366595697085, "lng": -4.132144730291501}}}, "icon": "https://maps.gstatic.com/mapfiles/place_api/icons/v1/png_71/civic_building-71.png", "icon_background_color": "#7B9EB0", "icon_mask_base_uri": "https://maps.gstatic.com/mapfiles/place_api/icons/v2/civic-bldg_pinlet", "international_phone_number": "+34 918 12 41 22", "name": "Oficina Rural de Correos", "opening_hours": {"open_now": false}, "place_id": "ChIJa0t1Au69QQ0RmDGMkWBWAVI", "plus_code": {"compound_code": "8VQ9+6M Villamantilla, Spain", "global_code": "8CGQ8VQ9+6M"}, "rating": 5, "reference": "ChIJa0t1Au69QQ0RmDGMkWBWAVI", "scope": "GOOGLE", "types": ["post_office", "finance", "point_of_interest", "establishment"], "user_ratings_total": 1, "vicinity": "Plaza de España, 1, Villamantilla"}, {"geometry": {"location": {"lat": 40.3418042, "lng": -4.1302671}, "viewport": {"northeast": {"lat": 40.34960293707457, "lng": -4.125811938725464}, "southwest": {"lat": 40.33572178942874, "lng": -4.134648339469273}}}, "icon": "https://maps.gstatic.com/mapfiles/place_api/icons/v1/png_71/geocode-71.png", "icon_background_color": "#7B9EB0", "icon_mask_base_uri": "https://maps.gstatic.com/mapfiles/place_api/icons/v2/generic_pinlet", "name": "Villamantilla", "photos": [{"height": 1800, "html_attributions": ["<a href=\"https://maps.google.com/maps/contrib/101321764474141234821\">ricardo fernández del Blanco</a>"], "photo_reference": "AWn5SU7_qccpi9NMLCxyyOoNzxcKFrRCLtANb-XvvQjiPs-WCRrGU74x-4kW-kPA9elQQBDrYmnDlJU3e6a-z-jVuJBwgHrBeF_MMPgTiEfxUB47LvRQTJ1y5hjLfUI-khHgue5eDZ1IvqZPf9nR7Xk3DhL4mTEjFJkVj1WYUPf0uM9T5BZ9Z6joIn-58RSaVTT18yKrfLbGetiOsF2Bkys5XQW-aIzudLvLqIQ6olRhQBXdcRD0ed7ZOgU1qSezL6qWIrfvu3rH4WNJnhgoFFg78fqmqdV_WGvBqDEsOY5LWiLY4j-HIdcvUoT3uaHKYZOogG2l8Yzzrm2UwonkJtLXy6Iz1UFgNOh9_QDXGjKeGsimKSr1tFpE2OZq6d17MrNnZnlCO0qpa-MYTPFPUcFmM84OIBy6umJTD-gCtcqVEQBMHRP8yFaGRl0ySImONGolpqCpndCEdCXX15Nggy8Zro3Yw2CHKLGM9Uzo6CT52yiqIJhPLfTpHNHEt-iw6v_613Uzuc5sBjslSaVSQCfamceLLR4vrBLJvZQDoxIY4Jzy6R_D1iaSe5Y9yTNY-88Oos5Fmk09QNonB0gmW3TtMKTWeHcYhy_iOGllWL3hGGtLx06YJhkjUSumZPZyRT3w", "width": 4000}], "place_id": "ChIJ5zlq5kG8QQ0RpkG9HTJSPpk", "reference": "ChIJ5zlq5kG8QQ0RpkG9HTJSPpk", "scope": "GOOGLE", "types": ["locality", "political"], "vicinity": "Villamantilla"}]