[{"business_status": "OPERATIONAL", "geometry": {"location": {"lat": 40.645947, "lng": -3.3388407}, "viewport": {"northeast": {"lat": 40.64731063029149, "lng": -3.337495669708498}, "southwest": {"lat": 40.64461266970849, "lng": -3.340193630291502}}}, "icon": "https://maps.gstatic.com/mapfiles/place_api/icons/v1/png_71/bank-71.png", "icon_background_color": "#909CE1", "icon_mask_base_uri": "https://maps.gstatic.com/mapfiles/place_api/icons/v2/bank-intl_pinlet", "international_phone_number": "+34 600 40 40 90", "name": "CaixaBank", "opening_hours": {"open_now": false}, "photos": [{"height": 1192, "html_attributions": ["<a href=\"https://maps.google.com/maps/contrib/111834922405869993297\">CaixaBank</a>"], "photo_reference": "AWn5SU7QKA_64Vmylg1l9VZylWpS2WeHMmwxsuCqykZPtx7RUby55DGCSNVc1xZoFx2iK8HnxYJeFC0TX5CtKofP5i3J_kxD3nfhkX2KpseSkp0GHLOlqjytv5ct2WcXE3YUgHp3uOom8DpJOY-MSVItXibynF9wlSUXX4iGoYp3c0xdT3ehfbwd7T3skBfqCpGO3MqtVLD2MqnPMFlSAxhf3CdRCaog_pk0jMgc06ZnPhgQXQDQt3mny6IAdhqwLOHJoDW4PWUlssdBYZLzs0D-U96Po4-gWhVMS_RcpPfppWzB4v419lHNT9WiVCjaKeLhi7URK4IdJtw", "width": 2120}], "place_id": "ChIJmZ35noqzQw0REPmtpJqhSeQ", "plus_code": {"compound_code": "JMW6+9F Torrejón del Rey, Spain", "global_code": "8CGRJMW6+9F"}, "rating": 2, "reference": "ChIJmZ35noqzQw0REPmtpJqhSeQ", "scope": "GOOGLE", "types": ["bank", "finance", "point_of_interest", "establishment"], "user_ratings_total": 24, "vicinity": "Calle Reina Sofía, 1, Torrejón del Rey"}, {"business_status": "OPERATIONAL", "geometry": {"location": {"lat": 40.6435426, "lng": -3.3384547}, "viewport": {"northeast": {"lat": 40.6449067302915, "lng": -3.337024019708499}, "southwest": {"lat": 40.6422087697085, "lng": -3.339721980291502}}}, "icon": "https://maps.gstatic.com/mapfiles/place_api/icons/v1/png_71/generic_business-71.png", "icon_background_color": "#7B9EB0", "icon_mask_base_uri": "https://maps.gstatic.com/mapfiles/place_api/icons/v2/generic_pinlet", "international_phone_number": "+34 949 33 88 11", "name": "Eurocaja Rural", "opening_hours": {"open_now": false}, "place_id": "ChIJLXlWo4qzQw0RlrKUq0tNwXs", "plus_code": {"compound_code": "JMV6+CJ Torrejón del Rey, Spain", "global_code": "8CGRJMV6+CJ"}, "rating": 3.4, "reference": "ChIJLXlWo4qzQw0RlrKUq0tNwXs", "scope": "GOOGLE", "types": ["atm", "bank", "finance", "point_of_interest", "establishment"], "user_ratings_total": 5, "vicinity": "Carretera de Alcalá, 5, Torrejón del Rey"}, {"business_status": "OPERATIONAL", "geometry": {"location": {"lat": 40.6461422, "lng": -3.336333799999999}, "viewport": {"northeast": {"lat": 40.6475180302915, "lng": -3.335031819708498}, "southwest": {"lat": 40.6448200697085, "lng": -3.337729780291501}}}, "icon": "https://maps.gstatic.com/mapfiles/place_api/icons/v1/png_71/bank-71.png", "icon_background_color": "#909CE1", "icon_mask_base_uri": "https://maps.gstatic.com/mapfiles/place_api/icons/v2/bank-intl_pinlet", "international_phone_number": "+34 949 33 88 87", "name": "Ibercaja Banco", "opening_hours": {"open_now": false}, "photos": [{"height": 900, "html_attributions": ["<a href=\"https://maps.google.com/maps/contrib/115536538082657570069\">Ibercaja Banco</a>"], "photo_reference": "AWn5SU5e0K6aRl7WzMxJuERxvjr__0QSRfzX5vZy4WyPJlZADIusrPhKXh2saSo3FrBoI-QtM9fE1duXVBAxVyYVajMw6IQb4USIRdrRwVdxQLP86bEw1zhgpzS_lt1nL3aI6cruqJNmQczTtrNqNgccWlRbXA3VrvsiVwi_CNLSDlrLefU99c3zE3tPFTHRr0AO4b_GaVcBqlRNjRhYLqG8m98kfkW-mkPJvwgAVbBoOd0vms70gu5RIft9g5MLZNhuzBiwywyhxyly5ADJOHvt6i_YuLJFgTMcLGmumAymr1fHcTKm5_y2RMXPPgNgQlCdh5U_qYLxmNY", "width": 1600}], "place_id": "ChIJQb-ZH4uzQw0Rr66hjxny-HQ", "plus_code": {"compound_code": "JMW7+FF Torrejón del Rey, Spain", "global_code": "8CGRJMW7+FF"}, "rating": 2.3, "reference": "ChIJQb-ZH4uzQw0Rr66hjxny-HQ", "scope": "GOOGLE", "types": ["bank", "atm", "accounting", "finance", "point_of_interest", "establishment"], "user_ratings_total": 9, "vicinity": "Calle Ancha, 27, Torrejón del Rey"}, {"business_status": "OPERATIONAL", "geometry": {"location": {"lat": 40.58329579999999, "lng": -3.2980836}, "viewport": {"northeast": {"lat": 40.5846605302915, "lng": -3.296688419708498}, "southwest": {"lat": 40.5819625697085, "lng": -3.299386380291502}}}, "icon": "https://maps.gstatic.com/mapfiles/place_api/icons/v1/png_71/bank-71.png", "icon_background_color": "#909CE1", "icon_mask_base_uri": "https://maps.gstatic.com/mapfiles/place_api/icons/v2/bank-intl_pinlet", "international_phone_number": "+34 949 34 85 04", "name": "Ibercaja Banco", "opening_hours": {"open_now": false}, "photos": [{"height": 900, "html_attributions": ["<a href=\"https://maps.google.com/maps/contrib/112046995563787942320\">Ibercaja Banco</a>"], "photo_reference": "AWn5SU6Mebib0n8H03zNCEdUpo_CGLLrQyPa-pGum3Lu6UDn5FANd4KxoXejjIsxegjgTt3-U8VhoTZfYmZj2b-e_5UJv8An54w3etGiBWPYmBMGVtUEwDlkeO5RcvlVKnwr8VYuugR05AUrGkRzOsu433o0vJ8PG-RlGkaUYagiH37pT2HZykzuHScCHAd1er_fU5e4aiZqZl-jfZIcV4bagHOiSf3CNhDGHG_NVx9lZHWGHoDW9tYNk8-ppLs8rdHpAvr_IyfwQnxhHaFIYCjO8gKwndD5pNzKkg0KQGfkHybQQfm6htxbV-eHdrHvVI8FuMbKD3lcdRA", "width": 1600}], "place_id": "ChIJZzwlStZMQg0RiAc6m-KMRQc", "plus_code": {"compound_code": "HPM2+8Q Villanueva de la Torre, Spain", "global_code": "8CGRHPM2+8Q"}, "rating": 2, "reference": "ChIJZzwlStZMQg0RiAc6m-KMRQc", "scope": "GOOGLE", "types": ["bank", "atm", "accounting", "finance", "point_of_interest", "establishment"], "user_ratings_total": 9, "vicinity": "AV. del, Avenida de Pico Ocejón, 2, Centro Comercial Valgreen Local 16, Villanueva de la Torre"}, {"business_status": "OPERATIONAL", "geometry": {"location": {"lat": 40.58417, "lng": -3.2957299}, "viewport": {"northeast": {"lat": 40.5855221802915, "lng": -3.294387619708499}, "southwest": {"lat": 40.5828242197085, "lng": -3.297085580291502}}}, "icon": "https://maps.gstatic.com/mapfiles/place_api/icons/v1/png_71/bank-71.png", "icon_background_color": "#909CE1", "icon_mask_base_uri": "https://maps.gstatic.com/mapfiles/place_api/icons/v2/bank-intl_pinlet", "international_phone_number": "+34 600 40 40 90", "name": "CaixaBank", "opening_hours": {"open_now": false}, "photos": [{"height": 900, "html_attributions": ["<a href=\"https://maps.google.com/maps/contrib/104863629420317248022\">CaixaBank</a>"], "photo_reference": "AWn5SU4DT8XbCgvXB4gIYeNeT1VYYMn7o0jRQdpf8W4IrYkDkkZp6OMtTNFoIY0z59Wl2ZZfcEx7ASb0kjPdwZVKjAi-Mkgc0zQXeEL4fW3Z8NAuXSce558hXMDDHmwgzGEo-QgDsdbzAyYEe_aIh9h52iBqiEU4wM9J6N9PIQ8jUhDKo5_B0hrRW_DikbcHDoZRGwDn8ascIBonP97yt1oPcF_fN2OrB4yPAT6v8XJvKtZvi7H5fMMzM2Bk6HQLNxUVYByNxLqoT1LK-cXwv_GZTsaoJLeFKELVtDIesFlW1YnhT6PaJZKicVvDZrUQq2SY9xz3-m2JYmY", "width": 1600}], "place_id": "ChIJi8GsOipNQg0R11ylQUN_waA", "plus_code": {"compound_code": "HPM3+MP Villanueva de la Torre, Spain", "global_code": "8CGRHPM3+MP"}, "rating": 3.4, "reference": "ChIJi8GsOipNQg0R11ylQUN_waA", "scope": "GOOGLE", "types": ["bank", "finance", "point_of_interest", "establishment"], "user_ratings_total": 15, "vicinity": "Avenida España, B1-b2, Villanueva de la Torre"}]