[{"business_status": "OPERATIONAL", "geometry": {"location": {"lat": 40.7283185, "lng": -4.016348799999999}, "viewport": {"northeast": {"lat": 40.7296191802915, "lng": -4.014937069708497}, "southwest": {"lat": 40.7269212197085, "lng": -4.017635030291502}}}, "icon": "https://maps.gstatic.com/mapfiles/place_api/icons/v1/png_71/generic_business-71.png", "icon_background_color": "#7B9EB0", "icon_mask_base_uri": "https://maps.gstatic.com/mapfiles/place_api/icons/v2/generic_pinlet", "name": "Parque Infantil", "opening_hours": {"open_now": true}, "photos": [{"height": 2368, "html_attributions": ["<a href=\"https://maps.google.com/maps/contrib/103772719992257191575\">José Luis Hurtado Ruiz</a>"], "photo_reference": "AWn5SU6qDXZqXiky59BlryEqfDegBOESoj6ilrPKgFuBTj-iLVLoja8iogiWB5hgK9X-YJRtPP1QOXzZuJml_kNG82Q7kcfW7MzAiRisSC606PnTERNMvCb-PA43OahnFz_7zzkRbe-e-z6eL9bC4XCmE1cjoeesG3l5xcZGWFN6EzT5Kqau_FxX1gRcVi8zYkFKpeIWy-UfGsWrELIPExu5KyQnePQYw42jOD8YibtwuuDm9nLTg3ml5PoiX1K2hns7tdxboRdyi7esnUU_2KD11x1gBmT12Wjw8ZWqD6302e4xp6kwnlRRRCq0ce-CANDLGFRN13iGF0j1QjAcnoMHTbJ-_Yl65hfRykfdgN5KPnQYHXt1FtliRscxEnULfVHqN1RvWxypkk_5ib4g8kyJME6TmQvTBpFyk6MQ3ghI4P1fZaxXfirT6dFeP3ZT8aYcErRsrlmigFgM0fAURZygabivbuc4PzerZTkKVBM41bwUQl9MdxKdrzyCwzsIbpNMtAEYJUEhHfDCel9RHR8IU4LCMB5Zj8alxwx5e6k8HnhgNCAQvG7w5or_JPNxgCJucdtgOaHM4LzJpI_VEKRJ56sklgEuzTIhu1EImIHiqctC5lDHwo2sQBevKLiIUghT1LpeaQ", "width": 4208}], "place_id": "ChIJR2LwNohtQQ0RkFsJhy1V8OQ", "plus_code": {"compound_code": "PXHM+8F Navacerrada, Spain", "global_code": "8CGQPXHM+8F"}, "rating": 3.7, "reference": "ChIJR2LwNohtQQ0RkFsJhy1V8OQ", "scope": "GOOGLE", "types": ["park", "point_of_interest", "establishment"], "user_ratings_total": 127, "vicinity": "Paseo de los Españoles, 22, Navacerrada"}, {"business_status": "OPERATIONAL", "geometry": {"location": {"lat": 40.72946849999999, "lng": -4.0125829}, "viewport": {"northeast": {"lat": 40.7308201802915, "lng": -4.011252569708497}, "southwest": {"lat": 40.7281222197085, "lng": -4.013950530291502}}}, "icon": "https://maps.gstatic.com/mapfiles/place_api/icons/v1/png_71/generic_business-71.png", "icon_background_color": "#7B9EB0", "icon_mask_base_uri": "https://maps.gstatic.com/mapfiles/place_api/icons/v2/generic_pinlet", "international_phone_number": "+34 629 37 98 94", "name": "Agencia de viajes Navacerrada - Muntania Outdoors", "opening_hours": {"open_now": false}, "photos": [{"height": 1134, "html_attributions": ["<a href=\"https://maps.google.com/maps/contrib/118056314909948841188\">Maria Cruz Fernandez Vay</a>"], "photo_reference": "AWn5SU6wI8kfDQO6qfwd1TkKH3pv7KFWN0SjXvzM9SzM9k3AtMnFeB7sfmlraXQ35hL2PYa39uiwuhLK12bvHMBnFSLVfZbL_0aepDQFidmGsjHlKHaTd66AzqTENynbK2f5Q8b36mTAcT-AuUo9h9MCJs_-YCzYph9Ibj737he5GE5imIQExTpL1xJp5gOHxGZI5xaKIGtOboa9L7i2FMgP6pgvPB7LKlgpnH3ASUOH_1bJBkjTlVPJGynWSgfy_WsGzC2sTzqi8uNN1wjCfzUItaVR-DMC6QyXopXa50uLK4DAF1OKOb3voJFz3lN_gHepOrJHBazddLU1J6_sqRsOhN2zmZC1F0Oc5fVCbtiwANUCS17H0vaJk3oc5s7VSPU3g2xCx0OfqOwbKpvJX1YayVLf3I9-rzL7usAJ1cKY_5DwQroB3qZuI_uBG0rAisTDJqOwvY7FeIwY0kFX-_O1-ezogXChZdpP1J0MvhyYlyNoqSYkqpMeP2VEWRWSUYmxGVbZIU_9PJ_cX4iSpWQR36kzODN-eIxE_1SZnKZtDc0GBUnrO_nTFO1HlIdob0BzXqIwz87e4RQRq5AvcS_MKXVL7zypR80A9BbWAbGBsZSbbljI7e4UpX6b1DGeCTu7WVwO6w", "width": 2016}], "place_id": "ChIJq9zXqYttQQ0RLUQcEyZUUbg", "plus_code": {"compound_code": "PXHP+QX Navacerrada, Spain", "global_code": "8CGQPXHP+QX"}, "rating": 4.8, "reference": "ChIJq9zXqYttQQ0RLUQcEyZUUbg", "scope": "GOOGLE", "types": ["travel_agency", "park", "point_of_interest", "establishment"], "user_ratings_total": 228, "vicinity": "Calle de las Cruces, 1, Bloque 2-2ºC, Navacerrada"}, {"business_status": "OPERATIONAL", "geometry": {"location": {"lat": 40.72856609999999, "lng": -4.0146372}, "viewport": {"northeast": {"lat": 40.7299604302915, "lng": -4.013244419708498}, "southwest": {"lat": 40.7272624697085, "lng": -4.015942380291502}}}, "icon": "https://maps.gstatic.com/mapfiles/place_api/icons/v1/png_71/park-71.png", "icon_background_color": "#4DB546", "icon_mask_base_uri": "https://maps.gstatic.com/mapfiles/place_api/icons/v2/tree_pinlet", "name": "Coto navacerrada", "place_id": "ChIJEym1eABtQQ0RtGB_cySWh9U", "plus_code": {"compound_code": "PXHP+C4 Navacerrada, Spain", "global_code": "8CGQPXHP+C4"}, "rating": 5, "reference": "ChIJEym1eABtQQ0RtGB_cySWh9U", "scope": "GOOGLE", "types": ["park", "point_of_interest", "establishment"], "user_ratings_total": 1, "vicinity": "Navacerrada"}, {"business_status": "OPERATIONAL", "geometry": {"location": {"lat": 40.7284217, "lng": -4.0161772}, "viewport": {"northeast": {"lat": 40.72972873029151, "lng": -4.014773669708498}, "southwest": {"lat": 40.72703076970851, "lng": -4.017471630291503}}}, "icon": "https://maps.gstatic.com/mapfiles/place_api/icons/v1/png_71/park-71.png", "icon_background_color": "#4DB546", "icon_mask_base_uri": "https://maps.gstatic.com/mapfiles/place_api/icons/v2/tree_pinlet", "name": "Glorita Park", "place_id": "ChIJU0GnKABtQQ0R3aVLqHL-sWg", "plus_code": {"compound_code": "PXHM+9G Navacerrada, Spain", "global_code": "8CGQPXHM+9G"}, "rating": 5, "reference": "ChIJU0GnKABtQQ0R3aVLqHL-sWg", "scope": "GOOGLE", "types": ["park", "point_of_interest", "establishment"], "user_ratings_total": 4, "vicinity": "Parque Infantil, Paseo de los Españoles, 22, Navacerrada"}, {"business_status": "OPERATIONAL", "geometry": {"location": {"lat": 40.7321683, "lng": -4.0168556}, "viewport": {"northeast": {"lat": 40.73350068029149, "lng": -4.015479269708498}, "southwest": {"lat": 40.7308027197085, "lng": -4.018177230291503}}}, "icon": "https://maps.gstatic.com/mapfiles/place_api/icons/v1/png_71/park-71.png", "icon_background_color": "#4DB546", "icon_mask_base_uri": "https://maps.gstatic.com/mapfiles/place_api/icons/v2/tree_pinlet", "name": "Huertona Park", "opening_hours": {"open_now": true}, "photos": [{"height": 4032, "html_attributions": ["<a href=\"https://maps.google.com/maps/contrib/115539925586102693639\">Laura Hernández Feu</a>"], "photo_reference": "AWn5SU64_vTyxYeB0safgCQUxxBCkmS8U-GadqnTl8vtoASqQYrqIKeY0qXVhMZzhblibRBGVb5rWx2YJxZ-QqebO6dUVJdW_brsMqxQZHGiPE7FnN6W7kK2yZABCOoaZNBkoRxSGD593Gg0S-iUAXOf1n8l_0gnrH1wCm6Xpdkq4TOjWWYPEFkJQzCKlE1CVYUjlLF6TaNH3ASfgd74ob0kNmkmTxlxo1Zzes0pwOCskaybuoS728pmzJChMg8vlrkkKNBE7cPh7K6wgktcJRY1AG3nm9kFOOJ8hCJ940pQI2r7e2hr-OhSw9WRfuvZ7UhMfEP5YYNzgCpdicU0VMe_L9qDf3PuGOlFAJZEOtX4sNCPwK5g73PpVT-YM2SGOJY6xb7BMFcK99qCyshUMh8-phLM34QmXvqCYNv9rgrr7fFMbH7OVzyhakyQpiaJaVuJE6QDPLGRFgvZq7cefu9c-EvifLBuvcaDU1km0QIEkaxfh4nn7SiSwROfaAvXzFaPoi9XxkY8j40GKnUFBw4JqBNU_UxP82cTfTiQNiPR15H6xMGCrFTOK-HmtfVsSH4Do5QQB0yUGLzQKNSg8yG99xYsW6eGrWIUzyIZukIdfl3sir21DUubDwxlUUuRgmSfnzOJiw", "width": 3024}], "place_id": "ChIJSalrq3dtQQ0RL6q3zOjHJ2w", "plus_code": {"compound_code": "PXJM+V7 Navacerrada, Spain", "global_code": "8CGQPXJM+V7"}, "rating": 4.4, "reference": "ChIJSalrq3dtQQ0RL6q3zOjHJ2w", "scope": "GOOGLE", "types": ["park", "point_of_interest", "establishment"], "user_ratings_total": 34, "vicinity": "Calle la Huertona, 6, Navacerrada"}, {"business_status": "OPERATIONAL", "geometry": {"location": {"lat": 40.7320815, "lng": -4.0101989}, "viewport": {"northeast": {"lat": 40.7337241302915, "lng": -4.008865919708497}, "southwest": {"lat": 40.73102616970851, "lng": -4.011563880291502}}}, "icon": "https://maps.gstatic.com/mapfiles/place_api/icons/v1/png_71/park-71.png", "icon_background_color": "#4DB546", "icon_mask_base_uri": "https://maps.gstatic.com/mapfiles/place_api/icons/v2/tree_pinlet", "name": "Sotillo Park", "opening_hours": {"open_now": true}, "photos": [{"height": 4032, "html_attributions": ["<a href=\"https://maps.google.com/maps/contrib/100347168885223808598\">Jose manuel Baquerizo Briones</a>"], "photo_reference": "AWn5SU7bmZ2pfsZ-Un8jQpMJUMf5oJ762iFzejPPPVPFSeCDNGbgNia3-iY_TuCwyUO-0v6QMvNiqOonLjegXnTjJ1AE_o5W1zwls2JapDsLhQQG3FEmfKwwJhhlwkR8ZjRnMK3K4gBhUrmPYsEiXprobxw88ifHHA7XolTbf9ZZMh_mE7O8_tqqrcSr-fVDyA0k1EFJSWp-IRjFsRchgBryrmMCrmCiTmWx5P2a_-4NochHTAhEisssSfAvhLnTD-HPkVzBLTOARC006Rwc_TXyra9amMMr8bu06RYj4R01Szr_94m8_AZXUM1XbQCZR0HdPZnuUkeIUMmEbaLI7PdCwEjOjMwd_BaAySl05lAYD1VAPy1D2JHFCyMiCruQijmmilrXAne3YS2nJd7z-i1o0GWoyINA9p6MsLHNnCKikb0RTJi-KqnlyCdGqTdSlFJFPNsdoMh9WE5uYgcyiXi9ITDy-k-nSwT627XMyee0SNWhyT3ACyTQyAaTpIbVfTOfKer3Fsb_teDt53Mr3ZbT2oE8F8yPuIGyCjvhiroVyObW6DaQm2vMw4HgiWUNgvJ1swwdu3HOV8hAlSW92av8hvL8srVGYESRtq3dxB2nJdRke85ifg0BzfzlHFoY6cvtdKiF_Q", "width": 3024}], "place_id": "ChIJtQ-7hdttQQ0RL4jtIbc7M9g", "plus_code": {"compound_code": "PXJQ+RW Navacerrada, Spain", "global_code": "8CGQPXJQ+RW"}, "rating": 4.1, "reference": "ChIJtQ-7hdttQQ0RL4jtIbc7M9g", "scope": "GOOGLE", "types": ["park", "point_of_interest", "establishment"], "user_ratings_total": 18, "vicinity": "Navacerrada, Unnamed Road, 28491"}, {"business_status": "OPERATIONAL", "geometry": {"location": {"lat": 40.7252187, "lng": -4.019378500000001}, "viewport": {"northeast": {"lat": 40.7265853802915, "lng": -4.018113869708498}, "southwest": {"lat": 40.7238874197085, "lng": -4.020811830291502}}}, "icon": "https://maps.gstatic.com/mapfiles/place_api/icons/v1/png_71/park-71.png", "icon_background_color": "#4DB546", "icon_mask_base_uri": "https://maps.gstatic.com/mapfiles/place_api/icons/v2/tree_pinlet", "name": "infantil Dr. Alonso-Muñoyerro Park", "photos": [{"height": 3072, "html_attributions": ["<a href=\"https://maps.google.com/maps/contrib/109937309340974631011\">Jorge Pardo Serrano</a>"], "photo_reference": "AWn5SU68fXt7S5TNbaHV37eTJIiIG2y8pNpL3x49d3KhCvDsaM8R2_JHP9SRPo473EvCyOSzh7xv1eQpIgbNQTgPJKnBBnFpqKu40ii0tcxg2cF3cLRIlbWxf5VbpmeRSnnlrGVn6PN0n-uMIXpK5LgNJrsCQQn0NTl5MTYCvOJxQ4vDnn3XALUMJnO7P94xrEzv8_0aNXpQGTLlcjYGi2QiuKDyX8_QKm9_kuXED4TpNne38UguvKgv9-ldM6JB6BsHnkaFkVQ0xns4jmvkt33kd2VVlmNeD6RclxoXnnTybTYUwPg9PsZysUe4Pz316fqhYuVuiZi32vyHasBXQ_gkRSaZtpzkWBFyitkW7i6_X2mGaQhYfxiynPMustrPZhw0Xy586h538kOlyc3YAdSVkO2pV7YfAVSILo77rkaKGlzt5bkiM6HPg5YYSxgWPI8T0RwHJWaoWIAAQERoZbRhdQSt0NH8wHBlKulZVV-TEmhzM439RIZ3Ga_590jQcYrlqR5n22ScTQMe1LUKnQB2_0akycXVD3N4imCvUPVUr9Ei7FKw-FWHRt2_YcdDZkoEJLSo9fewmXRKRYxiG7lW4cI_95pne7qis2cefzT5vdp_h1YZo39Yws2-3BhL1dkDmvwtOGHh", "width": 4080}], "place_id": "ChIJ_9-lMHhyQQ0RuJ___7TgZIs", "plus_code": {"compound_code": "PXGJ+36 Navacerrada, Spain", "global_code": "8CGQPXGJ+36"}, "rating": 4, "reference": "ChIJ_9-lMHhyQQ0RuJ___7TgZIs", "scope": "GOOGLE", "types": ["park", "point_of_interest", "establishment"], "user_ratings_total": 14, "vicinity": "Avenida de Madrid, 23, Navacerrada"}, {"business_status": "OPERATIONAL", "geometry": {"location": {"lat": 40.7341309, "lng": -4.0217257}, "viewport": {"northeast": {"lat": 40.7354464802915, "lng": -4.020362669708498}, "southwest": {"lat": 40.7327485197085, "lng": -4.023060630291503}}}, "icon": "https://maps.gstatic.com/mapfiles/place_api/icons/v1/png_71/park-71.png", "icon_background_color": "#4DB546", "icon_mask_base_uri": "https://maps.gstatic.com/mapfiles/place_api/icons/v2/tree_pinlet", "name": "Collado del Portazgo", "opening_hours": {"open_now": true}, "place_id": "ChIJzUWe0nptQQ0RbfU4ahO51Bg", "plus_code": {"compound_code": "PXMH+M8 Navacerrada, Spain", "global_code": "8CGQPXMH+M8"}, "reference": "ChIJzUWe0nptQQ0RbfU4ahO51Bg", "scope": "GOOGLE", "types": ["park", "point_of_interest", "establishment"], "vicinity": "Carretera de Guadarrama a Navacerrada, Navacerrada"}, {"business_status": "OPERATIONAL", "geometry": {"location": {"lat": 40.7368872, "lng": -4.017653699999999}, "viewport": {"northeast": {"lat": 40.73824728029151, "lng": -4.016311669708498}, "southwest": {"lat": 40.73554931970851, "lng": -4.019009630291502}}}, "icon": "https://maps.gstatic.com/mapfiles/place_api/icons/v1/png_71/park-71.png", "icon_background_color": "#4DB546", "icon_mask_base_uri": "https://maps.gstatic.com/mapfiles/place_api/icons/v2/tree_pinlet", "name": "Mirador natural embalse de Navacerrada", "photos": [{"height": 2322, "html_attributions": ["<a href=\"https://maps.google.com/maps/contrib/109813528282002424900\">Jose Miguel García Gutiérrez</a>"], "photo_reference": "AWn5SU58lIn1T_mDEt3j7ph_0wdnt65yczh58i7w8VEGEdf22NVnF8G5pzJZqdbU16iUj-jLzooOVdEPiCvFamcy-F4m2cEQ3xqIAyfKNnP-gc9kbVe-4p13ZQENNBhlT0EEhhokV8cVW3piLL8JJOKnHVbL64vdvyp80oe2Sg17TBtA7O-juqaC3Olx_jbsi5ksFa26_IFnQUlwP2cSwdZxqSbi8OD3rEpmfH7MOuEQVwIVuSAu_kByv-22oDHq7fVMs-rFHYlm5PcU5UGAyI17E_Ys3WJy-iLRIEAh1fJJtUgBNPaghWlQ85f0Gx7-H-K5oM12hAhcSWUN5qL1bfpKEq2u3Zrc0doQI0iDvAWcWSNI7KHYVKmHFyCfkvD9EBfmnJj6I6H8MHZ7VvwTatZWnhU3H6vTwvEzIzL1sJ4ErhEO8XSF8-gDO9Z-rRMFjwErj8ZnOQ6SRjoD6ebhtzyi73Nc29LyPgmLc3l2mwrjDWl42Xa5ZX4AftYO7OXjYQIowq4Zopl4g3o5rIo00bnEhwLjOlfqGsjXfr4O9cma81jriCR-et_vybVCB0uq5fxQAR7owoDGhBYaHtCCPqoMpAVs8U4LJ9ILBrF6tSqYoN7Ac6OHsuAXkhxjJclLaV9W2oqNuC0CWQG7ynvzUf_uJ37FHjQ", "width": 4128}], "place_id": "ChIJhdHkDwBtQQ0R1U1ogJNpQIw", "plus_code": {"compound_code": "PXPJ+QW Navacerrada, Spain", "global_code": "8CGQPXPJ+QW"}, "rating": 5, "reference": "ChIJhdHkDwBtQQ0R1U1ogJNpQIw", "scope": "GOOGLE", "types": ["park", "point_of_interest", "establishment"], "user_ratings_total": 1, "vicinity": "Navacerrada"}, {"business_status": "OPERATIONAL", "geometry": {"location": {"lat": 40.72223779999999, "lng": -4.0229823}, "viewport": {"northeast": {"lat": 40.7235648302915, "lng": -4.021653769708498}, "southwest": {"lat": 40.7208668697085, "lng": -4.024351730291502}}}, "icon": "https://maps.gstatic.com/mapfiles/place_api/icons/v1/png_71/park-71.png", "icon_background_color": "#4DB546", "icon_mask_base_uri": "https://maps.gstatic.com/mapfiles/place_api/icons/v2/tree_pinlet", "name": "Dehesa de la Golondrina", "opening_hours": {"open_now": true}, "photos": [{"height": 3024, "html_attributions": ["<a href=\"https://maps.google.com/maps/contrib/110779527274796618845\">Jorge Dieguez</a>"], "photo_reference": "AWn5SU44C2VHhZ424ZissGpEr_0xNsgz3ZLBy3G0QJTuBmGVyqbIAO3BAgUWthQ8QwdfBqwUbYsqemAfLkRhNUFmI9id3Msht4lXb0FWdRw-jP0MeaP-qXgWgv0ju_yG7wfEPnhQWoQKN-SGmPLELUQphd8O868PjQoAd-Vj1-9VMnURcMDLvRzi1xXlmsH0TaHYvm6Tsm8olgyo7-x3F7noNGKkTTYGAT9KrdP1OCeUsmq-XMEGWLhlQ3KL70ZhmsMlVp4xzmULA-Nrd7knj9CwYMbhmUzbypUAL2awQ3n9EkGH9y-9-ddmK9AmL71VP5EamxkMusnWenfxu-yzdoJiRPq2LunVfILUfzJXKAQ6yUW5WEVf056wi3v-bzf8rCtJC2eHB0NqeicO0mBQ_6PJj86IFmn-pKPEWEkcHVcF3nB_az3dEL5f1y5-rH4d5otE8RC0_5q6Sz0yOFvS5lLXJnur6j33aihrXOTGXyoSOjUeHoUTlOrLJ-hQ4wzsbU3ZXNQk0F-MJXrtys2tH4pMUS6907xVNOgPQgQi_7_tCFO-nA8KTOkcLe8iTSyjUF1YvGsNqbyGDEdLxqV9u-THezTGmqACIdo--Y-g_CJngg7BFXOe0yTU9dT2d76Igio4Hfu4qQ", "width": 4032}], "place_id": "ChIJ07H8MPFzQQ0RsFPQuHp191Q", "plus_code": {"compound_code": "PXCG+VR Navacerrada, Spain", "global_code": "8CGQPXCG+VR"}, "rating": 4.6, "reference": "ChIJ07H8MPFzQQ0RsFPQuHp191Q", "scope": "GOOGLE", "types": ["park", "tourist_attraction", "point_of_interest", "establishment"], "user_ratings_total": 159, "vicinity": "Unnamed Road, 28491, Navacerrada"}, {"business_status": "OPERATIONAL", "geometry": {"location": {"lat": 40.7276069, "lng": -4.003039999999999}, "viewport": {"northeast": {"lat": 40.7289560802915, "lng": -4.001674769708498}, "southwest": {"lat": 40.7262581197085, "lng": -4.004372730291503}}}, "icon": "https://maps.gstatic.com/mapfiles/place_api/icons/v1/png_71/park-71.png", "icon_background_color": "#4DB546", "icon_mask_base_uri": "https://maps.gstatic.com/mapfiles/place_api/icons/v2/tree_pinlet", "name": "Camino de la Longuera", "opening_hours": {"open_now": true}, "photos": [{"height": 9180, "html_attributions": ["<a href=\"https://maps.google.com/maps/contrib/115165027915664178114\">Antonio Gallardo Burgueño</a>"], "photo_reference": "AWn5SU4FwEEZjb539oowAPkf4mpV4CWnSkqrcBBVTEL3mhR_lgqJTGN3g7r2NNn9YbktmIN2oDAGB5LRm_VVsE2WBrTy2_655bkjKivPsKvipPlpZLFwtb2B_5IK0Agqu8hq-1X1aJD0Hf4H7MlJpuKSwnUeBhgn_szEjLlArxIXO0YFKX-ybwHX_pjIOfHg84Hju1mWW5QqbiNw9jI50NxumzwbzNHcYGMNh_cKReWhKuBkF_8fqWL16LtMApTgd-MHeAgEeGOKaDWZ229O8p9eGbAEeEzhUIipbS49OBTYuRPSqsIhUEjxg6QeD7gztxUq_n8afXTaD4q91cycxVPl2M8VdRjxQUgIEBntdDatgQCsDWjOgRA6QNYg6pWf38_FsJygTlsnazdQIn2SQx_cDhSnR5taKYrcVM6m0rKVPAGv_0LrVdSia_g-bTglX5tdFzgCPIGi3401_5SzuM8bAB33OosapX7fE6XdVkhCZtGi6_g2Bk1ac5cRwhQ38BJVsMFcTiMCynNJDQbCS6Zxnz4FSRPAQU1Z95bFQxgTWtVVotbENZ-cXn2YTQBhTz71OSavg8Pageu-VKrmIW5dUvjuLEFEBASOBlC5JPakdYPcqb6IxWExuZMhjJrukLfoyHnNUikW", "width": 16320}], "place_id": "ChIJ3VIyc79zQQ0RuWzKbKwzcpg", "plus_code": {"compound_code": "PXHW+2Q Navacerrada, Spain", "global_code": "8CGQPXHW+2Q"}, "rating": 4.9, "reference": "ChIJ3VIyc79zQQ0RuWzKbKwzcpg", "scope": "GOOGLE", "types": ["park", "point_of_interest", "establishment"], "user_ratings_total": 12, "vicinity": "Navacerrada"}, {"business_status": "OPERATIONAL", "geometry": {"location": {"lat": 40.73769679999999, "lng": -4.021773299999999}, "viewport": {"northeast": {"lat": 40.7386906802915, "lng": -4.021011019708497}, "southwest": {"lat": 40.7359927197085, "lng": -4.0237089802915}}}, "icon": "https://maps.gstatic.com/mapfiles/place_api/icons/v1/png_71/park-71.png", "icon_background_color": "#4DB546", "icon_mask_base_uri": "https://maps.gstatic.com/mapfiles/place_api/icons/v2/tree_pinlet", "name": "Fuente de La Fonda Real", "photos": [{"height": 720, "html_attributions": ["<a href=\"https://maps.google.com/maps/contrib/109813528282002424900\">Jose Miguel García Gutiérrez</a>"], "photo_reference": "AWn5SU7oLb92xOsOo6ndehGctHGnMOBXEHCGt3x0Oc1zd7FNZKgREleagdDQecdW0tvFpg0Jva4EaIN0kcUiM3wPncZDTPK_Vz8JROmu8BVbku9ZA6YuezOSssdDr_epofT0VuOYd2htZnZ7ZCrSBph5dWFQMupVfzwH6FofyA5ryT-Pe3gZBS9BRDtu2IGckJTCX8LUsH6w57KHI5WLAcwHu1bJSIDUEuSBnNgI_ZO_PbMByHWDZCVFzSLdlEpzSeQPAd9fZMVcl7x6N4CtyNENTnVQnC1SbddaxJ8m6L8gF1aOVDhlkNEvaBvAj8oSKeQiD5A7jYpAnW8Ymw_DGc7hKNdi-oqTp6r0mmK_CD2BuDfE1reaebZRL4IDuCLHMCL4vUKPe3I2GuBwMJ1aImf-Ka59-ON3hSq0xHVosNo_paU9p8lWlaG19NTmYaQ0aTiDtIa8gvG7xhzJw0q8UxvC1WHAkviNPIsv-QJTxluidKFgzJWzzXY28L3mPG9u_krC9BfDJnlboGNKRaaf7riCKreVPlEgEhJ6lsNkQpClwHsuDOdjTbqyNeauDj2jbqUpdAZZh3iXHXAUZffjEbgWcLI855DLPDpl4b0hc9tgd33_OBKGtGLOg32fxUx4t_YDfB7ylBFtomHXQll0bXtsps7LM70", "width": 1277}], "place_id": "ChIJhyUqcABtQQ0RvtjsdGnDxCQ", "plus_code": {"compound_code": "PXQH+37 Navacerrada, Spain", "global_code": "8CGQPXQH+37"}, "reference": "ChIJhyUqcABtQQ0RvtjsdGnDxCQ", "scope": "GOOGLE", "types": ["park", "point_of_interest", "establishment"], "vicinity": "Navacerrada"}, {"business_status": "OPERATIONAL", "geometry": {"location": {"lat": 40.7277052, "lng": -4.0004008}, "viewport": {"northeast": {"lat": 40.72940473029149, "lng": -3.998571019708498}, "southwest": {"lat": 40.72670676970849, "lng": -4.001268980291503}}}, "icon": "https://maps.gstatic.com/mapfiles/place_api/icons/v1/png_71/park-71.png", "icon_background_color": "#4DB546", "icon_mask_base_uri": "https://maps.gstatic.com/mapfiles/place_api/icons/v2/tree_pinlet", "name": "Camino del Dedo", "opening_hours": {"open_now": true}, "photos": [{"height": 2464, "html_attributions": ["<a href=\"https://maps.google.com/maps/contrib/115273998296498235997\">Iván 8</a>"], "photo_reference": "AWn5SU4AJIL7uuLpUmmlgej7EqgE_fIJJZNpUqCo3aicDKNPfMyB9oVlWR5UGPWJl9xGpnOk_ud_8kdKhqJzsfECfdR3DU5Czi1bDB0rQfvMkpeS-vr4_2nN7oNK1l0ibzUcWBFFabPVc-RiH2KdjUDMkyGClAwX4UPlThF17HQOmG5mnLtyZMQ44QjJ9eq4f5s5xTofW48Jsn5czKcz1Gf3WtR2Z7r6s2r-xHnwg7J4QVz9rFaLWPzczPvPse2Szehlc8oMDf39rfc3VdSFscll4HYpR_jsXxyQ746wMy1vrWABHl995-MQPalcBEiRlNtmvdcLbNtd-dpY5TFzzIIh98YzO_NXZVYomKtYCX1TtGHdETK2gWaHrEYlEQRirTzoZOW4nGKK9-pA8rqoKMQ3cGL9JftFRiqXiWRJRL9gD0pgy7vxleipkNsl1pZxHDZOAy7-n9l7YR7JId926mLz2_dbfe5A_jxnu0saXHVCFbLLYcGSHAQPy1ZXjBDYy4fEqdHS7YEUJ3Yw6YYThYTzAEjErI3dsOuq7XcW4Rc_xImHZtWA-q9bL6tlX6XMlD8XQYI1_WxDuOlWLr5w_5vg0W8MClTMDo40eHdBBTvWHsNX8CY49niuD6dkXaXxJE5Oun9Scg", "width": 3280}], "place_id": "ChIJB8WvVKRzQQ0R7pabtMgly4M", "plus_code": {"compound_code": "PXHX+3R Navacerrada, Spain", "global_code": "8CGQPXHX+3R"}, "rating": 5, "reference": "ChIJB8WvVKRzQQ0R7pabtMgly4M", "scope": "GOOGLE", "types": ["park", "point_of_interest", "establishment"], "user_ratings_total": 5, "vicinity": "Calle del Párroco Desiderio García, 9A, Navacerrada"}, {"business_status": "OPERATIONAL", "geometry": {"location": {"lat": 40.7332716, "lng": -4.0332404}, "viewport": {"northeast": {"lat": 40.7346199302915, "lng": -4.031891269708497}, "southwest": {"lat": 40.7319219697085, "lng": -4.034589230291502}}}, "icon": "https://maps.gstatic.com/mapfiles/place_api/icons/v1/png_71/park-71.png", "icon_background_color": "#4DB546", "icon_mask_base_uri": "https://maps.gstatic.com/mapfiles/place_api/icons/v2/tree_pinlet", "name": "Pradera para Seta de cardo", "place_id": "ChIJwQ3vCwBtQQ0RqkVIEgB2KuQ", "plus_code": {"compound_code": "PXM8+8P Cercedilla, Spain", "global_code": "8CGQPXM8+8P"}, "reference": "ChIJwQ3vCwBtQQ0RqkVIEgB2KuQ", "scope": "GOOGLE", "types": ["park", "point_of_interest", "establishment"], "vicinity": "Calle Manzanares, Cercedilla"}, {"business_status": "OPERATIONAL", "geometry": {"location": {"lat": 40.7194842, "lng": -3.9994144}, "viewport": {"northeast": {"lat": 40.72270634999999, "lng": -3.997451719708498}, "southwest": {"lat": 40.71841015, "lng": -4.000149680291502}}}, "icon": "https://maps.gstatic.com/mapfiles/place_api/icons/v1/png_71/park-71.png", "icon_background_color": "#4DB546", "icon_mask_base_uri": "https://maps.gstatic.com/mapfiles/place_api/icons/v2/tree_pinlet", "name": "Cerro de las Cabezas", "photos": [{"height": 2296, "html_attributions": ["<a href=\"https://maps.google.com/maps/contrib/109520223723495769507\">Dani Gonzalez</a>"], "photo_reference": "AWn5SU7QEWwA1i_VNxvJaCWc3YYwUDyUEKaJsHpKIVJ5i2AFHJpqJ9OcC0A6Fnx2oUflIxy3A-E_v76saXeBMPm0s9-tFjpyjHI1_m7JCnyIT_-3Azzs75GPgtrSTTZgIZ6VG2IlhP2dQynbFE7OoZKNvJcNb-_rqNb5ly1wfEsaFzsfC5nDaOArlmWvBYLEM1VLrLnZkNo1vUshuvPjn6-WdyxrQAYix75KW3iy1UIPAk1rllTWT2-HFpzt1w3vq6fs2KeJxOYkzflPT2XO1zdcszcbWgtQdTY6z5EQuoJv2C8bzLsZA4DuYSM3T_A-b7B5FI6n_IKAN3jmGg1SfrsC_t_lNeA-xUHRRRQFsnrr85LLyXxOEvPcLDRuIa7GuVUAL-cjNROd1sWok-BYybXMVaNDwa2IwZr_6PQN8HdWceYesFy4SpjkfY80n05mlTxdk_uRcxd8-sDhmP5bX13sknUdM2mWIVroGShPyznAhLsqDJDUBZ-XJr205AhFn1hrKj0UQCzdkzKAioAKGFczrcar38DpJcah77V3VWJ09j0HTclmV37yCNp_2lKPXm9WOjTIRwzH_lP2-WNPnWYLxN6E86Anv6IoCuLE7PR9YAf-JzNUtzOqLuraeolFK03MJAeJK8y_u17nnFr_oJRMT0yGPHg", "width": 4080}], "place_id": "ChIJO5cRMgBzQQ0RW0HcMGAq0vM", "reference": "ChIJO5cRMgBzQQ0RW0HcMGAq0vM", "scope": "GOOGLE", "types": ["park", "point_of_interest", "establishment"], "vicinity": "P292+Q6, Becerril de la Sierra"}, {"business_status": "OPERATIONAL", "geometry": {"location": {"lat": 40.7361665, "lng": -3.9971087}, "viewport": {"northeast": {"lat": 40.7376215302915, "lng": -3.995915369708499}, "southwest": {"lat": 40.7349235697085, "lng": -3.998613330291503}}}, "icon": "https://maps.gstatic.com/mapfiles/place_api/icons/v1/png_71/park-71.png", "icon_background_color": "#4DB546", "icon_mask_base_uri": "https://maps.gstatic.com/mapfiles/place_api/icons/v2/tree_pinlet", "name": "Los Almorchones - Salto de Agua", "opening_hours": {"open_now": true}, "photos": [{"height": 4032, "html_attributions": ["<a href=\"https://maps.google.com/maps/contrib/116268149049763110896\">Lia Cubillan</a>"], "photo_reference": "AWn5SU7SGfA3tf8Uzn_mEkwEC2HpTRGo_7Z99auAx6IJ3t8HGLb9Nj5-DwufOyWC1gcgQZHATkPx_WWOyy-L-nik7UkYUrEi9Lg25Nnc2yye7gF-_ejR8q7W151gy7WnEDezyYvDNvpkixA8yQFgMa59zmqzl2KaR0pDo8EQ7CeBQYG-J29Zlqj4xiN1QUODnqDLxZCPi4EJdSBXJKb8wjTNWLiGJWD4i0cLREB3GXukmqTTNMBER6Iz5wvc1kXPFbXgxDGMMW1gwvCF5LffSI-lK-Br3Mb4U3fR4b9yqwv7byBu7qIa0GbpZBF5sszQ4OOAzb3_hqSZvR10RdtC44zFnLXxseuK5nLoIFFRHEnpygUBTtzNUfkGgvH8y8Gw3Pr9p64RBe7l0Bj2pARsnvvHWaj-eJ51wD-Kiqcx3dyGMoo9IfyS29_P6YjKSOp-mc9Ll9-YcEC_hylEoWaeOLbw9-m1yc3O_1-_TnaCyEcwQLVRdOo5Gq6VUr9X3aH5kqnE6jml0W2B3tC_sy1wdVAMeVp2qpXccTXpgilEc1B1xILMiYDjZ3gIDnA08hT62ZE5tgSBJf-uGGIXRj8xROCrGk2wermyYIx-uDhsy9r-vBxwAldxUGrZIfqxfx7QknYXqU-jPA", "width": 3024}], "place_id": "ChIJv-35kfptQQ0RMQ5ki7TyTIc", "plus_code": {"compound_code": "P2P3+F5 Navacerrada, Spain", "global_code": "8CGRP2P3+F5"}, "rating": 4.5, "reference": "ChIJv-35kfptQQ0RMQ5ki7TyTIc", "scope": "GOOGLE", "types": ["park", "point_of_interest", "establishment"], "user_ratings_total": 146, "vicinity": "Camino del Río, 10, Navacerrada"}, {"business_status": "OPERATIONAL", "geometry": {"location": {"lat": 40.7361774, "lng": -3.9971154}, "viewport": {"northeast": {"lat": 40.73762873029149, "lng": -3.995916619708497}, "southwest": {"lat": 40.7349307697085, "lng": -3.998614580291502}}}, "icon": "https://maps.gstatic.com/mapfiles/place_api/icons/v1/png_71/park-71.png", "icon_background_color": "#4DB546", "icon_mask_base_uri": "https://maps.gstatic.com/mapfiles/place_api/icons/v2/tree_pinlet", "name": "Cascada piedra arcoiris", "photos": [{"height": 4048, "html_attributions": ["<a href=\"https://maps.google.com/maps/contrib/112340499079555932555\">Hamilton D</a>"], "photo_reference": "AWn5SU71xCnI2P-D3fCddHcfu_Q-TTgnPWZuVkdR9KsUrX-bPUZEzM4EMYTRx6Ji0k9la5E0HmbimTMx7IGngbgqdDT45gYdvzCWf_2wAzd8YISY8ySM90geoxQB09WvjvBe6hsndMpC3KdfQi1v286ERRUZa-c_rqURun_M_CWoddUrh7g2xQLgRYR8VtBv4HpxVXxdiJxiUJIKSPNXO8E1wPrkHozVtfafiOPxU3FiZ789Xf_Q7cYauLLDAOxyu_lJswHXmNB2dmpen4GF6stNfZK5WywwUFfREbYTafTd8rEfJuyl7R94RXp_H_ky-xD-l1f4nB6ou3o4N0k7GT72eOT29XfF04crHyt1Go5Dw4HUvO54tq7VZ7I3ZsZnIJg0qDsle2hsXg1hUMz1vWWy4Ua8daKFtRLlJN2JEXsYikfwLkgp2xTe_Dya6P3ROKNCmx2lKZUXGtzw7BdS0TKwPM9SD9cHIQaCm3lv4SUGSz9D4FrPNHF4PXDz0yd7wmlKYYK2dHnRAeyWv9Et1uILJs8vS25Gb4THe1B26ns2xQHrgx8-atRV2sdiuwmXajqGViVVNM3fqAZiyL7MpWtMQ1xttnskZi77VDQ7dQOT7VZj3cu_oI9v3fS7QaCWc4uF2aUQDg4N", "width": 2928}], "place_id": "ChIJNTCoIABtQQ0RZ11Ss33r5Pc", "plus_code": {"compound_code": "P2P3+F5 Navacerrada, Spain", "global_code": "8CGRP2P3+F5"}, "rating": 5, "reference": "ChIJNTCoIABtQQ0RZ11Ss33r5Pc", "scope": "GOOGLE", "types": ["park", "point_of_interest", "establishment"], "user_ratings_total": 3, "vicinity": "Navacerrada"}, {"business_status": "OPERATIONAL", "geometry": {"location": {"lat": 40.72281150000001, "lng": -4.0351789}, "viewport": {"northeast": {"lat": 40.7241588302915, "lng": -4.033892419708498}, "southwest": {"lat": 40.7214608697085, "lng": -4.036590380291503}}}, "icon": "https://maps.gstatic.com/mapfiles/place_api/icons/v1/png_71/park-71.png", "icon_background_color": "#4DB546", "icon_mask_base_uri": "https://maps.gstatic.com/mapfiles/place_api/icons/v2/tree_pinlet", "name": "Fuente de los Rasos", "photos": [{"height": 4080, "html_attributions": ["<a href=\"https://maps.google.com/maps/contrib/115077593350524810422\">Álvaro Tejero</a>"], "photo_reference": "AWn5SU7ib9Mk3EDTiW9rmMu1cfx4wI95_YfRLObrDUGNV9lZ3JYQ_cBZgy2K7RrC-K-urN3zlWXnm1dnwag8Jo0jgF04_nrO7QbucqU7bjpdRZGvJ0woOQ4pgIhuZiTGpWOcjDtydgx15lGDmxIpOraqNkIY_GwWQX9f2_xluIctHGJrQgjnDpCFyKc6EOk3jywSh12B6f_AHfIz3Xo4HJarhGMVX3B9VCBM2RRukBGSCNcSwKJNYD36UfiESb5bX2PdB4LF6NXShtgApuQZDwvQWFowFTJjh8Ih3f4RW1mLacmSK8WST1k3n3DDt8J3eTao4dveUeJdSnXiSg8jIqLAQb3jA0Eiw_rucrLZ8ISoCQ4ijiGGsEbRW8PRBmX_UO5dnWvPKIn40L3k5OcEy4RGC5yP2RIfCabFTphUqvM-0HzRFD0hKhNbgZj25gyKfswp2CtCtdBCIn8ebKJFK_CbliE8CZzB-x7e9VYNc87RXkztCDDyTZJS68571eWWgGyOW_rhKnRugfUKvUzRPTCzmxYbFbVbFhdwKS8oE99hOA067X14lQ3-UtbMyH4opOKTKCE8Ian_XjZW63tTwOFXoWTpZL6mHa_HA7a9SCePU8gM9HuvYsQdrvFA8844qS9aBIEl7d7enpvb-fIE_4l0PA", "width": 3060}], "place_id": "ChIJu6YIcQBzQQ0RPdHuGOZVqIY", "plus_code": {"compound_code": "PXF7+4W Navacerrada, Spain", "global_code": "8CGQPXF7+4W"}, "rating": 4, "reference": "ChIJu6YIcQBzQQ0RPdHuGOZVqIY", "scope": "GOOGLE", "types": ["park", "point_of_interest", "establishment"], "user_ratings_total": 2, "vicinity": "Navacerrada"}, {"business_status": "OPERATIONAL", "geometry": {"location": {"lat": 40.73273169999999, "lng": -4.0365194}, "viewport": {"northeast": {"lat": 40.73467403029149, "lng": -4.034616269708497}, "southwest": {"lat": 40.73197606970849, "lng": -4.037314230291502}}}, "icon": "https://maps.gstatic.com/mapfiles/place_api/icons/v1/png_71/park-71.png", "icon_background_color": "#4DB546", "icon_mask_base_uri": "https://maps.gstatic.com/mapfiles/place_api/icons/v2/tree_pinlet", "name": "Pradera pública de recreo", "place_id": "ChIJd_hTNQBtQQ0RWkVGjENWr_w", "reference": "ChIJd_hTNQBtQQ0RWkVGjENWr_w", "scope": "GOOGLE", "types": ["park", "point_of_interest", "establishment"], "vicinity": "PXM7+39, Cercedilla"}, {"business_status": "OPERATIONAL", "geometry": {"location": {"lat": 40.7124033, "lng": -4.0185191}, "viewport": {"northeast": {"lat": 40.7138092302915, "lng": -4.017199619708498}, "southwest": {"lat": 40.7111112697085, "lng": -4.019897580291503}}}, "icon": "https://maps.gstatic.com/mapfiles/place_api/icons/v1/png_71/park-71.png", "icon_background_color": "#4DB546", "icon_mask_base_uri": "https://maps.gstatic.com/mapfiles/place_api/icons/v2/tree_pinlet", "name": "Reajo del Roble Park", "photos": [{"height": 1920, "html_attributions": ["<a href=\"https://maps.google.com/maps/contrib/102887231869185490417\">Ignacio Boren</a>"], "photo_reference": "AWn5SU65LaB-LUqKMW2_uwz-uvtKvTyPlZsWJiehn_ZTgCcc1PgIBGu3EWlAuO9bGBBtAhFaUmL7PS3FoR3NNRM-lAQTOAm6nippLq4XJ7K_CVmS50GoYLj69uU0EOOiQLwVE0rhFugAWmTYr5sQZkDqi25y8ErIK_Lqqq-P5Ap8cgb3taFnSBG8oemrN4r_0Lxh7JcQgNN_-lj0TrhuwjOAdkXZqpa5i7iGdyoq4Nc81WNfYvBBZKb54iMf-52-ZA92ZbGOqJ1xbofkCMHrgT0z8S4QC-H6Hg6R-IV89lDLGNtgBZt88D-f-eFtrNxyvCgQh-C5qdDDv9826gl0IvjeZWW0XIrCMPoTUBk7DQ4TLWHBjSK8Vn9ErYrucgeNetcfky-pCZsofo96tY5_u_QSgf2kz_443Q-e3SNoyQu5z_Q6id8ntcEbvBW1xBaKbQztFCwzIb6EbilClAwUbRbGSxKUvTmIr47QqxoDKmynWSL69RryNGq9EgBIf9-N0bccreIV7zkGDf9CUDyPCaGnyvDBJxkk9NGk9RVQixmg7tFpX_-hO0MlKxOcM-el6ufcaZ7DpGb78_5eZgFe1LrCe9_AcIBxD3K8ABPhWMRa281jZeiEVmexEuC-7yw5KVIo_3y-dwMPNAmBwlWVk9tHVI7dqWA", "width": 1440}], "place_id": "ChIJjQU8FABzQQ0Rgb38ZGju14U", "plus_code": {"compound_code": "PX6J+XH Collado Mediano, Spain", "global_code": "8CGQPX6J+XH"}, "reference": "ChIJjQU8FABzQQ0Rgb38ZGju14U", "scope": "GOOGLE", "types": ["park", "point_of_interest", "establishment"], "vicinity": "Paseo de la Dehesa del Valle, Collado Mediano"}]