[{"geometry": {"location": {"lat": 40.9049836, "lng": -3.8795305}, "viewport": {"northeast": {"lat": 40.90907310903952, "lng": -3.872535257416462}, "southwest": {"lat": 40.89819157440215, "lng": -3.887350954356652}}}, "icon": "https://maps.gstatic.com/mapfiles/place_api/icons/v1/png_71/geocode-71.png", "icon_background_color": "#7B9EB0", "icon_mask_base_uri": "https://maps.gstatic.com/mapfiles/place_api/icons/v2/generic_pinlet", "name": "Rascafría", "photos": [{"height": 1908, "html_attributions": ["<a href=\"https://maps.google.com/maps/contrib/113926527148854416069\">David Castillo Fuentes</a>"], "photo_reference": "AWn5SU645-EMpEs1Ghqmv6vs7m8lGllkTLYqxnFBI-3d8kDUIUXH1Qb5Ew9PIG6BnAfoz1rwNPkSjSuq_J_NnKAHXN9BP89VCQjMX1S-SOVvwWDP4s-jvui6i11eh-iZQ-QBnXKB3008aJ_os8TLurRV9GfzNhFmfttQfMYZjGEAT3XW7BZpicq0_aMTk6uevxqdkgLvSQgiS5EH2j7kdKhLhki1XRLRikxddkZY1OcN9PMysXzG9uhiueZpZzc7C-Z_INOZQxf74xpsActdEIFpA1BRD4hrPI3YCqZ9kcRcU_GgCP1e9OUWeEsxrFLrZhFKkKHp74Gn2lDe4ala2a85eQXQ8qOc-rQ0jX8wkARo55D13oymJRhg-4i0At3ZQlvabeF0OFSysTnE4jtTMKfvUyed-krH3WoQHYcwZEsy9WjLPZT6IPA3Fd48y83eb0HM2pxrAvrjUHBXHeBtpzNufke-Di543y70lR04bvlmNKL6tkko4rFfMTIX_KRi8-gKBAWK9SwrmOttd-v7GigaK8oDCNhSxabRBaNfLzoFcd12Zznm4c_x2sxWNVXpmqgF3haAH-1wei3HTcW7UIkBqRDdjA7DBJzdeSIaPeo1iJgV-mTU0F0E1uWUE6TTOJDJXDPI034m", "width": 4032}], "place_id": "ChIJVVw9Wm9dQQ0RjM2qsM2wc4k", "reference": "ChIJVVw9Wm9dQQ0RjM2qsM2wc4k", "scope": "GOOGLE", "types": ["locality", "political"], "vicinity": "Rascafría"}, {"business_status": "OPERATIONAL", "geometry": {"location": {"lat": 40.9064972, "lng": -3.8769806}, "viewport": {"northeast": {"lat": 40.9078106302915, "lng": -3.875567269708498}, "southwest": {"lat": 40.9051126697085, "lng": -3.878265230291502}}}, "icon": "https://maps.gstatic.com/mapfiles/place_api/icons/v1/png_71/lodging-71.png", "icon_background_color": "#909CE1", "icon_mask_base_uri": "https://maps.gstatic.com/mapfiles/place_api/icons/v2/hotel_pinlet", "international_phone_number": "+34 918 69 12 13", "name": "Hotel Rural El Valle", "opening_hours": {"open_now": false}, "photos": [{"height": 2268, "html_attributions": ["<a href=\"https://maps.google.com/maps/contrib/115603528183264170898\">Primitivo Mena</a>"], "photo_reference": "AWn5SU4Gl7SceXPM5spl7TYQuorm074ifl2UkkVINTO93J_uOdhWhrou0Ba3wQveO9YNuhc45f3Izk_cDJlQLuRaH3BQ_C-tBVlGspkpuwZqZ0bkLGPQ98b9PDB48I1brN4tWnFv3f8ge_K9YmawC1fx8P1LnXLoE8Jd37GD18-1epuigxtghuPR7hNNlcEU5OqWSGMRNVLighLZCh9k1nDEr9xhpI_IC9BXPzaHbr6Sz_21h-06TGc8L1li4a7C5I0l-HyhTu8b02W44mS7EKjrHOcH5rrLIonue9pDh_yknSSs0z9_IXxASReLroooO2jxoQMJUjS8GzL-RxCDLBKzXC4tx1U6aeQwZqFji61HZWPyLgUU8RmsuRF6Qz5CpWOMKSd1MVIBkJw-QQbxn1nV1Q8SA5ZHMrtBvS1Sakx6ODylThJ9aHtrNSGRhKHS_QycShnlas7Gmf0hkpEfeXrqWAa-_N645GADjmXKKvZeXjYPBtZwuPNk0haMEg-yKzcRgynIXW4kpUR9qCCtKQok5X3ShH5WJxlJkencYU0KREcw7t1NHIpzyAd1Z9oyecqCPt8zHC5wqJ0q6u9kPJ_5RclGWlpQ3x89x12pQlagSGrC-d5lMxlkrA7IlDAXYgr7ev4twg", "width": 4032}], "place_id": "ChIJt44FNW5dQQ0RLgEi4DE7xY4", "plus_code": {"compound_code": "W44F+H6 Rascafría, Spain", "global_code": "8CGRW44F+H6"}, "rating": 4.1, "reference": "ChIJt44FNW5dQQ0RLgEi4DE7xY4", "scope": "GOOGLE", "types": ["lodging", "point_of_interest", "establishment"], "user_ratings_total": 311, "vicinity": "Avenida del Valle, 39, Rascafría"}, {"business_status": "OPERATIONAL", "geometry": {"location": {"lat": 40.9051048, "lng": -3.8813942}, "viewport": {"northeast": {"lat": 40.90645303029149, "lng": -3.879995869708498}, "southwest": {"lat": 40.9037550697085, "lng": -3.882693830291502}}}, "icon": "https://maps.gstatic.com/mapfiles/place_api/icons/v1/png_71/lodging-71.png", "icon_background_color": "#909CE1", "icon_mask_base_uri": "https://maps.gstatic.com/mapfiles/place_api/icons/v2/hotel_pinlet", "international_phone_number": "+34 669 77 42 82", "name": "Posada El Campanario", "opening_hours": {"open_now": true}, "photos": [{"height": 2362, "html_attributions": ["<a href=\"https://maps.google.com/maps/contrib/115459726823942353902\">Posada El Campanario</a>"], "photo_reference": "AWn5SU4FRr5yJePOWvvst18uj_CI7zE-xdGvYM8_S9Ggd7OdkLkp4vcC-TLFEHXqyTvVbx9BybggmYrNBZkh3f0OjE1W_olFtrKW_AoXKRIz8VvRBNZv19ERjDuXyg6OFBV7PNDd7IVm8824qHXyMdVI0NkwQc8bUjiJIR2tLLSE8GG9IFZF8kQpgmyeozY3JgoQv-bX1gU4lisE_wOAnWDd_k8mXGSH5kaUoofRiyX8oHkEA1xQ-no__Y_rzyVk2G12XW9zlXIfch7n_-dBjaJ6LqDLjfUbnRzZuv8sC4CZ_pcik9Cpeqgdd-S5_WSdPZS_Lteje9R-", "width": 3149}], "place_id": "ChIJKfxLyGhdQQ0R9o_qy4SfH0Q", "plus_code": {"compound_code": "W449+2C Rascafría, Spain", "global_code": "8CGRW449+2C"}, "rating": 4.4, "reference": "ChIJKfxLyGhdQQ0R9o_qy4SfH0Q", "scope": "GOOGLE", "types": ["lodging", "health", "spa", "point_of_interest", "establishment"], "user_ratings_total": 184, "vicinity": "Calle de la Amargura, 11, Rascafría"}, {"business_status": "OPERATIONAL", "geometry": {"location": {"lat": 40.904463, "lng": -3.8802964}, "viewport": {"northeast": {"lat": 40.90580363029149, "lng": -3.878950719708499}, "southwest": {"lat": 40.90310566970849, "lng": -3.881648680291503}}}, "icon": "https://maps.gstatic.com/mapfiles/place_api/icons/v1/png_71/lodging-71.png", "icon_background_color": "#909CE1", "icon_mask_base_uri": "https://maps.gstatic.com/mapfiles/place_api/icons/v2/hotel_pinlet", "international_phone_number": "+34 682 11 83 25", "name": "PLAZA DE LA VILLA 24", "place_id": "ChIJfyucT29dQQ0R0cJVgjl5fJc", "plus_code": {"compound_code": "W439+QV Rascafría, Spain", "global_code": "8CGRW439+QV"}, "rating": 4.8, "reference": "ChIJfyucT29dQQ0R0cJVgjl5fJc", "scope": "GOOGLE", "types": ["lodging", "point_of_interest", "establishment"], "user_ratings_total": 4, "vicinity": "Plaza de la Villa, 24, Rascafría"}, {"business_status": "OPERATIONAL", "geometry": {"location": {"lat": 40.90182610000001, "lng": -3.8780587}, "viewport": {"northeast": {"lat": 40.90319068029151, "lng": -3.876822219708498}, "southwest": {"lat": 40.90049271970851, "lng": -3.879520180291502}}}, "icon": "https://maps.gstatic.com/mapfiles/place_api/icons/v1/png_71/restaurant-71.png", "icon_background_color": "#FF9E67", "icon_mask_base_uri": "https://maps.gstatic.com/mapfiles/place_api/icons/v2/restaurant_pinlet", "international_phone_number": "+34 620 45 46 02", "name": "Restaurante Caldea Rascafría", "opening_hours": {"open_now": false}, "photos": [{"height": 710, "html_attributions": ["<a href=\"https://maps.google.com/maps/contrib/101884406915552124266\">Restaurante Caldea Rascafría</a>"], "photo_reference": "AWn5SU6Czcx3HcjrPe72pXo3aaH8GYGh9QSujXYHG-DtXbWWrYKU-exOp8xkHnZdcFst1j-4fCnrHki-Q4TWz8z9ChRk46UM8OCeomtle9pgWxLNZ9I_i_76tNZcxvHlyp78zBwEGMoAIr9QNOcHlrqQ-H9CGocMX_fEHuy5l_pFp2_ghMoxTISQ5vRqCz202SmEL12Th-dLVPwp38qAdITmkovB2gCeSdlGrReCYI71ofPgXSOiJ7jBK80GnmPrOQxGOZIdLKAjF897zQI9wryyLRqUnaOt4GWnanjI_FUzXt9Gm9D2c5Q2jEAZf556kRPSYI74vIVt", "width": 1960}], "place_id": "ChIJxzjhB2VdQQ0RfHIQflcYHI0", "plus_code": {"compound_code": "W42C+PQ Rascafría, Spain", "global_code": "8CGRW42C+PQ"}, "price_level": 3, "rating": 4.6, "reference": "ChIJxzjhB2VdQQ0RfHIQflcYHI0", "scope": "GOOGLE", "types": ["restaurant", "bar", "point_of_interest", "food", "establishment"], "user_ratings_total": 2406, "vicinity": "Avenida del Paular, 37, Rascafría"}, {"business_status": "OPERATIONAL", "geometry": {"location": {"lat": 40.90586709999999, "lng": -3.880376099999999}, "viewport": {"northeast": {"lat": 40.90721068029149, "lng": -3.879081319708498}, "southwest": {"lat": 40.90451271970849, "lng": -3.881779280291502}}}, "icon": "https://maps.gstatic.com/mapfiles/place_api/icons/v1/png_71/lodging-71.png", "icon_background_color": "#909CE1", "icon_mask_base_uri": "https://maps.gstatic.com/mapfiles/place_api/icons/v2/hotel_pinlet", "international_phone_number": "+34 620 23 32 66", "name": "El Caserón de Trastamara", "opening_hours": {"open_now": true}, "photos": [{"height": 500, "html_attributions": ["<a href=\"https://maps.google.com/maps/contrib/111727754291548676868\">Hotel Rural Caserón de Trastamara</a>"], "photo_reference": "AWn5SU7Pgb6WJjjY8UsaEBaOAWygfFOOxi3Y_Ft_ahjMGCkh9B8BtLliLYQeYXiM597kVkQ1UM-gzkrYgAkcqMaOBxMIEHTIV1zLsKlDwaG5BQSSzHxwVGFkQerJ_qSP_xzWuykdi3lVCz81HQZsTXL_CbKCNmNuBD5rXnR4kr5rvyygXZYyGn1VfNFeqt2qF97hGlzAlx8Wc4n559rR0kmL0l-mO3VQZEnbWYt0Abrq1GM7MwSp6syOq0voe_wThUW_P0ju3vAj3OhYBiLdUtytAWoqlwHkj6OPkgcgYBFj2miqkrA3pxKXyGkieZe8YKcHluM-uBmj", "width": 1260}], "place_id": "ChIJT7myLm9dQQ0RqLX1ewtiCJM", "plus_code": {"compound_code": "W449+8R Rascafría, Spain", "global_code": "8CGRW449+8R"}, "rating": 4.5, "reference": "ChIJT7myLm9dQQ0RqLX1ewtiCJM", "scope": "GOOGLE", "types": ["lodging", "point_of_interest", "establishment"], "user_ratings_total": 77, "vicinity": "Plaza de Trastamara, 11, Rascafría"}, {"business_status": "OPERATIONAL", "geometry": {"location": {"lat": 40.8996758, "lng": -3.8738225}, "viewport": {"northeast": {"lat": 40.9010630302915, "lng": -3.872443319708498}, "southwest": {"lat": 40.8983650697085, "lng": -3.875141280291502}}}, "icon": "https://maps.gstatic.com/mapfiles/place_api/icons/v1/png_71/lodging-71.png", "icon_background_color": "#909CE1", "icon_mask_base_uri": "https://maps.gstatic.com/mapfiles/place_api/icons/v2/hotel_pinlet", "international_phone_number": "+34 609 88 84 17", "name": "Alojamiento Rural Los Espinares Rascafría", "opening_hours": {"open_now": false}, "photos": [{"height": 3000, "html_attributions": ["<a href=\"https://maps.google.com/maps/contrib/112242627977110502451\">Jessica Martínez</a>"], "photo_reference": "AWn5SU4_In3fxgtkreySonv0XKrwt_xNfcG4jiisIqKXXkjulNuJvCvu7Hg6Xw7lI8NB3xnJIUxCBWx_zFLbbC8qQgsNo9bGlEkZs4W2W38abS4KRvzqWtUvxcQhaWyPUJI84uqAfLTlhOBtFPJVRxDYJ4Se70ZQzoo9vPEMugIhtETFQiN9p0bnIWBhgLC-VVtG6eAVAddWew4Gu-R_MIQ10A99DKqoL0-lBoR_y-8Rfmz3wnJDJHwLo99CFZDH8Gj20DQ5plnNNQSskasTL-WNR414Nd3CO4PmvIeYIL21KnjIh2U9zrpo7EN4BPO6E4uZqi3ymvKG5HNVpVJN3WnHAOekh02G92hEFjPhFg05VXNvCbnJyLdBZWbezMzAt2fLGAWrsjPkZcToKvWAYEpHwyP1jrOOE-XX1gFMJ0zCo22uB1L1_nbXFa419NpvrX6wGnqzWvwQmannnwGCutddkZe1J8P-bJPjNDgAXy46tqvIgohD9fqktm42yHUspld363lwFF6ic-NcR_62U3MO6p0Og68naRfJNKCZh0tTezunVkJ13tLsxHj787CVOikImepBDvFOv4sRbSgrrZ0Yi488k8487Lqc2h3rELUSj6qXMpP4pZxXOmYZ8nNL5nD97ymZ7w", "width": 4000}], "place_id": "ChIJOxqscXtdQQ0RhpnOImk8gw4", "plus_code": {"compound_code": "V4XG+VF Rascafría, Spain", "global_code": "8CGRV4XG+VF"}, "rating": 4.5, "reference": "ChIJOxqscXtdQQ0RhpnOImk8gw4", "scope": "GOOGLE", "types": ["real_estate_agency", "travel_agency", "lodging", "point_of_interest", "establishment"], "user_ratings_total": 198, "vicinity": "Avenida de Cascajales, 52, Rascafría"}, {"business_status": "OPERATIONAL", "geometry": {"location": {"lat": 40.90063529999999, "lng": -3.873779799999999}, "viewport": {"northeast": {"lat": 40.90203598029149, "lng": -3.872299669708497}, "southwest": {"lat": 40.89933801970849, "lng": -3.874997630291502}}}, "icon": "https://maps.gstatic.com/mapfiles/place_api/icons/v1/png_71/generic_business-71.png", "icon_background_color": "#7B9EB0", "icon_mask_base_uri": "https://maps.gstatic.com/mapfiles/place_api/icons/v2/generic_pinlet", "international_phone_number": "+34 619 18 56 88", "name": "RURAL ACCOMMODATIONS RASCAFRIA", "opening_hours": {"open_now": true}, "photos": [{"height": 551, "html_attributions": ["<a href=\"https://maps.google.com/maps/contrib/112029683276094576658\">Alojamientos Rurales Rascafria</a>"], "photo_reference": "AWn5SU5GyxZju2OTL4vuL-5VVgP-OEn1nq1VgL43_YoOwk3QRfAh11Sk9frQ8eSp_JR11ep2hqFNdc33d9fNO4FarpW0pbCULHMmcDpDvXvBshjBk6OHNVKi7vmCwUUOR3Ke3yx8AgaHj4nDsLNBiJhtPUJuGP0qdYihLE_ZpGgJezX4eydQpj6myE9HA-IGIjuZZTQkXffWbEpsfVP0lM_sAl9LZC-axwQZcw1ksABhCOo9164bx9rn9KQ4_CDQA-zN2_Rt9Ch2tZfU91k4X73RRCvqJ6q5t6qIygy0PEA5hhcjdmgUXeMoZTlK5R9CDjsSh6B-jN50z_E", "width": 980}], "place_id": "ChIJU0EuBXtdQQ0Rd4RTwV0Tm2I", "plus_code": {"compound_code": "W42G+7F Rascafría, Spain", "global_code": "8CGRW42G+7F"}, "rating": 3.9, "reference": "ChIJU0EuBXtdQQ0Rd4RTwV0Tm2I", "scope": "GOOGLE", "types": ["real_estate_agency", "travel_agency", "point_of_interest", "establishment"], "user_ratings_total": 8, "vicinity": "Calle del Prado Mellizo, 12, Rascafría"}, {"business_status": "OPERATIONAL", "geometry": {"location": {"lat": 40.90457, "lng": -3.88043}, "viewport": {"northeast": {"lat": 40.9058550802915, "lng": -3.879080219708498}, "southwest": {"lat": 40.9031571197085, "lng": -3.881778180291502}}}, "icon": "https://maps.gstatic.com/mapfiles/place_api/icons/v1/png_71/lodging-71.png", "icon_background_color": "#909CE1", "icon_mask_base_uri": "https://maps.gstatic.com/mapfiles/place_api/icons/v2/hotel_pinlet", "international_phone_number": "+34 682 11 83 25", "name": "ZAGUAN", "photos": [{"height": 4160, "html_attributions": ["<a href=\"https://maps.google.com/maps/contrib/109831250064581104958\">gate2189</a>"], "photo_reference": "AWn5SU5wN8l1PI3pfqRVOOOxhT5MTxzd8gCrxUYhtwedKWBzk_RAX7ijVDxg8GWUFBGRS-FdDVi2VLr__nf9ZHoRk09n0jWJ7dYLuT7HhMqvZP987gZwusO8MGXXbHlzFvJnIgjKewxFfHVe1D9PGouvpyGP9c-L_VAh-kwNZwvittzUULVbeQN0Bj7w9LRFbMY3makeUji6ejjiPkVUNso2y3Roy0Fv-Vn5aurYvxh2dbEe03JEML-43nNK_9OXs9OYrvWG3tUR9haEGUqr5CUhw7H7C06hvhEv6oYQoS4rlEIj8vlNpxeBhsX8_fbOgSOMc0bnjmm0FVcVJViRzg17s-3JbTNMWWYE6Vn_q3c2d-9pUy24ifwWOER2-gZmCOHVchdurHfUTqxXRio3znJQrDIlLtKsPsp7_qIfbOno7ciLHYc2H7tTtTHOzC_Lu7o87hmTACN0UQPNjxA3OfiQE8BuU4M39iY_QfE1sx5sHc7aKT0UzsBEvkUCU6buhbqhuB-hEOn868EIPrMA6XpEPlercXKscijAqo_rak5mQT9xKIpAY2fZk8f-uUGoIy2HnECfxfjNtv11yqXJACKnrtajxoi2QwYDew4I5uSBvsQv4ddhQ0TSlDYWvAq20X5PLm2H3bM9", "width": 1872}], "place_id": "ChIJtzW8Tm9dQQ0RqV7VNvL37JM", "plus_code": {"compound_code": "W439+RR Rascafría, Spain", "global_code": "8CGRW439+RR"}, "rating": 4.5, "reference": "ChIJtzW8Tm9dQQ0RqV7VNvL37JM", "scope": "GOOGLE", "types": ["lodging", "point_of_interest", "establishment"], "user_ratings_total": 8, "vicinity": "Plaza de la Villa, 25, Rascafría"}, {"business_status": "OPERATIONAL", "geometry": {"location": {"lat": 40.90498589999999, "lng": -3.8805572}, "viewport": {"northeast": {"lat": 40.90633413029149, "lng": -3.879191119708498}, "southwest": {"lat": 40.9036361697085, "lng": -3.881889080291502}}}, "icon": "https://maps.gstatic.com/mapfiles/place_api/icons/v1/png_71/lodging-71.png", "icon_background_color": "#909CE1", "icon_mask_base_uri": "https://maps.gstatic.com/mapfiles/place_api/icons/v2/hotel_pinlet", "international_phone_number": "+34 682 11 83 25", "name": "CASITA DEL BREZAL", "photos": [{"height": 3104, "html_attributions": ["<a href=\"https://maps.google.com/maps/contrib/111165672987605257509\">Aurora Felgueras</a>"], "photo_reference": "AWn5SU43FZaaXbKs-cLrpY58P8driaYfNeTF3GHtP3TWGCVfXWCumE6ttGEJVKF38t0XwS6cQnzdWDJeWpKIroOuun3xbWE1Tx0d2UWzbNO2VnjIRzIGR24XQWGipRI9_aJXBg8owqku43lrzVMBzs3AFA9xH8X0onBGun4_FDHj7GnUVTZYYmhD3mNYKCZSmRKxz6miSlT0UBO4ZP7B1lwKSucbZpjiy5p4t0JOAdiMEUa0oM4DuGdKjbjNXiAcH-0whoSO7rMDa43v1c7WJ-WEMGdLwdBRYz8sqxr7-aXlNR8lmX1eV7qHK5t3poPowJHnCozxa05cdbN_st-i3nE1uE3naFmXityiOlVSibXMSyXS1-BxEX4Pqj8X5egZd0VgGuDHXi7DeQz7sk0n7kCt1wZBwKb9bB-2O1q2nk7ZAeRy3fnRBQ4NhqFN7KwnODzI161Jpz933zii90YKnLS3cpoRHrflJPCtkFjvAn2tbbh_yi_rsweBt0e8WKUOyyeEhXkRXKBoftNX97EvtazUjmWfqH3KcCxJiBxBAJvDaWtK9jA3K2dsn0fN6i85Kk17OV0Ru-kIqXC_9rV1qU6P5LOpN50V8_C37-Ez4XDxP1gzOVlOVEE75S3R41eET6tBUhSEWw", "width": 1746}], "place_id": "ChIJT2gBNm9dQQ0RmB14tBDTyzo", "plus_code": {"compound_code": "W439+XQ Rascafría, Spain", "global_code": "8CGRW439+XQ"}, "rating": 4.2, "reference": "ChIJT2gBNm9dQQ0RmB14tBDTyzo", "scope": "GOOGLE", "types": ["lodging", "point_of_interest", "establishment"], "user_ratings_total": 13, "vicinity": "Calle de los Reyes, 33, Rascafría"}, {"business_status": "OPERATIONAL", "geometry": {"location": {"lat": 40.9020869, "lng": -3.8781873}, "viewport": {"northeast": {"lat": 40.90336413029151, "lng": -3.876885119708497}, "southwest": {"lat": 40.90066616970851, "lng": -3.879583080291501}}}, "icon": "https://maps.gstatic.com/mapfiles/place_api/icons/v1/png_71/shopping-71.png", "icon_background_color": "#4B96F3", "icon_mask_base_uri": "https://maps.gstatic.com/mapfiles/place_api/icons/v2/shopping_pinlet", "international_phone_number": "+34 918 69 21 11", "name": "Chocolate Natural San Lazaro", "opening_hours": {"open_now": false}, "photos": [{"height": 4000, "html_attributions": ["<a href=\"https://maps.google.com/maps/contrib/111667486848657677150\">Gem_ Guijandul</a>"], "photo_reference": "AWn5SU75MWVtEZKd_alZfpA23AEkd_vmVhyNiUZLT7_LUrRgBJ9ITGzkmQ_O2ZTzQp7NPEQdgJUd7RR4AXXvl1xl_3oBEg44yisieZAdrZxs-vyQBQVUSXx-zLHtI0BbmZE-oMkbU-hTC45Fj_KGylRMMgcNjJUpMz0xMfz9LPJ8lkA5AG4KHQxEJrUc62u7hxTTqItEi95WjW7BBNH3b1FpZZ0beUp1NCXS_f9PyoSxyhP7tV4oc9Vox7Svv1VXR5i0BBBL3OKg8plrH6W314zxDQ0jP6p-cJmIssbqFyv4wgxAw-BUlLKNLHLhN6oZav5Tp4dL9Ndz-wuuhpoRpwyPZ8LvANOJuOCbL_NYqMvbMZyQpuGaoGWnzO4uKPH5VZzoHWi0UBsNjTk0Xduuz8Y62gq8dWy9RNP7V8L2gylFrEJwJMmbAaaovSLyiCGaC0O-R7GB0053ZtWDBfvTTccaTQUoPJyeN5gYaiwaLVmrGqDOVcw8lmYIthKlXjKOMrRKUoImkEbFZEUtjvhC-jXugDzoqoaqNl1C0WXDwCRqZbHfVMqo-cl0K8gMx4R4xZTV-hPtHlxJw4cN5LTQAxkzeFEVW4FdYUpP2Jpo2aN-v_0fNpgcccTz16TAtBh9L-7YX0x0NEYi", "width": 3000}], "place_id": "ChIJqQj6nWVdQQ0RDdumO7l-T7Q", "plus_code": {"compound_code": "W42C+RP Rascafría, Spain", "global_code": "8CGRW42C+RP"}, "rating": 4.7, "reference": "ChIJqQj6nWVdQQ0RDdumO7l-T7Q", "scope": "GOOGLE", "types": ["grocery_or_supermarket", "store", "point_of_interest", "food", "establishment"], "user_ratings_total": 802, "vicinity": "Avenida del Paular, 35, Rascafría"}, {"business_status": "OPERATIONAL", "geometry": {"location": {"lat": 40.9018548, "lng": -3.877743799999999}, "viewport": {"northeast": {"lat": 40.90325603029149, "lng": -3.876314919708497}, "southwest": {"lat": 40.9005580697085, "lng": -3.879012880291501}}}, "icon": "https://maps.gstatic.com/mapfiles/place_api/icons/v1/png_71/generic_business-71.png", "icon_background_color": "#7B9EB0", "icon_mask_base_uri": "https://maps.gstatic.com/mapfiles/place_api/icons/v2/generic_pinlet", "name": "Comunidad Autónoma de Madrid", "place_id": "ChIJVSH1C2VdQQ0RdulrDvfLbxw", "plus_code": {"compound_code": "W42C+PW Rascafría, Spain", "global_code": "8CGRW42C+PW"}, "rating": 4, "reference": "ChIJVSH1C2VdQQ0RdulrDvfLbxw", "scope": "GOOGLE", "types": ["point_of_interest", "establishment"], "user_ratings_total": 1, "vicinity": "Calle de la Rivera del Artiñuelo, 2, Rascafría"}, {"business_status": "OPERATIONAL", "geometry": {"location": {"lat": 40.9018926, "lng": -3.878545999999999}, "viewport": {"northeast": {"lat": 40.90326323029151, "lng": -3.877183719708498}, "southwest": {"lat": 40.90056526970851, "lng": -3.879881680291503}}}, "icon": "https://maps.gstatic.com/mapfiles/place_api/icons/v1/png_71/lodging-71.png", "icon_background_color": "#909CE1", "icon_mask_base_uri": "https://maps.gstatic.com/mapfiles/place_api/icons/v2/hotel_pinlet", "international_phone_number": "+34 619 18 56 88", "name": "Casa Rural", "photos": [{"height": 4080, "html_attributions": ["<a href=\"https://maps.google.com/maps/contrib/101169804849875163909\">Casa Rural</a>"], "photo_reference": "AWn5SU60Z4lnpeZXsz57C7iHTWgkVT5CRKWa_U8F9il8viUE3F3QVmyvBi3zOg3nSmTgZkTBCJcK5gvywlxg_SB8vhJadXkd6T3eKqeo2ZfAE_MIz-NsQ19PGGRfBLn5zKjqo3iU4koqZS0zblNeAieOh1YzfnThWMGam73VNpBWm_JRkLlFHZYvAOSFvSpWD-QTjzSs1hde8RPIUeCpS_D0qj6rjTDrXY0hCAuYkV4-YrjOtmfNkY5YWvK4NSNSgyuFrmmt-s_2afWBpe-ulYUO646igopJbV_iRLBrZEYn8nNnrIhwHA-f8G7eCQUzAztHxqoRyS67Pow", "width": 3072}], "place_id": "ChIJP3gJr2VdQQ0R_0ezTRhjjb0", "plus_code": {"compound_code": "W42C+QH Rascafría, Spain", "global_code": "8CGRW42C+QH"}, "rating": 2.5, "reference": "ChIJP3gJr2VdQQ0R_0ezTRhjjb0", "scope": "GOOGLE", "types": ["lodging", "point_of_interest", "establishment"], "user_ratings_total": 2, "vicinity": "Calle de la Costana, 33, Madrid"}, {"business_status": "OPERATIONAL", "geometry": {"location": {"lat": 40.90268809999999, "lng": -3.8779676}, "viewport": {"northeast": {"lat": 40.9040200802915, "lng": -3.876643969708498}, "southwest": {"lat": 40.9013221197085, "lng": -3.879341930291502}}}, "icon": "https://maps.gstatic.com/mapfiles/place_api/icons/v1/png_71/shopping-71.png", "icon_background_color": "#4B96F3", "icon_mask_base_uri": "https://maps.gstatic.com/mapfiles/place_api/icons/v2/convenience_pinlet", "name": "ACIR", "place_id": "ChIJ-4EMc2VdQQ0Ru4ObWb6VRY0", "plus_code": {"compound_code": "W43C+3R Rascafría, Spain", "global_code": "8CGRW43C+3R"}, "rating": 4, "reference": "ChIJ-4EMc2VdQQ0Ru4ObWb6VRY0", "scope": "GOOGLE", "types": ["convenience_store", "lodging", "store", "restaurant", "point_of_interest", "food", "establishment"], "user_ratings_total": 1, "vicinity": "Avenida de Cascajales, 5, Rascafría"}, {"business_status": "OPERATIONAL", "geometry": {"location": {"lat": 40.9043114, "lng": -3.880744099999999}, "viewport": {"northeast": {"lat": 40.9056763802915, "lng": -3.879333619708497}, "southwest": {"lat": 40.9029784197085, "lng": -3.882031580291502}}}, "icon": "https://maps.gstatic.com/mapfiles/place_api/icons/v1/png_71/shopping-71.png", "icon_background_color": "#4B96F3", "icon_mask_base_uri": "https://maps.gstatic.com/mapfiles/place_api/icons/v2/shopping_pinlet", "international_phone_number": "+34 918 69 13 68", "name": "Granero e Hijos, S.L", "opening_hours": {"open_now": false}, "photos": [{"height": 1500, "html_attributions": ["<a href=\"https://maps.google.com/maps/contrib/109395292804571261008\">Victoria</a>"], "photo_reference": "AWn5SU557DGK-Bx5XZMkCnkwUEfj11Ui0kfT6khssRlwxfyPP5fD8k0p-cXUNsuHK7qIk-O8nY1RBXqG6ci9RQIFvSKPOgQNMIIJavVTk4xQ2u7WM3hg7hykMbIOZPLq982A2wHDb8ifu-F3SZOaLChBczvH8qdAXVWaRmEGF0DvG6xMvIiNIG7-YhtzO_qlb6YLvOn_rnsieRpalMqA5ui24L5xuwBPueA9uh7rLkqZXWhF2OPl5fjFXjWP26sgPOniGhW7Bhkbf35Wv8Y8pL05Dk5ET7H6lG9iDpPJ9jak_0KajjYOQxq7NbhcjPQdeEN5DrC-DPPb5kCKavknBJ5312aH2h333061wcbNQqbAuTfUjtEGhoEXCXfDc0fsUreoNnUGs6_BLU9Xb0IGCGjguHHOYgvtRNcJjV9lmxn7xNtOLj5Fw4W2mw-ak5vurFg-tOxYPLPKMV5S4REK8b0-gBVIZfwx7wP41tPmA4Em7uuxPaWNmd2QxOY7EacRm7AT-ZoyXTI1u_PA0wzD4uLVRp3bo5LxDjKDOAKgG6RDhfhEkC5jWJUvDMjpXOpjWdHnL-xDtEUb6isqh5WBqOMZHPEuHyW7Xba80KZmGkr7FxZC8K7etauMFg2di6Fhm_G1vCId_MZ9", "width": 1500}], "place_id": "ChIJFcP-TW9dQQ0RD1q3oGndRnI", "plus_code": {"compound_code": "W439+PP Rascafría, Spain", "global_code": "8CGRW439+PP"}, "rating": 4.8, "reference": "ChIJFcP-TW9dQQ0RD1q3oGndRnI", "scope": "GOOGLE", "types": ["store", "point_of_interest", "food", "establishment"], "user_ratings_total": 230, "vicinity": "Plaza de la Villa, 29, Rascafría"}, {"business_status": "OPERATIONAL", "geometry": {"location": {"lat": 40.9015229, "lng": -3.8805529}, "viewport": {"northeast": {"lat": 40.9028939302915, "lng": -3.879083219708498}, "southwest": {"lat": 40.9001959697085, "lng": -3.881781180291502}}}, "icon": "https://maps.gstatic.com/mapfiles/place_api/icons/v1/png_71/school-71.png", "icon_background_color": "#7B9EB0", "icon_mask_base_uri": "https://maps.gstatic.com/mapfiles/place_api/icons/v2/school_pinlet", "international_phone_number": "+34 918 69 11 59", "name": "CEIP Enrique de Mesa", "opening_hours": {"open_now": false}, "photos": [{"height": 1536, "html_attributions": ["<a href=\"https://maps.google.com/maps/contrib/104186480572773381387\">FRAN</a>"], "photo_reference": "AWn5SU5zgBZxqGOzidKzNV8xFxDg8sT-11yY1M_aZ-_EtmjYJhU1zawKaJwjK0_g7DgmeDoEjZUY3sjG8nmFO_0PJNd-CdMzvzdPwGlIZLh5S6IIKXqDWWJD0HzDe47ms5lgMaDaX9POyLheUgCqrDqtsaMiL3yGKwWAYpylVengrXCKXMSuFklSeJ2syIHuWNu8EBJRuOiSj7y_iVEqb1JJbvcCi-CeiKA5SiKcwm53_MzUZXWvtdMt6qQxne9tBxQGSgJpeRPDWDRW1-HCl7_h03I7zfYR4yAJJ-_UEIfvnrMYTO5k-l13VSXv1CiWDsAfmTny-Txo3fMlunBgtvP_X7bzgcvbpN2N0wooP1IItI9XXSXWxxX21yy208I8ANMJkh9CZYlHn-R-S_NSXCvrcG54J3VuTj0UOjVnJ-e7y57WaVwH122ylF4JsK4nIURPZy87C2aDxnFoZjZVmEv4nIM31OACwwu8yqIAWgsqtmdoebb1bjNSNhWmCl1iorVqOWZKTaDQyDyFFMqhO7EMfb2Q7401fuKZwGEVFQqBdbaFHiKRwqwcGJ9f7QglYdTwbzC5iw-nsAr8RuZA12Hau0AJYad-plJ4tdG9OBcgRVEmxUIZPaRe799XgSLMTgyJnhg9LQ", "width": 2048}], "place_id": "ChIJ_ZIt12VdQQ0Rs2cpvp276JI", "plus_code": {"compound_code": "W429+JQ Rascafría, Spain", "global_code": "8CGRW429+JQ"}, "reference": "ChIJ_ZIt12VdQQ0Rs2cpvp276JI", "scope": "GOOGLE", "types": ["school", "point_of_interest", "establishment"], "vicinity": "Calle de Modesto Ortega Lobón, 12, Rascafría"}, {"business_status": "OPERATIONAL", "geometry": {"location": {"lat": 40.9053609, "lng": -3.8801429}, "viewport": {"northeast": {"lat": 40.9067202802915, "lng": -3.878809269708498}, "southwest": {"lat": 40.9040223197085, "lng": -3.881507230291502}}}, "icon": "https://maps.gstatic.com/mapfiles/place_api/icons/v1/png_71/generic_business-71.png", "icon_background_color": "#7B9EB0", "icon_mask_base_uri": "https://maps.gstatic.com/mapfiles/place_api/icons/v2/generic_pinlet", "international_phone_number": "+34 606 94 54 76", "name": "Sierra Norte Telecomunicaciones", "photos": [{"height": 2736, "html_attributions": ["<a href=\"https://maps.google.com/maps/contrib/111867772718617538477\">Sierra Norte Telecomunicaciones</a>"], "photo_reference": "AWn5SU6xL834igu1tIUt5h38xuX_pdDkh_Ot5G1Rg-36wKANLBLD-YDFfP0j-RH7wiT7_bAim70eA7a9e9UyE1gnYeEbliIJsZMIuQ9ZqGs8DdXu2-bRFi1gWbOwkI94cnDV75JxQWyWTNu9o4FdZZqIwxTnL_k_pajewjiarFLZjJsXPgJwnBTsO1wFMlyggQxa4I9ahytD_xRFi90Me2Rnp6BHn4SBfcpxWjK1UBjVR0zx27X_-in74MdS3TsA12hTIXiGRyLmEJXzAUSa_AEZg1UNnXg-6vuUXhG0rd9Xdnrxm-ssQNKI5YXydGdbR-iwt8EgijvxKnc", "width": 3648}], "place_id": "ChIJP1lzOm9dQQ0RQfaqel0Lrhg", "plus_code": {"compound_code": "W449+4W Rascafría, Spain", "global_code": "8CGRW449+4W"}, "rating": 5, "reference": "ChIJP1lzOm9dQQ0RQfaqel0Lrhg", "scope": "GOOGLE", "types": ["point_of_interest", "establishment"], "user_ratings_total": 7, "vicinity": "Calle de San Andrés, 39, BAJO, Rascafría"}, {"business_status": "OPERATIONAL", "geometry": {"location": {"lat": 40.9042851, "lng": -3.8803146}, "viewport": {"northeast": {"lat": 40.9055791802915, "lng": -3.878995469708498}, "southwest": {"lat": 40.9028812197085, "lng": -3.881693430291502}}}, "icon": "https://maps.gstatic.com/mapfiles/place_api/icons/v1/png_71/generic_business-71.png", "icon_background_color": "#7B9EB0", "icon_mask_base_uri": "https://maps.gstatic.com/mapfiles/place_api/icons/v2/generic_pinlet", "international_phone_number": "+34 918 69 10 53", "name": "Mancomunidad de Servicios Sociales Sierra Norte", "place_id": "ChIJ8zlhNm9dQQ0RdiCrZIx6K3o", "plus_code": {"compound_code": "W439+PV Rascafría, Spain", "global_code": "8CGRW439+PV"}, "reference": "ChIJ8zlhNm9dQQ0RdiCrZIx6K3o", "scope": "GOOGLE", "types": ["point_of_interest", "establishment"], "vicinity": "Plaza de la Villa, 1, Rascafría"}, {"business_status": "OPERATIONAL", "geometry": {"location": {"lat": 40.9083206, "lng": -3.8747449}, "viewport": {"northeast": {"lat": 40.9095439802915, "lng": -3.873253219708497}, "southwest": {"lat": 40.9068460197085, "lng": -3.875951180291502}}}, "icon": "https://maps.gstatic.com/mapfiles/place_api/icons/v1/png_71/generic_business-71.png", "icon_background_color": "#7B9EB0", "icon_mask_base_uri": "https://maps.gstatic.com/mapfiles/place_api/icons/v2/generic_pinlet", "international_phone_number": "+34 918 69 10 70", "name": "Construcciones Metálicas González SA", "opening_hours": {"open_now": false}, "photos": [{"height": 3504, "html_attributions": ["<a href=\"https://maps.google.com/maps/contrib/108831230662703457996\">Construcciones Metálicas González SA</a>"], "photo_reference": "AWn5SU552jAe2V4WXSi7fgpyU6cd7zpKTW6w3RVHcG_dXiyylxxxe6uElzFA1cxpZpb2pu0EB_F65Z3a3C5SbPg7RQ4t49lIwBONA2wtsQzRjSlVoD-1EzBidx-xBkzM8eDxbOKAG663gEz867oBJJhHen9BvkseJAVbceK3chA06ZVGcuFZYpbsqeHoRK8uGh_XhfaUkySBdbmcrtCkYb1S4oPdsvHq39Dqxsp5OT4bguKc-WUcujdvm_b27PtTwES-MYfyI6C6i09TQywlUQzj0LGk08nanUp9ZJk39mftoes3P07nfVNPjGT_JE7kKjIAgvfU3ioGiWw", "width": 4672}], "place_id": "ChIJyXVl6XFdQQ0RpKv2nkD1Jfw", "plus_code": {"compound_code": "W45G+84 Rascafría, Spain", "global_code": "8CGRW45G+84"}, "rating": 3.5, "reference": "ChIJyXVl6XFdQQ0RpKv2nkD1Jfw", "scope": "GOOGLE", "types": ["locksmith", "point_of_interest", "establishment"], "user_ratings_total": 10, "vicinity": "Avenida del Valle, 53, Rascafría"}, {"geometry": {"location": {"lat": 40.9140878, "lng": -3.8544333}, "viewport": {"northeast": {"lat": 40.91716669503371, "lng": -3.851284063188996}, "southwest": {"lat": 40.91187186269251, "lng": -3.858046284024273}}}, "icon": "https://maps.gstatic.com/mapfiles/place_api/icons/v1/png_71/geocode-71.png", "icon_background_color": "#7B9EB0", "icon_mask_base_uri": "https://maps.gstatic.com/mapfiles/place_api/icons/v2/generic_pinlet", "name": "Oteruelo del Valle", "photos": [{"height": 2600, "html_attributions": ["<a href=\"https://maps.google.com/maps/contrib/108783143302051005383\">Fernando Bilbao</a>"], "photo_reference": "AWn5SU66P9CAqV6m0QqwpPRaGIG716zAfGgLUb6qmU6InuPDIziP02SfkRulnScQP1_ZN1G4Qjyrz1FIlhEQFdkn-FVN9NG0K4qbph1tnF6vGuBOfXrQ7OreRIiDlv9szkkFmml5jdwNYjBAULr-Y9y1Xa1TmRjMwwrjkd8YXH2KfNlnnANZGHhSDi-PO327fujSXXPUK_dMbmgKowJW4akT64vTVw2MkkZ3_zGytjlBu2r69o2cPbvR41UtNfIdhJCja3Fx9gmchL4H1XL09fuj7okBl_zx8DqZinncno5-mb7ThSGi5tdpjl8RdiTru6upNuBjBtwohDG-xcDDk7-P_xL3xByOTfD7pxQeDQRZl9cMmT51qkgJ6v-qPqjO4KbEPLD6PPc0FFIwfaikU1nvHns6OkqufEXnmCSlqURsTL_OjZYs-vlTdG0OQoTpz4G_YeonlTWcGncHOUtajycbQjGd26VZ4iE7tKE5sePNDT1hTk6zIwUjHsbJu9KtHVLKplmUZJv7FNK4HdQtHuHQjLVNacqXaynVTysMsaQKflQVapOEpqLKcPOQjA7qCQMQXX1lUhzO6rhT1CwWL-ImL0fR7y-xZeDOPvbxOCfdHOMrF3wPUROEB0BsMESWoxZYQug2HcJK", "width": 4624}], "place_id": "ChIJayCK1pddQQ0RfcpsPbCyjyg", "reference": "ChIJayCK1pddQQ0RfcpsPbCyjyg", "scope": "GOOGLE", "types": ["locality", "political"], "vicinity": "Oteruelo del Valle"}]