[{"business_status": "OPERATIONAL", "geometry": {"location": {"lat": 40.1084125, "lng": -3.3881487}, "viewport": {"northeast": {"lat": 40.1097746302915, "lng": -3.386831869708498}, "southwest": {"lat": 40.1070766697085, "lng": -3.389529830291502}}}, "icon": "https://maps.gstatic.com/mapfiles/place_api/icons/v1/png_71/bank-71.png", "icon_background_color": "#909CE1", "icon_mask_base_uri": "https://maps.gstatic.com/mapfiles/place_api/icons/v2/bank-intl_pinlet", "international_phone_number": "+34 669 13 12 47", "name": "BBVA - Agente Autorizado", "opening_hours": {"open_now": false}, "photos": [{"height": 720, "html_attributions": ["<a href=\"https://maps.google.com/maps/contrib/112605622188887122995\">BBVA - Agente Autorizado</a>"], "photo_reference": "AWn5SU5LfIQ18iP5ldOAhFUglL4tgRAq2S4_JkQchL1Wf21G-OnvOmJcXN_fpQ-XasAJ8UiXpHHX1lfBXk1iWr7zasbCy0JLeHD29oDbsDBXxMDRzmu-IOT7O5kvuGitrMzr537XS_TMtqNBfDH0AZzNiCEfbg_yRF0qzOUBUyoEaOBbtRj5-Re92_GBcjYGWwuqcKjhjwYIj8gw92wCNiD1q7Pbl10evK1j35lJlfLi4lXev7ciF1eChgHkv5U0uYNlbHgp62t_0OFeSBNmZ6HEYXNjxrS-7TWGcyMiEcJzZe0qAnToHBevLKx_kY7YPYEq8vYdAP2zPEI", "width": 1280}], "place_id": "ChIJHRpINHBtQg0R9Vsw5OqJ0KI", "plus_code": {"compound_code": "4J56+9P Colmenar de Oreja, Spain", "global_code": "8CGR4J56+9P"}, "rating": 3.5, "reference": "ChIJHRpINHBtQg0R9Vsw5OqJ0KI", "scope": "GOOGLE", "types": ["bank", "atm", "finance", "point_of_interest", "establishment"], "user_ratings_total": 13, "vicinity": "Calle de Tomás Torresano, 3, Colmenar de Oreja"}, {"business_status": "OPERATIONAL", "geometry": {"location": {"lat": 40.1690254, "lng": -3.2753186}, "viewport": {"northeast": {"lat": 40.17033208029149, "lng": -3.273954469708498}, "southwest": {"lat": 40.1676341197085, "lng": -3.276652430291502}}}, "icon": "https://maps.gstatic.com/mapfiles/place_api/icons/v1/png_71/bank-71.png", "icon_background_color": "#909CE1", "icon_mask_base_uri": "https://maps.gstatic.com/mapfiles/place_api/icons/v2/bank-intl_pinlet", "international_phone_number": "+34 918 74 59 28", "name": "BBVA", "opening_hours": {"open_now": false}, "photos": [{"height": 720, "html_attributions": ["<a href=\"https://maps.google.com/maps/contrib/117188502476084618189\">BBVA</a>"], "photo_reference": "AWn5SU4jtQ9LD04IMxM6b_prosdGdP9d1Lon3PMxVoHc8UZJFfFsdEhuGvqTFX5WQ98zeiv1h9mICcTshtz59zvxT1Cn-IPnn5FDXbjHobej58LxwALNpZWbl-ht1vWX1ZSoq3gXDpbHDQxbbeFffhH4zbQsTnMYjUBcs6fAQixN_PMVMgo_pVr4TOQPvv-HwLCujI7TLw7A9jn3XjcL1yF3ZRUSslXM9Lvkb2ylcclWFpS4Uwtrw2GEH8gNzsz8AtFnCiEzjJestQi_xhVMj7Yjdo1vFzk-WaP7a9LwVaba9BP-X_4P9dqAEeVxAkP02hIe8YjxjJ9cIBU", "width": 1280}], "place_id": "ChIJY1l5RUZvQg0RsdptgFoHvoY", "plus_code": {"compound_code": "5P9F+JV Villarejo de Salvanés, Spain", "global_code": "8CGR5P9F+JV"}, "rating": 2, "reference": "ChIJY1l5RUZvQg0RsdptgFoHvoY", "scope": "GOOGLE", "types": ["bank", "atm", "accounting", "finance", "point_of_interest", "establishment"], "user_ratings_total": 21, "vicinity": "Calle Mayor, 5, Villarejo de Salvanés"}, {"business_status": "OPERATIONAL", "geometry": {"location": {"lat": 40.1093395, "lng": -3.389077}, "viewport": {"northeast": {"lat": 40.1106898802915, "lng": -3.387686619708498}, "southwest": {"lat": 40.1079919197085, "lng": -3.390384580291502}}}, "icon": "https://maps.gstatic.com/mapfiles/place_api/icons/v1/png_71/bank-71.png", "icon_background_color": "#909CE1", "icon_mask_base_uri": "https://maps.gstatic.com/mapfiles/place_api/icons/v2/bank-intl_pinlet", "international_phone_number": "+34 918 94 39 15", "name": "Eurocaja Rural", "opening_hours": {"open_now": false}, "photos": [{"height": 898, "html_attributions": ["<a href=\"https://maps.google.com/maps/contrib/109567520711177334681\">Eurocaja Rural</a>"], "photo_reference": "AWn5SU6AC51H92tmu0-U0SmHcWDFFixOk7Lqv0V-vY-HNyWn4bhB3Pq0KqdBOkhHGyAeXdqPtkHXSTcEQX71SHxAZH7lizrkAvdVM69ue6hgzND-SDxu2myP6KnMXaJucMVJEAI-7_AHL_yltT_f0xWpsxY7Q1xOQMB-tbv_fSajzlIAaSQQ_QNJ3d-ZggKXUVftLVeSuTAw1mPcPl1Tt9qtJvG1cicm2M2cB0tkQQTG0a6a_GV3LPWBD-mDMeyXGmE8Sfv_-wCCDd23q4arvEUevbyiiqWdhKzdZzqM_a2yqzC2cdL44MXWD2TvR4YgSPc2tqI7m8gHWeo", "width": 1600}], "place_id": "ChIJ9X0A2nFtQg0R9gq0jRD5K_k", "plus_code": {"compound_code": "4J56+P9 Colmenar de Oreja, Spain", "global_code": "8CGR4J56+P9"}, "rating": 4.1, "reference": "ChIJ9X0A2nFtQg0R9gq0jRD5K_k", "scope": "GOOGLE", "types": ["bank", "atm", "finance", "point_of_interest", "establishment"], "user_ratings_total": 13, "vicinity": "Calle del Cano, 2, Colmenar de Oreja"}, {"business_status": "OPERATIONAL", "geometry": {"location": {"lat": 40.1088307, "lng": -3.3889152}, "viewport": {"northeast": {"lat": 40.1101307802915, "lng": -3.387509069708498}, "southwest": {"lat": 40.10743281970851, "lng": -3.390207030291502}}}, "icon": "https://maps.gstatic.com/mapfiles/place_api/icons/v1/png_71/bank-71.png", "icon_background_color": "#909CE1", "icon_mask_base_uri": "https://maps.gstatic.com/mapfiles/place_api/icons/v2/bank-intl_pinlet", "international_phone_number": "+34 918 94 34 99", "name": "Banco Santander Agentes", "opening_hours": {"open_now": false}, "photos": [{"height": 720, "html_attributions": ["<a href=\"https://maps.google.com/maps/contrib/117410142482124639044\">Banco Santander Agentes</a>"], "photo_reference": "AWn5SU6bjaGjRxx31YWL3xeihMwbay2yal16eai4zp-EAg5o7aoTDoyeVQW5p7OzRN8AnNvzN0eRXohpGT93BZGb9HWgJd-3kdk7YcFRxS_tlUVrqanqP9F5JmN206M8zdcjsZ4mvojm3ya7kJfa_0a-CYFnf9DKip3_QKmIVvoWkOvojjVMM37vSgDclMV7dOLNb1o4jJSHX5NMhA5q1v9JXIXEcoXtfMp3fb2T7cbhe8g90jrohsmOePUgzaJ9OaJO88wkOqK0RXM49941NATM1qqlKHpAlI7yOOU9m66dUSpFr67t-TKtWXOltxwJgCmkonn6Z7YkR3s", "width": 1280}], "place_id": "ChIJjW4Y03FtQg0RhehV2dOAKwU", "plus_code": {"compound_code": "4J56+GC Colmenar de Oreja, Spain", "global_code": "8CGR4J56+GC"}, "rating": 1.3, "reference": "ChIJjW4Y03FtQg0RhehV2dOAKwU", "scope": "GOOGLE", "types": ["bank", "atm", "finance", "point_of_interest", "establishment"], "user_ratings_total": 3, "vicinity": "Calle de Francisco de Pablos, 7, Colmenar de Oreja"}, {"business_status": "OPERATIONAL", "geometry": {"location": {"lat": 40.16848019999999, "lng": -3.27624}, "viewport": {"northeast": {"lat": 40.1698849302915, "lng": -3.274816069708498}, "southwest": {"lat": 40.1671869697085, "lng": -3.277514030291502}}}, "icon": "https://maps.gstatic.com/mapfiles/place_api/icons/v1/png_71/bank-71.png", "icon_background_color": "#909CE1", "icon_mask_base_uri": "https://maps.gstatic.com/mapfiles/place_api/icons/v2/bank-intl_pinlet", "international_phone_number": "+34 918 74 50 94", "name": "Banco Santander", "opening_hours": {"open_now": false}, "photos": [{"height": 720, "html_attributions": ["<a href=\"https://maps.google.com/maps/contrib/104225973697707282724\">Banco Santander</a>"], "photo_reference": "AWn5SU5wsmV01yA6jMvbkvUvvCwzGWrVAkIsOIN7vOCVcGJJNNHZcR05vA_7pG9G5RO_uZZPQus3HfCrpngL4xjbgSV_oiHx-Wk-YIRpfk1ty-4fbJSKCW9rDUh6EaQ6KrXl_IIv9iCYrTGRIhe2DH-JUOD7pf7FTDjdsu3VOU3qs8HVgo81FPST7eFw0JOGkRkJLsw5i6SD3ZfCjr_loX3X9Dm2nytk3WoXo0lZgaSPwoEw5lSP37myKByeAn-SmGDOMTJ9KTK2hhekKoAvmQzVMr4AFDWl5LAOjoePuJz5L5ocDtyxNzbwdn0SnkOLQrTvFmI2t91ZbG4", "width": 1280}], "place_id": "ChIJaVj1rEdvQg0R4hYLIBspgro", "plus_code": {"compound_code": "5P9F+9G Villarejo de Salvanés, Spain", "global_code": "8CGR5P9F+9G"}, "rating": 1.2, "reference": "ChIJaVj1rEdvQg0R4hYLIBspgro", "scope": "GOOGLE", "types": ["bank", "atm", "finance", "point_of_interest", "establishment"], "user_ratings_total": 21, "vicinity": "Plaza de España, 16, Villarejo de Salvanés"}, {"business_status": "OPERATIONAL", "geometry": {"location": {"lat": 40.1682914, "lng": -3.2751447}, "viewport": {"northeast": {"lat": 40.1696063302915, "lng": -3.273816069708498}, "southwest": {"lat": 40.1669083697085, "lng": -3.276514030291502}}}, "icon": "https://maps.gstatic.com/mapfiles/place_api/icons/v1/png_71/bank-71.png", "icon_background_color": "#909CE1", "icon_mask_base_uri": "https://maps.gstatic.com/mapfiles/place_api/icons/v2/bank-intl_pinlet", "international_phone_number": "+34 918 74 20 67", "name": "Eurocaja Rural", "opening_hours": {"open_now": false}, "place_id": "ChIJmzKJWEZvQg0RrZxGZ6R3DoA", "plus_code": {"compound_code": "5P9F+8W Villarejo de Salvanés, Spain", "global_code": "8CGR5P9F+8W"}, "rating": 1, "reference": "ChIJmzKJWEZvQg0RrZxGZ6R3DoA", "scope": "GOOGLE", "types": ["bank", "atm", "finance", "point_of_interest", "establishment"], "user_ratings_total": 11, "vicinity": "Calle de los Mesones, 7, Villarejo de Salvanés"}, {"business_status": "OPERATIONAL", "geometry": {"location": {"lat": 40.1340397, "lng": -3.337282599999999}, "viewport": {"northeast": {"lat": 40.1353614302915, "lng": -3.335889169708498}, "southwest": {"lat": 40.1326634697085, "lng": -3.338587130291502}}}, "icon": "https://maps.gstatic.com/mapfiles/place_api/icons/v1/png_71/atm-71.png", "icon_background_color": "#909CE1", "icon_mask_base_uri": "https://maps.gstatic.com/mapfiles/place_api/icons/v2/atm_pinlet", "international_phone_number": "+34 900 404 090", "name": "ATM CaixaBank - Cajero", "opening_hours": {"open_now": true}, "photos": [{"height": 681, "html_attributions": ["<a href=\"https://maps.google.com/maps/contrib/117321466320183983627\">ATM CaixaBank - Cajero</a>"], "photo_reference": "AWn5SU7SnUgqgWv7OCemk8eezrLSkynls-j84c8VVvFkIhzA51Byp2zq2Jb2doQPa5XN_7aOCZf4P7N5lWJECas_dyqSm8jo-pHGuCLNcVofsC1ZAX3_6hEUlNOXg5ep31iKDMcCftTifacuQTFp43slWK__NQhVintNXJP2c7Ecnkkdw0jnMxHQhUwzLEKS-n352L8HRLa5g0wSRzrzvND064Bq5vHntIDlAbXRxgRqugF9hTCoRzM_mkBloA5fP0p_dAKcaewQttZuGFA4ughddipd32LcAu95TBcqLyWl38BRYiNam2L3VJtXn2UG54w3HdWffPMuzcI", "width": 1024}], "place_id": "ChIJpxOyYNlvQg0R6SZdKH3RZK8", "plus_code": {"compound_code": "4MM7+J3 Belmonte de Tajo, Spain", "global_code": "8CGR4MM7+J3"}, "reference": "ChIJpxOyYNlvQg0R6SZdKH3RZK8", "scope": "GOOGLE", "types": ["atm", "finance", "point_of_interest", "establishment"], "vicinity": "Calle Barrio Alto, 39, Belmonte de Tajo"}, {"business_status": "OPERATIONAL", "geometry": {"location": {"lat": 40.1082067, "lng": -3.3878742}, "viewport": {"northeast": {"lat": 40.10955793029149, "lng": -3.386495469708498}, "southwest": {"lat": 40.1068599697085, "lng": -3.389193430291502}}}, "icon": "https://maps.gstatic.com/mapfiles/place_api/icons/v1/png_71/atm-71.png", "icon_background_color": "#909CE1", "icon_mask_base_uri": "https://maps.gstatic.com/mapfiles/place_api/icons/v2/atm_pinlet", "international_phone_number": "+34 900 404 090", "name": "ATM CaixaBank - Cajero", "opening_hours": {"open_now": true}, "photos": [{"height": 681, "html_attributions": ["<a href=\"https://maps.google.com/maps/contrib/105010561941368185042\">ATM CaixaBank - Cajero</a>"], "photo_reference": "AWn5SU7aU-GMADWrLA-CtRBJQvWBGPSCuiUQn22_Mi6SKI6VpwhAGSykDO7OVqXaBh8GIrbwr0w2qFYvGTKdpCdOkrhxi6y-rQj3vLt7GtBR3eG83Xdg0Ti3_15rbsWxhOG4HCsDHIwrHfCrEq7STfDh8J1OCF5YzKQHzoOeqwytSV8q9q6R0Gg8l6Dtn1y6TrtBEAHPDsfwvNwdHrdy_G9w0-i2sONkNuT_-uiJRrQHRTgLQtkVPRxnlSAEncxJfUO_O4TAIARfSIQVaHAWUaKeDoAd1P6JEmvj1gJd8RLeuMlyvfVfm491BCNGwy0Ge7aaIArEllOo", "width": 1024}], "place_id": "ChIJrWqHpeBtQg0RAAz0fJiCAJk", "plus_code": {"compound_code": "4J56+7V Colmenar de Oreja, Spain", "global_code": "8CGR4J56+7V"}, "reference": "ChIJrWqHpeBtQg0RAAz0fJiCAJk", "scope": "GOOGLE", "types": ["atm", "finance", "point_of_interest", "establishment"], "vicinity": "Calle Empedrada, 7, Colmenar de Oreja"}, {"business_status": "OPERATIONAL", "geometry": {"location": {"lat": 40.16834599999999, "lng": -3.2754235}, "viewport": {"northeast": {"lat": 40.1696661302915, "lng": -3.274021269708498}, "southwest": {"lat": 40.1669681697085, "lng": -3.276719230291502}}}, "icon": "https://maps.gstatic.com/mapfiles/place_api/icons/v1/png_71/atm-71.png", "icon_background_color": "#909CE1", "icon_mask_base_uri": "https://maps.gstatic.com/mapfiles/place_api/icons/v2/atm_pinlet", "international_phone_number": "+34 900 404 090", "name": "ATM CaixaBank - Cajero", "opening_hours": {"open_now": true}, "photos": [{"height": 681, "html_attributions": ["<a href=\"https://maps.google.com/maps/contrib/113668509069035122416\">ATM CaixaBank - Cajero</a>"], "photo_reference": "AWn5SU6YXZWgAcN8Ton6G6FJWvSwSUJbbEraWTo8ro4DTPfmgrO2-9CLoDN_s-fXNabhCZLcTiDCJWrXAPDoFlkPXFfgq1RaRMKmsWrkaudrrN7HfVgecsdbD0II4mvu2D_gHl-0dg6aQCOx5CZEcOOThY1o5ieGm2fyQjN-7dSlrb6tt1NlZIlFxiFqFfF5un3MN4SPaHP3hsphXm8CV4VsQ5rLUpIU4xtjMiA2T6EFD9P5pTSUBwE6ACWo8dTCyCuf7vQLFJDJgO6BxsI65dLghUSxyoGU92zJbrqjqF0zAijnLWI3qHInKHoVtWDuQ_dcqLVu4xT9", "width": 1024}], "place_id": "ChIJ20PJv5hvQg0RHo6C2oHxZmA", "plus_code": {"compound_code": "5P9F+8R Villarejo de Salvanés, Spain", "global_code": "8CGR5P9F+8R"}, "reference": "ChIJ20PJv5hvQg0RHo6C2oHxZmA", "scope": "GOOGLE", "types": ["atm", "finance", "point_of_interest", "establishment"], "vicinity": "Calle de los Mesones, 3, Villarejo de Salvanés"}]