[{"business_status": "OPERATIONAL", "geometry": {"location": {"lat": 40.7845932, "lng": -3.693035300000001}, "viewport": {"northeast": {"lat": 40.78594158029149, "lng": -3.691706419708498}, "southwest": {"lat": 40.78324361970849, "lng": -3.694404380291502}}}, "icon": "https://maps.gstatic.com/mapfiles/place_api/icons/v1/png_71/bank-71.png", "icon_background_color": "#909CE1", "icon_mask_base_uri": "https://maps.gstatic.com/mapfiles/place_api/icons/v2/bank-intl_pinlet", "international_phone_number": "+34 918 47 14 19", "name": "Banco Santander Agentes", "opening_hours": {"open_now": false}, "photos": [{"height": 720, "html_attributions": ["<a href=\"https://maps.google.com/maps/contrib/108909804012464720046\">Banco Santander Agentes</a>"], "photo_reference": "AWn5SU59tN1yg9O8f0vSIiifXRENldfqe9-SYUBQBUYTJkgFfs0HXQe4CKmi2eIrt9MqANaD3Fh0k7H7B1o0kqf97oYvXFlq-Lo9ZsDVVdovqHDfbmv2FWRoCagG8CWWaalgEi3qzr5SiP7AdWTbs9D7CifQdckrl1ZS0uJcG4ESYCkBTcrCb-jQF4DE9q7aZxpe7EokPBdThVkcaeHbn2eig2-crBHdT1G4ytLblwR6EF9dasC3TnKAka1tGqQecRK1BnaHb5ILgnUnlwfiBHu2DLzDsW_DA0cSnysVygFL4Oqw0fIUTMIk03K4lAhj6SWDt4Eyun1-8uQ", "width": 1280}], "place_id": "ChIJL1VbjQXZQw0RE15sF8DjcZk", "plus_code": {"compound_code": "Q8M4+RQ Guadalix de la Sierra, Spain", "global_code": "8CGRQ8M4+RQ"}, "rating": 3.5, "reference": "ChIJL1VbjQXZQw0RE15sF8DjcZk", "scope": "GOOGLE", "types": ["bank", "atm", "finance", "point_of_interest", "establishment"], "user_ratings_total": 25, "vicinity": "PZ Consistorial, 3, Guadalix de la Sierra"}, {"business_status": "OPERATIONAL", "geometry": {"location": {"lat": 40.79960279999999, "lng": -3.6234902}, "viewport": {"northeast": {"lat": 40.80095928029149, "lng": -3.622081569708497}, "southwest": {"lat": 40.7982613197085, "lng": -3.624779530291502}}}, "icon": "https://maps.gstatic.com/mapfiles/place_api/icons/v1/png_71/bank-71.png", "icon_background_color": "#909CE1", "icon_mask_base_uri": "https://maps.gstatic.com/mapfiles/place_api/icons/v2/bank-intl_pinlet", "international_phone_number": "+34 918 43 93 59", "name": "Ducan Inversiones Inmobiliarias", "opening_hours": {"open_now": false}, "photos": [{"height": 544, "html_attributions": ["<a href=\"https://maps.google.com/maps/contrib/116742331737510413067\">Ducan Inversiones Inmobiliarias</a>"], "photo_reference": "AWn5SU6XsrR4ABw_IGki2kVFo76gjandGJT7FLiVXXY3cLg5JCOEh-8YxQAZGAcM6nCkx3OtG9bjwpEaHPQK1jccRDvBL5BpW5Rf78vhTHOf-fLSsoIIDYLfhnDq3zndUV0RT-k8G7GwuUnewYlHCm-QdRaVtQO3QLW-5UxzvpZwjxCoyb5dQKaEMQsVYCVpumdma-OpzgX0fqcEU-gOx_mEVnTr-EKVDxgIMo-VgMnAvzbNf2Hzrp5v0wtO92HVG2wY0c_TTs-tdo6thGJrfQRsw5ZnJXXvfeFxJxBjVWP2FzHrZQr63VxeV-IjeoegxCchYEwkqXqsvOw", "width": 1000}], "place_id": "ChIJC5NBiKDbQw0RhN-Cpd7mkBQ", "plus_code": {"compound_code": "Q9XG+RJ Venturada, Spain", "global_code": "8CGRQ9XG+RJ"}, "rating": 2.7, "reference": "ChIJC5NBiKDbQw0RhN-Cpd7mkBQ", "scope": "GOOGLE", "types": ["bank", "real_estate_agency", "finance", "point_of_interest", "establishment"], "user_ratings_total": 10, "vicinity": "N-1, 19, Local, Venturada"}, {"business_status": "OPERATIONAL", "geometry": {"location": {"lat": 40.79249139999999, "lng": -3.6011315}, "viewport": {"northeast": {"lat": 40.79396398029149, "lng": -3.599905019708497}, "southwest": {"lat": 40.7912660197085, "lng": -3.602602980291501}}}, "icon": "https://maps.gstatic.com/mapfiles/place_api/icons/v1/png_71/bank-71.png", "icon_background_color": "#909CE1", "icon_mask_base_uri": "https://maps.gstatic.com/mapfiles/place_api/icons/v2/bank-intl_pinlet", "international_phone_number": "+34 918 28 03 18", "name": "Eurocaja Rural", "opening_hours": {"open_now": false}, "place_id": "ChIJdZBWjtnbQw0Rk-FIrwIkuRM", "plus_code": {"compound_code": "Q9RX+XG Cotos de Monterrey, Spain", "global_code": "8CGRQ9RX+XG"}, "reference": "ChIJdZBWjtnbQw0Rk-FIrwIkuRM", "scope": "GOOGLE", "types": ["bank", "finance", "point_of_interest", "establishment"], "vicinity": "Venturada, Cotos de Monterrey, s/n"}, {"business_status": "OPERATIONAL", "geometry": {"location": {"lat": 40.76765340000001, "lng": -3.580333}, "viewport": {"northeast": {"lat": 40.7689754802915, "lng": -3.579003519708499}, "southwest": {"lat": 40.7662775197085, "lng": -3.581701480291502}}}, "icon": "https://maps.gstatic.com/mapfiles/place_api/icons/v1/png_71/bank-71.png", "icon_background_color": "#909CE1", "icon_mask_base_uri": "https://maps.gstatic.com/mapfiles/place_api/icons/v2/bank-intl_pinlet", "name": "Cajero", "place_id": "ChIJc5zGLwDFQw0RaSigIvS9ZKc", "plus_code": {"compound_code": "QC99+3V El Vellón, Spain", "global_code": "8CGRQC99+3V"}, "reference": "ChIJc5zGLwDFQw0RaSigIvS9ZKc", "scope": "GOOGLE", "types": ["bank", "finance", "point_of_interest", "establishment"], "vicinity": "Travesía de San Blas, El Vellón"}, {"business_status": "OPERATIONAL", "geometry": {"location": {"lat": 40.8347527, "lng": -3.6631314}, "viewport": {"northeast": {"lat": 40.83610693029149, "lng": -3.661780419708498}, "southwest": {"lat": 40.8334089697085, "lng": -3.664478380291503}}}, "icon": "https://maps.gstatic.com/mapfiles/place_api/icons/v1/png_71/bank-71.png", "icon_background_color": "#909CE1", "icon_mask_base_uri": "https://maps.gstatic.com/mapfiles/place_api/icons/v2/bank-intl_pinlet", "name": "Aridos Navazales DFG", "photos": [{"height": 3000, "html_attributions": ["<a href=\"https://maps.google.com/maps/contrib/116041748291960531842\">Stallonge</a>"], "photo_reference": "AWn5SU7QJ1zPOONPuzb_dA_c-w-eZZQHOO-Cc2P1AWFzAzNm008lSBMBlzM3t6B7FbcjQzqEGRUS9wzqSZEEiaBNn3_eCjjrrVIFaj1rMtfYlp3ZIi3r_N0kIGme28cdT0v9yuWz72uJx8uxeVVFQX5KXIfM28zV45th1bx8ApzhLcIx-pV2CeN1QYwIdM2LcZ6WPkiChpND3OoU6yS_Mf7s28n8M0QiftjkTbtqUvJRfwv0QMj7FOAFDZk0KppJDQ-C-5alH1f2tCRdZePrbxt_87RbmpDlnn8aZgjYKHOmH2cbn1J0X-GZ6V0r1L0D2sYaNZbcyrzDcQL3i4y4zp7tRcG7m4UaV23gGqF-fw2SShiMIr9xbChhsTNanFzzlX1jF6TJsTqBbL_SHEMET-LQXlA0VCkO2EsvgJu_aIvlwPmJhlfKtEb0kgfD5pfzu3Dr3-_GdKKpWF2XXbbHMTQ_ISNPqUOru1x2CaSyZltASUQgoHedR6qoCgUb1OoH8sQDCDvjmJ183ockexr2jVxvtkoMC7O5pDN7BhmLhi6u3EPKWmxQSlb5pFoWxY4b6t0XFq9fC2p4-Uo2NKhabDImHrKTUR_PtrF8YlwqRtnfxu9zMCnt3nu8WgCMh2nYjf1YjXkwPEw50Pq9y5uHCcc7Ag", "width": 4000}], "place_id": "ChIJDz8sTKfeQw0RVAZS1zg57dw", "plus_code": {"compound_code": "R8MP+WP Valdemanco, Spain", "global_code": "8CGRR8MP+WP"}, "rating": 4.5, "reference": "ChIJDz8sTKfeQw0RVAZS1zg57dw", "scope": "GOOGLE", "types": ["bank", "finance", "point_of_interest", "establishment"], "user_ratings_total": 12, "vicinity": "Valdemanco"}, {"business_status": "OPERATIONAL", "geometry": {"location": {"lat": 40.784615, "lng": -3.6925313}, "viewport": {"northeast": {"lat": 40.78599118029149, "lng": -3.691153669708498}, "southwest": {"lat": 40.7832932197085, "lng": -3.693851630291503}}}, "icon": "https://maps.gstatic.com/mapfiles/place_api/icons/v1/png_71/bank-71.png", "icon_background_color": "#909CE1", "icon_mask_base_uri": "https://maps.gstatic.com/mapfiles/place_api/icons/v2/bank-intl_pinlet", "international_phone_number": "+34 600 40 40 90", "name": "CaixaBank Agrobank", "opening_hours": {"open_now": false}, "photos": [{"height": 651, "html_attributions": ["<a href=\"https://maps.google.com/maps/contrib/107164605654747200632\">CaixaBank Agrobank</a>"], "photo_reference": "AWn5SU7T2GWr9oh1AEgUWqS8oNcTHqv8F0Gbe-SXkcKUHkmS03ultBKKjQv1643xvS7D42WpYQjTjFlGupQ7Mq7yTHbNgeeT0NAiXOFfxd-X8IgZgd64WCbxwwoG_Mq0Z1OGnDcb-AVtLdf9lfFf-WvGXxTVEEvLskHVqRleUQg-QtkSpoCkFPgAyXwQJ4JzRkgROZSln-H9f-aQoF3Ut_B4G1ktKIS5hXjTjq7gn_JZE1OEaczeqlxVBe535ibYa1RSEO5Zg7QEikuZEaPsgrbC4Bs1Uml4SHy_NjH-lRpaY2MtS0ZBQWQBAqkZcrvbB_H2eo-St_Ke1u0", "width": 1148}], "place_id": "ChIJZ__D4IbZQw0RfR5Z0hZH4ws", "plus_code": {"compound_code": "Q8M4+RX Guadalix de la Sierra, Spain", "global_code": "8CGRQ8M4+RX"}, "rating": 1.5, "reference": "ChIJZ__D4IbZQw0RfR5Z0hZH4ws", "scope": "GOOGLE", "types": ["bank", "finance", "point_of_interest", "establishment"], "user_ratings_total": 8, "vicinity": "Plaza Consistorial, 10, Guadalix de la Sierra"}, {"business_status": "OPERATIONAL", "geometry": {"location": {"lat": 40.7437871, "lng": -3.600355}, "viewport": {"northeast": {"lat": 40.7451865302915, "lng": -3.599047069708497}, "southwest": {"lat": 40.7424885697085, "lng": -3.601745030291502}}}, "icon": "https://maps.gstatic.com/mapfiles/place_api/icons/v1/png_71/bank-71.png", "icon_background_color": "#909CE1", "icon_mask_base_uri": "https://maps.gstatic.com/mapfiles/place_api/icons/v2/bank-intl_pinlet", "international_phone_number": "+34 600 40 40 90", "name": "CaixaBank", "opening_hours": {"open_now": false}, "photos": [{"height": 1192, "html_attributions": ["<a href=\"https://maps.google.com/maps/contrib/106458908700501323750\">CaixaBank</a>"], "photo_reference": "AWn5SU4_NsNMTSY2-SZvQBzZo0Whudz_NZMVMgUL61GUn2EQVg6q96PH4WkJhBeg8YKoS27goBZjcwlB0aPEQi_nSJZMgQdS3MuzkOA-_R7fv25gzURjpLbupwU6FjVS4lhExO6GdO3EqRd66fqacZdglPeU5m_ApwDcG2XrmwIHCtAPCIPMMu0rtyjnx_tTWTu9enljGr-73g9KGnMU81ouAxu5vwIIYxkI6wcny72SFpS1Qg753Ai2cM8F9IJwVmrkj5uVOMNLtUVccZXqmHOroPtV5FHuOcwHxi1gKPrMNP8PzO0hf_OqB4WVy7oDehT6lBNq49g1cWs", "width": 2120}], "place_id": "ChIJ8UqMFO_bQw0R8nhKLZWNmQ4", "plus_code": {"compound_code": "P9VX+GV Pedrezuela, Spain", "global_code": "8CGRP9VX+GV"}, "rating": 1.3, "reference": "ChIJ8UqMFO_bQw0R8nhKLZWNmQ4", "scope": "GOOGLE", "types": ["bank", "finance", "point_of_interest", "establishment"], "user_ratings_total": 13, "vicinity": "Paseo de la Ermita, 18, Pedrezuela"}]