[{"business_status": "OPERATIONAL", "geometry": {"location": {"lat": 40.57503659999999, "lng": -3.99987}, "viewport": {"northeast": {"lat": 40.5763051302915, "lng": -3.998545569708498}, "southwest": {"lat": 40.5736071697085, "lng": -4.001243530291502}}}, "icon": "https://maps.gstatic.com/mapfiles/place_api/icons/v1/png_71/parking-71.png", "icon_background_color": "#7B9EB0", "icon_mask_base_uri": "https://maps.gstatic.com/mapfiles/place_api/icons/v2/parking_pinlet", "name": "Parking Galapagar", "photos": [{"height": 4608, "html_attributions": ["<a href=\"https://maps.google.com/maps/contrib/116239654047969124813\">Jose Luis Figueira Massa</a>"], "photo_reference": "AWn5SU56diRO8kFLGaZyfeNiETM7hv8T1oulyguZiLAMECRzYIZeBY8iT2Pgnbm7-nGV9TqJx0Y1YeI97x4C7pwRdGZVbWF0rj1OSDSnokoiDgN7AXpLAybgqzIqwioX0Zj3nhlYJN0ZkWmd8vOBmOdOGd5EN76ToFKHlU10Of1Lok9oQimCuzs8ijgCroPU3-Y1IQ1SUwhdu-ayKTl2lf-K5u-pWTjCnBYnk9sbCH0FcvYxsdKmZXEUHf9RKVM1L0McvhAm4XnaYtanIJWSzTR1_CIAyAptr6IxaC9JN_o54G55f-BfZZl3HUwItPBAybikgqAsT2UjAHiySfzjnizZ2O6ThlEbG_Ok62mwY8GLOmndCXvumWImTXYV2Yi6GiLSJU-L9Z-DsAvucrdoWID1Ll4R3HmhlfDM107icjC4dPwHrolO26dDWUd9p2_K841XQbrs19Ojp-5gOsLykbJd666RUgmkl9njaUVVKEM0FE6sr30tehUcUrdc9DJNwjVoU4PujiS3_L3xdH6g3LRKkCrA89hwVxajDlfKAkezjU13CHJJtpVWLtLeK55enp7ssl7kIvnonMFcNPW-EYHuIEo6uSl_IjDKGHZfi9J9TRpkr-B52RiKLiY2GTc4oktaLs5Yqg", "width": 2592}], "place_id": "ChIJZ5OMPPB1QQ0RXJBTn5FA-JY", "plus_code": {"compound_code": "H2G2+23 Galapagar, Spain", "global_code": "8CGRH2G2+23"}, "rating": 3.5, "reference": "ChIJZ5OMPPB1QQ0RXJBTn5FA-JY", "scope": "GOOGLE", "types": ["parking", "point_of_interest", "establishment"], "user_ratings_total": 32, "vicinity": "Avenida de los Voluntarios, 77, Galapagar"}, {"business_status": "OPERATIONAL", "geometry": {"location": {"lat": 40.57824979999999, "lng": -4.042712499999999}, "viewport": {"northeast": {"lat": 40.5796211802915, "lng": -4.041409119708497}, "southwest": {"lat": 40.5769232197085, "lng": -4.044107080291502}}}, "icon": "https://maps.gstatic.com/mapfiles/place_api/icons/v1/png_71/parking-71.png", "icon_background_color": "#7B9EB0", "icon_mask_base_uri": "https://maps.gstatic.com/mapfiles/place_api/icons/v2/parking_pinlet", "name": "Parking Valmayor", "opening_hours": {"open_now": true}, "photos": [{"height": 3016, "html_attributions": ["<a href=\"https://maps.google.com/maps/contrib/109960900190217906405\">Ana Galan</a>"], "photo_reference": "AWn5SU6Nu4y7xFlZ9w_i76tDbU_W21UTHao3ksDoNzbdJQ6kAAWL7mu4qMG80p2VYqwoyYDa9HntzaPh2KBn-xN5xlunHEMY4S04b4w2EWsiSBIe8Si4wyikeyHVWdJp5pIfGbodLKO1LTXDl2Tp1m5JTYRtyHYyVLnD76LkySrqqyfCk8VMpJpqYFzqH1kw6n_mKm9PJSv3dq7AOPizO4rL8FTt7nEx5Ijt6z9a_dqlkC0b2Oue6BrQaNtkCumzeTndUgr--SPbgDK4OB9qEk093Unnf-hh7IzwHmzchHiElXlcnMHG5uhq1X2TQMMwCDX8GVfNNUTyakCSDBGxNojona-PQ9qt6lU2Q6V67nTyn4jqBiLqi0wIxChIfvpsuGIyon_HVottjM960w6WEQP4LfEBCw7spBGpi71fIGeSB9GNDKZbeMX2vwUzI4Av9_LNw1ATN04DzJ-m9AaRhtkIC6Wn_w6SiabaTfwMfQRUGB4rJranSMPIFVTemuShiFE8JzVJ8QDgAVbCRG4K3nihR_3qPqqGBFiLS5DBI79cqtUyGkF0JgEaRB_bSJNPOYj5w3Pi_PQlskiMs6dbyH5Db8jUlDyaAmAWkUe90Z8m9yBMJxQRbdRofMaoQuqAvZfC", "width": 4032}], "place_id": "ChIJHYh-lW51QQ0RbYcq8mp64Rs", "plus_code": {"compound_code": "HXH4+7W Colmenarejo, Spain", "global_code": "8CGQHXH4+7W"}, "rating": 4.1, "reference": "ChIJHYh-lW51QQ0RbYcq8mp64Rs", "scope": "GOOGLE", "types": ["parking", "point_of_interest", "establishment"], "user_ratings_total": 148, "vicinity": "Colmenarejo"}, {"business_status": "OPERATIONAL", "geometry": {"location": {"lat": 40.55842759999999, "lng": -4.014723099999999}, "viewport": {"northeast": {"lat": 40.5597557802915, "lng": -4.013441719708498}, "southwest": {"lat": 40.5570578197085, "lng": -4.016139680291502}}}, "icon": "https://maps.gstatic.com/mapfiles/place_api/icons/v1/png_71/parking-71.png", "icon_background_color": "#7B9EB0", "icon_mask_base_uri": "https://maps.gstatic.com/mapfiles/place_api/icons/v2/parking_pinlet", "name": "Parking Gratuito", "opening_hours": {"open_now": true}, "photos": [{"height": 3120, "html_attributions": ["<a href=\"https://maps.google.com/maps/contrib/113276950381716230902\">Víctor Sánchez</a>"], "photo_reference": "AWn5SU4LtXDVPe_5CAYXLMoYTVLiuvcuC-qzcFWX7xLj4_-qpQgBfyhIEstCz_9LsIG1LAEkYUZVvyQhRGwE-3Tc89QYAKIjUGTvm_VJ7sO4zapvqrUwErMpI5_vIqFZ-ZmFeaXwjkECWICL3ylpwYOk876ud-h4rezKTQ5KV5mdR-2SCH_Ba0w44d2BCC_6KWu8UoviKpmNrOpv0-9MColBgILKDs1dKsgrRZyUdAMwHghP4wpUSbgE_n_wDN_o28qThTrrpSsvXop7avNzNyso2LVwiJbwYx_-9vCdKwAW2Q4GtDWCjg5gLOdWF2dtl7O9uOScZjo-XXutIUWb6ScNTUUtyrpBRrx0zWZFfVv4NXaiBGWKvVbCNJNLWaCiDHkrLjPtRWjV0XyK4iaG_FnnabKiTHDCbb0XQ6ZXZ0XmMCeGKb1tVFsc0HIypr-QqDahTGgeQT46GmaOLLYMMv6kiqmeu1u6ahyM3znmdvTyp1LChaL6gMvptekRloHvaJ578Usm5JTh7C6zRVycJm9JaRu8UKrg3fMjuxGTX1rkBzQmXsOLh67urb9AC5bEI024jGz9U4VPuW7vCRujNu81ABoG2GioL2iPVghha5Dgg693X4yRtlh-nKfdp8DONU8dmY6Sng", "width": 4160}], "place_id": "ChIJt1WkUbGfQQ0RqH4VbVZ1yG0", "plus_code": {"compound_code": "HX5P+94 Colmenarejo, Spain", "global_code": "8CGQHX5P+94"}, "rating": 3, "reference": "ChIJt1WkUbGfQQ0RqH4VbVZ1yG0", "scope": "GOOGLE", "types": ["parking", "point_of_interest", "establishment"], "user_ratings_total": 3, "vicinity": "Calle Madrid, 34, Colmenarejo"}, {"business_status": "OPERATIONAL", "geometry": {"location": {"lat": 40.5680043, "lng": -4.0240541}, "viewport": {"northeast": {"lat": 40.5693602302915, "lng": -4.022727669708497}, "southwest": {"lat": 40.5666622697085, "lng": -4.025425630291502}}}, "icon": "https://maps.gstatic.com/mapfiles/place_api/icons/v1/png_71/parking-71.png", "icon_background_color": "#7B9EB0", "icon_mask_base_uri": "https://maps.gstatic.com/mapfiles/place_api/icons/v2/parking_pinlet", "name": "Parking junto descanso", "opening_hours": {"open_now": true}, "place_id": "ChIJq7euPwB1QQ0RaL0SCTx9pmc", "plus_code": {"compound_code": "HX9G+69 Colmenarejo, Spain", "global_code": "8CGQHX9G+69"}, "reference": "ChIJq7euPwB1QQ0RaL0SCTx9pmc", "scope": "GOOGLE", "types": ["parking", "point_of_interest", "establishment"], "vicinity": "Charca del Navazo, Calle de la Cañada Real, 27, Colmenarejo"}, {"business_status": "OPERATIONAL", "geometry": {"location": {"lat": 40.5693699, "lng": -4.031681}, "viewport": {"northeast": {"lat": 40.5709019802915, "lng": -4.030468369708498}, "southwest": {"lat": 40.5682040197085, "lng": -4.033166330291502}}}, "icon": "https://maps.gstatic.com/mapfiles/place_api/icons/v1/png_71/parking-71.png", "icon_background_color": "#7B9EB0", "icon_mask_base_uri": "https://maps.gstatic.com/mapfiles/place_api/icons/v2/parking_pinlet", "name": "Parking De La Ermita", "opening_hours": {"open_now": true}, "photos": [{"height": 2448, "html_attributions": ["<a href=\"https://maps.google.com/maps/contrib/117933242523959421927\">David Cuesta Capa</a>"], "photo_reference": "AWn5SU6CUJvkyTl1-qFIq_XWAZ3on9sZZdHFvq_7z34xVjQQb6gmejVySjQp6VjK8hvr2_U83ze_mpe2uUXqFc7ncslRcRzbXpYk2gcXLL1fjC2DYU5aqShjmdvl0lvjrLG5B6gwiiWjy1voaYCv0HYfum2UYOIzV4nuyxjjcEDySmfU9YAI4EjFEwKc1DaM9yLHhoND8F_5MZZ7-VQBG4Kh_EtpM-v_5JLl0_8t39MdZDh2mJiD3znoDswlRoJJicWE4NRkths2SY-jgltrFKGXAvlIbWc9Qvxfz61z2b1C9S6PEwK4iPyCeCHDauiCCPFdgNGE37zBTxutilc8Syt0_8P4DvdG4OQsG3qCdUhVUQeGonam_AKq8pkAHE5-k5tIji2yas_VIecSXxC5U8bQDI9Zy212QO4lJsTbAWuiD_smMDuPwUx-0AAu4Hx5mlogKfgXE8c_r7UARlIWvTRw0WChTTsEZ_WXZ9VsYeAB5w5JsoUEdex22_DIlcWjyIpTgAO3XnMC039-Wtnyo7lFzQsWcOwNJOvS8UWZKQt-LRHTc1ldzyvidHNgksiVfixJQOGI34_PXmeh69R8hpwKRiUr1RiLrda-c0mlGutFneBiyNmNMuEl8HnbZvtK-0yIYME92A", "width": 3264}], "place_id": "ChIJSbTJ0351QQ0R80iZ8bX5lzU", "plus_code": {"compound_code": "HX99+P8 Colmenarejo, Spain", "global_code": "8CGQHX99+P8"}, "rating": 4.1, "reference": "ChIJSbTJ0351QQ0R80iZ8bX5lzU", "scope": "GOOGLE", "types": ["parking", "point_of_interest", "establishment"], "user_ratings_total": 9, "vicinity": "Colmenarejo"}, {"business_status": "OPERATIONAL", "geometry": {"location": {"lat": 40.5465498, "lng": -4.011375300000001}, "viewport": {"northeast": {"lat": 40.54789858029149, "lng": -4.010024919708498}, "southwest": {"lat": 40.5452006197085, "lng": -4.012722880291503}}}, "icon": "https://maps.gstatic.com/mapfiles/place_api/icons/v1/png_71/parking-71.png", "icon_background_color": "#7B9EB0", "icon_mask_base_uri": "https://maps.gstatic.com/mapfiles/place_api/icons/v2/parking_pinlet", "name": "Aparcamiento de la Universidad", "photos": [{"height": 3120, "html_attributions": ["<a href=\"https://maps.google.com/maps/contrib/113276950381716230902\">Víctor Sánchez</a>"], "photo_reference": "AWn5SU6P_mk-CzyGlg2vprDuB73UD7X2j2gjY1mSOdwlVPsLkrQj5Hc-kX43U2oPL-2u9BOufajbLPrM_eIsHNpaQwp_lQB61I0zRe_8ApJPL9gc4OTEEw0fCYjYe3Bw0axUIE7p-Uhm4YpJLuWY_JkcDJv3xDh7oGaI9qecUHaRbcTg7lVQvzDXUzBobJWGpqN4ldGvJw8YklpzzF4I-hIeockhHrhR73i35P33W6-Em7izMLw3Nrhsm59VHBDll2OEg7LPLeBeI8-aZRhP7y2ZQy6nnqmlgRTQFHNHTqGU0LulG5n5Exa7TX2GPPBynAKlu6JYkKVCKTDSC6Y5V5G5sF9gYJBn0aet5gV4qR6c-GbbOxjCF52WvrN0AoA97fN42LtARlYbRyWbIVC8sQuyqQ1WmlAv-XtjKGYJ16HdJkcfRS7URvpr7gg6arQm01MvmCbb3gE81Yz9B6xiaJwcsyN-tYT3dh2n9nEH4siTjQ54uoqsHummYfdEdocpvYqZoB1M6WD4CQlXPkmEQ-v_kefH6ZlWWjPwUMWpgxloSH2eZLyTBf7SLBJdOLsmoXesskPgZoccFCeVRWtTIDEwDNWg-21s4UyAG9_oqZwQ6rsuG-M99KnMQCIaRoBGTJbkSkspkQ", "width": 4160}], "place_id": "ChIJ1-5cDlCfQQ0RPZQp-yR3E9U", "plus_code": {"compound_code": "GXWQ+JC Colmenarejo, Spain", "global_code": "8CGQGXWQ+JC"}, "rating": 2.5, "reference": "ChIJ1-5cDlCfQQ0RPZQp-yR3E9U", "scope": "GOOGLE", "types": ["parking", "point_of_interest", "establishment"], "user_ratings_total": 2, "vicinity": "Colmenarejo"}, {"business_status": "OPERATIONAL", "geometry": {"location": {"lat": 40.5768978, "lng": -4.0049017}, "viewport": {"northeast": {"lat": 40.57823853029149, "lng": -4.003525369708497}, "southwest": {"lat": 40.5755405697085, "lng": -4.006223330291502}}}, "icon": "https://maps.gstatic.com/mapfiles/place_api/icons/v1/png_71/parking-71.png", "icon_background_color": "#7B9EB0", "icon_mask_base_uri": "https://maps.gstatic.com/mapfiles/place_api/icons/v2/parking_pinlet", "name": "Parking Público Plaza del Caño", "photos": [{"height": 4032, "html_attributions": ["<a href=\"https://maps.google.com/maps/contrib/100302521023360779676\">Rocioo Rendeross</a>"], "photo_reference": "AWn5SU5CIUSxhSDygDX3OSWcQMct_wB3Oh2XlUb9UHeoMvdiorf1dNtGNpSGGXfn--Qm3AJgmXcyiXMkzvGo1L5VSE4JIoW0iqJ06IQTouOP_TvlImPHqDXdVcWAI1oyf8G-XePTsnpH4JycvaqTZmiKlZlCiV35CYcVLtjFPnUm1mH-nfN4CbQXy4q75erY2H6wI0KVcjzQpdIdGfhD-w70vwRIp0dj5dqoB0he1PR4JbIYsGG5cD4CGEJkveGCIyq7sDuIysK4KeLajFvdxMp7yuD4SXFmxYbIE4fk9hs7YHjG-20ReYL9VLQr8CyUihuN9Ul-2pbsj3KdmDXuOzjpvmW1O3CNvEZTqGlvimanDEPQ58swoe4mHJa0pu_KoH2Y2G4fukBVPvEh6XXuDui0T_b4Nc8xXdYVSNCklKbIMZiAFnxmnWd3lXH6PTaqbY9VJWwy9J8GDcFv0XgxVALuHW5FzkkVVWUSdS0LBhETpFgqTWVV52qSRaaKTnOM1F6U-InqTWAZpToKaABp-gAWennfm7En2dJNuaxg3DmPd4B3r-RTfgCO11W461dlMXBD71DJ5xlZGoVQJZqG2NJmVt6PZPHV9ZrLfhVeo0V5NCLMTRspjJBRxFQNHbnv4uqN44s1Hg", "width": 1816}], "place_id": "ChIJj-V_l-11QQ0RVefP1XMtwF4", "plus_code": {"compound_code": "HXGW+Q2 Galapagar, Spain", "global_code": "8CGQHXGW+Q2"}, "rating": 2.5, "reference": "ChIJj-V_l-11QQ0RVefP1XMtwF4", "scope": "GOOGLE", "types": ["parking", "point_of_interest", "establishment"], "user_ratings_total": 42, "vicinity": "Plaza del Caño, Galapagar"}, {"business_status": "OPERATIONAL", "geometry": {"location": {"lat": 40.5775457, "lng": -4.003506900000001}, "viewport": {"northeast": {"lat": 40.5787286302915, "lng": -4.002356169708498}, "southwest": {"lat": 40.57603066970851, "lng": -4.005054130291502}}}, "icon": "https://maps.gstatic.com/mapfiles/place_api/icons/v1/png_71/parking-71.png", "icon_background_color": "#7B9EB0", "icon_mask_base_uri": "https://maps.gstatic.com/mapfiles/place_api/icons/v2/parking_pinlet", "international_phone_number": "+34 625 81 82 78", "name": "FAST PARKING BARAJAS", "place_id": "ChIJ6wZhNmp1QQ0R3pU9Utc8zDU", "plus_code": {"compound_code": "HXHW+2H Galapagar, Spain", "global_code": "8CGQHXHW+2H"}, "rating": 5, "reference": "ChIJ6wZhNmp1QQ0R3pU9Utc8zDU", "scope": "GOOGLE", "types": ["parking", "point_of_interest", "establishment"], "user_ratings_total": 5, "vicinity": "Plaza de la Constitución, 11, Galapagar"}, {"business_status": "OPERATIONAL", "geometry": {"location": {"lat": 40.5791968, "lng": -4.003255999999999}, "viewport": {"northeast": {"lat": 40.5806375302915, "lng": -4.001842719708496}, "southwest": {"lat": 40.5779395697085, "lng": -4.004540680291501}}}, "icon": "https://maps.gstatic.com/mapfiles/place_api/icons/v1/png_71/parking-71.png", "icon_background_color": "#7B9EB0", "icon_mask_base_uri": "https://maps.gstatic.com/mapfiles/place_api/icons/v2/parking_pinlet", "international_phone_number": "+34 910 13 38 30", "name": "Servicio Estacionamiento Regulado Galapagar", "opening_hours": {"open_now": false}, "place_id": "ChIJ2e-YIOx1QQ0Rwph0I0Cbfdg", "plus_code": {"compound_code": "HXHW+MM Galapagar, Spain", "global_code": "8CGQHXHW+MM"}, "rating": 2.4, "reference": "ChIJ2e-YIOx1QQ0Rwph0I0Cbfdg", "scope": "GOOGLE", "types": ["parking", "point_of_interest", "establishment"], "user_ratings_total": 19, "vicinity": "Calle de San Gregorio, 19, Galapagar"}, {"business_status": "OPERATIONAL", "geometry": {"location": {"lat": 40.5795, "lng": -3.9999156}, "viewport": {"northeast": {"lat": 40.5807389302915, "lng": -3.998849119708497}, "southwest": {"lat": 40.5780409697085, "lng": -4.001547080291502}}}, "icon": "https://maps.gstatic.com/mapfiles/place_api/icons/v1/png_71/parking-71.png", "icon_background_color": "#7B9EB0", "icon_mask_base_uri": "https://maps.gstatic.com/mapfiles/place_api/icons/v2/parking_pinlet", "name": "Aparcamiento disuasorio", "place_id": "ChIJ4SXIyuZ1QQ0RyWR-EjOD6og", "plus_code": {"compound_code": "H2H2+Q2 Galapagar, Spain", "global_code": "8CGRH2H2+Q2"}, "rating": 3.9, "reference": "ChIJ4SXIyuZ1QQ0RyWR-EjOD6og", "scope": "GOOGLE", "types": ["parking", "point_of_interest", "establishment"], "user_ratings_total": 16, "vicinity": "Calle Tenería, 32, 40, Galapagar"}, {"business_status": "OPERATIONAL", "geometry": {"location": {"lat": 40.5795942, "lng": -3.999101699999999}, "viewport": {"northeast": {"lat": 40.58096288029149, "lng": -3.997760719708498}, "southwest": {"lat": 40.5782649197085, "lng": -4.000458680291502}}}, "icon": "https://maps.gstatic.com/mapfiles/place_api/icons/v1/png_71/parking-71.png", "icon_background_color": "#7B9EB0", "icon_mask_base_uri": "https://maps.gstatic.com/mapfiles/place_api/icons/v2/parking_pinlet", "name": "Aparcamiento disuasorio c/ Tenería", "place_id": "ChIJ9yNcRrF1QQ0RBdXDyqaDTx0", "plus_code": {"compound_code": "H2H2+R9 Galapagar, Spain", "global_code": "8CGRH2H2+R9"}, "rating": 3.7, "reference": "ChIJ9yNcRrF1QQ0RBdXDyqaDTx0", "scope": "GOOGLE", "types": ["parking", "point_of_interest", "establishment"], "user_ratings_total": 3, "vicinity": "Galapagar"}, {"business_status": "OPERATIONAL", "geometry": {"location": {"lat": 40.5852309, "lng": -4.044341}, "viewport": {"northeast": {"lat": 40.5865601302915, "lng": -4.042936219708498}, "southwest": {"lat": 40.5838621697085, "lng": -4.045634180291502}}}, "icon": "https://maps.gstatic.com/mapfiles/place_api/icons/v1/png_71/parking-71.png", "icon_background_color": "#7B9EB0", "icon_mask_base_uri": "https://maps.gstatic.com/mapfiles/place_api/icons/v2/parking_pinlet", "name": "Aparcamiento Del Embalse De Valmayor", "opening_hours": {"open_now": true}, "photos": [{"height": 3024, "html_attributions": ["<a href=\"https://maps.google.com/maps/contrib/101797110918360606554\">Matt Hibbard</a>"], "photo_reference": "AWn5SU4OerweMPHMMa4bVitdR6ovTOr5L_Oy9ssQyoziQsmEJstvkHrF6CRazIBKoUV6IO1Do01BLyyTMLmstaRXPUNckaO897HNVJwKhj1sOfs-a3So8brLEvtiNZ9wmwtrrtNtVdgd1PaTTiJBNwFxsk5w1xBs9yogIKmEefD4HJNUTFXPCJ-LGyAkvZJhTHg80swU44uKGmU_6Zb2st6ke1vWpLca_m-tBXpsSZe7RrL90GZACvP4YohYMJ-0TVVv6G2aWIeOtWKyJuRTcegBklmoC8qAcmBrx3UuhW0j9wustojELAeFLS6kJFdgLoCYsHiHsJ0648E2FDSeG2nnqA3x6LPx8zpdUNoKJnNNp0HkB_UBFWKT_FjK1CFgrE1dMlfwiLfY5nN7BR66gKj7U26BHAUo6xfmwXWiShEoFD298ZftWKEua7eue54s87emng2jB47PcrhXsKlWTGc7C2hKEI3UksPRm-b5mU6TkfhgBY3-nsIkVYdzXkD6GJnD9g5LwHHgNTh_-S4owu3xImQjOO2_2HxKDXuqAToTmTGoAJcHte1s3dbgQ_-D7wOCuISmK09qDxnIlA0dCwSLCYeg6EfC6ISneTdZQgySAiu3aZzrpzvEUV_IV4_4hhRZcPjc2HHk", "width": 4032}], "place_id": "ChIJO90lpBR1QQ0RJJywW_WWy3c", "plus_code": {"compound_code": "HXP4+37 El Escorial, Spain", "global_code": "8CGQHXP4+37"}, "rating": 4.2, "reference": "ChIJO90lpBR1QQ0RJJywW_WWy3c", "scope": "GOOGLE", "types": ["parking", "point_of_interest", "establishment"], "user_ratings_total": 56, "vicinity": "El Escorial"}, {"business_status": "OPERATIONAL", "geometry": {"location": {"lat": 40.5855573, "lng": -4.0441258}, "viewport": {"northeast": {"lat": 40.58690473029149, "lng": -4.042775869708497}, "southwest": {"lat": 40.5842067697085, "lng": -4.045473830291502}}}, "icon": "https://maps.gstatic.com/mapfiles/place_api/icons/v1/png_71/parking-71.png", "icon_background_color": "#7B9EB0", "icon_mask_base_uri": "https://maps.gstatic.com/mapfiles/place_api/icons/v2/parking_pinlet", "name": "Parking embalse de escorial", "opening_hours": {"open_now": true}, "place_id": "ChIJJWNhFVV1QQ0RcxYZtrBflfY", "plus_code": {"compound_code": "HXP4+68 Galapagar, Spain", "global_code": "8CGQHXP4+68"}, "reference": "ChIJJWNhFVV1QQ0RcxYZtrBflfY", "scope": "GOOGLE", "types": ["parking", "point_of_interest", "establishment"], "vicinity": "El Escorial"}, {"business_status": "OPERATIONAL", "geometry": {"location": {"lat": 40.60146200000001, "lng": -3.983889}, "viewport": {"northeast": {"lat": 40.60276673029151, "lng": -3.982594319708499}, "southwest": {"lat": 40.60006876970851, "lng": -3.985292280291503}}}, "icon": "https://maps.gstatic.com/mapfiles/place_api/icons/v1/png_71/parking-71.png", "icon_background_color": "#7B9EB0", "icon_mask_base_uri": "https://maps.gstatic.com/mapfiles/place_api/icons/v2/parking_pinlet", "name": "Parking disuasorio de Estación Galapagar-La Navata", "place_id": "ChIJS4ppCAB3QQ0R2GeMeZj8MZk", "plus_code": {"compound_code": "J228+HC Galapagar, Spain", "global_code": "8CGRJ228+HC"}, "rating": 1, "reference": "ChIJS4ppCAB3QQ0R2GeMeZj8MZk", "scope": "GOOGLE", "types": ["parking", "point_of_interest", "establishment"], "user_ratings_total": 1, "vicinity": "Carretera de Galapagar a Navata, 185, Galapagar"}, {"business_status": "OPERATIONAL", "geometry": {"location": {"lat": 40.5226839, "lng": -4.0583651}, "viewport": {"northeast": {"lat": 40.5240013802915, "lng": -4.057016369708498}, "southwest": {"lat": 40.5213034197085, "lng": -4.059714330291502}}}, "icon": "https://maps.gstatic.com/mapfiles/place_api/icons/v1/png_71/parking-71.png", "icon_background_color": "#7B9EB0", "icon_mask_base_uri": "https://maps.gstatic.com/mapfiles/place_api/icons/v2/parking_pinlet", "name": "Parking el paraiso", "opening_hours": {"open_now": true}, "place_id": "ChIJKYuaXnKfQQ0RWEVua1HyYvM", "plus_code": {"compound_code": "GWFR+3M El Paraíso, Spain", "global_code": "8CGQGWFR+3M"}, "rating": 4.7, "reference": "ChIJKYuaXnKfQQ0RWEVua1HyYvM", "scope": "GOOGLE", "types": ["parking", "point_of_interest", "establishment"], "user_ratings_total": 3, "vicinity": "Calle Encina del Paraíso, El Paraíso"}, {"business_status": "OPERATIONAL", "geometry": {"location": {"lat": 40.5228537, "lng": -4.058948699999999}, "viewport": {"northeast": {"lat": 40.5241427302915, "lng": -4.057615569708497}, "southwest": {"lat": 40.5214447697085, "lng": -4.060313530291501}}}, "icon": "https://maps.gstatic.com/mapfiles/place_api/icons/v1/png_71/parking-71.png", "icon_background_color": "#7B9EB0", "icon_mask_base_uri": "https://maps.gstatic.com/mapfiles/place_api/icons/v2/parking_pinlet", "name": "Calle Encina del Paraíso, 6 Parking", "place_id": "ChIJhVfP_XefQQ0Ry22AWhQ3TGE", "plus_code": {"compound_code": "GWFR+4C El Paraíso, Spain", "global_code": "8CGQGWFR+4C"}, "reference": "ChIJhVfP_XefQQ0Ry22AWhQ3TGE", "scope": "GOOGLE", "types": ["parking", "point_of_interest", "establishment"], "vicinity": "Calle Encina del Paraíso, 6, El Paraíso"}, {"business_status": "OPERATIONAL", "geometry": {"location": {"lat": 40.5229367, "lng": -4.0593148}, "viewport": {"northeast": {"lat": 40.5242137302915, "lng": -4.057985719708499}, "southwest": {"lat": 40.5215157697085, "lng": -4.060683680291503}}}, "icon": "https://maps.gstatic.com/mapfiles/place_api/icons/v1/png_71/parking-71.png", "icon_background_color": "#7B9EB0", "icon_mask_base_uri": "https://maps.gstatic.com/mapfiles/place_api/icons/v2/parking_pinlet", "name": "Parking de Josito", "place_id": "ChIJl3qbWpOfQQ0RkRFwWgzAB4w", "plus_code": {"compound_code": "GWFR+57 El Paraíso, Spain", "global_code": "8CGQGWFR+57"}, "reference": "ChIJl3qbWpOfQQ0RkRFwWgzAB4w", "scope": "GOOGLE", "types": ["parking", "point_of_interest", "establishment"], "vicinity": "Calle Encina del Paraíso, 2, El Paraíso"}, {"business_status": "OPERATIONAL", "geometry": {"location": {"lat": 40.6006299, "lng": -4.0597929}, "viewport": {"northeast": {"lat": 40.6020285802915, "lng": -4.058513669708497}, "southwest": {"lat": 40.5993306197085, "lng": -4.061211630291502}}}, "icon": "https://maps.gstatic.com/mapfiles/place_api/icons/v1/png_71/parking-71.png", "icon_background_color": "#7B9EB0", "icon_mask_base_uri": "https://maps.gstatic.com/mapfiles/place_api/icons/v2/parking_pinlet", "name": "Parking Los Arroyos", "photos": [{"height": 1184, "html_attributions": ["<a href=\"https://maps.google.com/maps/contrib/115055383090176917276\">Miguel angel Manzaneque gallego</a>"], "photo_reference": "AWn5SU7xja-ZJQSQ1DSUfWxE1-JoEjs5ABF2hsyMXAb01HLVHez9fZP4rqgDMRx4xECLXvpDLS07ZQkomYZjTcMkl9dp1G4OA1ywgnYyo5aLsF4tsiPjW7BcZTRnY3YNatYgZiDDuJHEX7Njzh7SUrt6_xjAo4VvnNEJgSuXXTchPQlRY6dq4M_wG95nNw9lvtmTDRIPeCOZ6shD47VduA8rRV5MqLAZ1gSVVKbY4GZ0icIlM52T_AeO5uzOVIQ3jmKc8iYHvPiAbEuRzY8rYxQFJqRfZrvc7tkH_2JwNEzm3UmrKVpJTDxyYuxL5BUqI7rPax5QSdzUsGvtnQOMf2Xo58sXGiB5DqMN1zMLp0DHk4d4z_SUWNjkYxCrH04zIbxdnf8jf1tuGU-wVAsLovMoFOi8aQ5J1vuFzteHBaoDi5R1x_yAE7Len7l6C66p1za0pjfJganpAOH7w-utlFqOTR2m7bRnzgxNttRRQ8McqqwC3FWQs_GRWS9xX3XdkDOQDQU0wAyBzaG2rpTQ_a6n3ZkhaLiBrf71-Q9Bf28sxJzk9j0l0f72dl6t-LgexGgz_A2ZPzNSx-9NP2uoSMTuxKxf2GlbhIVyciWMXjszpjkKOMlTglPafh02ztjRTRg9", "width": 2560}], "place_id": "ChIJT8bmgYR1QQ0RUu5RhX1qdEY", "plus_code": {"compound_code": "JW2R+73 El Escorial, Spain", "global_code": "8CGQJW2R+73"}, "rating": 4.7, "reference": "ChIJT8bmgYR1QQ0RUu5RhX1qdEY", "scope": "GOOGLE", "types": ["parking", "point_of_interest", "establishment"], "user_ratings_total": 6, "vicinity": "Calle Diez, El Escorial"}, {"business_status": "OPERATIONAL", "geometry": {"location": {"lat": 40.60915929999999, "lng": -4.0459349}, "viewport": {"northeast": {"lat": 40.6105281302915, "lng": -4.044600569708498}, "southwest": {"lat": 40.6078301697085, "lng": -4.047298530291503}}}, "icon": "https://maps.gstatic.com/mapfiles/place_api/icons/v1/png_71/parking-71.png", "icon_background_color": "#7B9EB0", "icon_mask_base_uri": "https://maps.gstatic.com/mapfiles/place_api/icons/v2/parking_pinlet", "name": "Parking Disuasorio Estación Las Zorreras", "opening_hours": {"open_now": true}, "place_id": "ChIJEfA2GZ51QQ0RC8f2LdQVjAE", "plus_code": {"compound_code": "JX53+MJ Collado Villalba, Spain", "global_code": "8CGQJX53+MJ"}, "rating": 4.2, "reference": "ChIJEfA2GZ51QQ0RC8f2LdQVjAE", "scope": "GOOGLE", "types": ["parking", "point_of_interest", "establishment"], "user_ratings_total": 5, "vicinity": "El Escorial, Unnamed Road, 28292"}, {"business_status": "OPERATIONAL", "geometry": {"location": {"lat": 40.60288829999999, "lng": -3.9700716}, "viewport": {"northeast": {"lat": 40.6042098302915, "lng": -3.968689669708497}, "southwest": {"lat": 40.6015118697085, "lng": -3.971387630291502}}}, "icon": "https://maps.gstatic.com/mapfiles/place_api/icons/v1/png_71/parking-71.png", "icon_background_color": "#7B9EB0", "icon_mask_base_uri": "https://maps.gstatic.com/mapfiles/place_api/icons/v2/parking_pinlet", "name": "Calle Fuentes Claras, 5 Parking", "place_id": "ChIJzTjAJ2F2QQ0RwXJpFx9ha78", "plus_code": {"compound_code": "J23H+5X Parquelagos, Spain", "global_code": "8CGRJ23H+5X"}, "reference": "ChIJzTjAJ2F2QQ0RwXJpFx9ha78", "scope": "GOOGLE", "types": ["parking", "point_of_interest", "establishment"], "vicinity": "Calle Fuentes Claras, 5, Parquelagos"}]