[{"geometry": {"location": {"lat": 40.1044848, "lng": -3.4864498}, "viewport": {"northeast": {"lat": 40.10832626072985, "lng": -3.478586128516526}, "southwest": {"lat": 40.09388277814953, "lng": -3.497801422516456}}}, "icon": "https://maps.gstatic.com/mapfiles/place_api/icons/v1/png_71/geocode-71.png", "icon_background_color": "#7B9EB0", "icon_mask_base_uri": "https://maps.gstatic.com/mapfiles/place_api/icons/v2/generic_pinlet", "name": "Villaconejos", "photos": [{"height": 2080, "html_attributions": ["<a href=\"https://maps.google.com/maps/contrib/103446463928834320522\">Marian Rodriguez</a>"], "photo_reference": "AWn5SU62cXI_KUDkW5H8G_CMtiUwR4YBhXbimXzUYYFmnTpKdxDRItZML0meuWvp1T4SJ1Z1ISlnhKbUftWui1sEilEdurpqB-ArqLEE373BNPIsY09_7zKMSKppnkbUPI38C5nl-9GXRmxhJQg069BV1psb73U2s-whIu6N67R72eV4_KoTMZYHiawhbEZ1EO4-h79pWtDqo-LV3v6DEoMWDduFn68XQS3fXy9HJ8u0zkrtwf2rGj1Byt8DGwS6aDC37coZKvtLNMQ5J5cPgxSDnnoEO1swbGgKp53bfdS5v_q67WgDQEbAQyy2bbg2umGUlfnDAKUzEC3xwcrlA0zfmWUbzhRSDaaV42HONHjKuK-efVqdZd8cYxEq78lcp9AoCJ9-AJD2bUAb8oZTVoZWEBU3QPyF99_yBqQGnNCCmwgarI3VlHOgo7VQ1fH2PZ36NwWgDUfUObzL1dDgH__s5izk9B466enu_cM7NGv6Go2bYHBaoKN3gzOAHeep36Rhn03DGCgArUvEZghDs2-pwsslhbUDZjuZNaSmVXvAWLm0fZ__lFVaQP2csR5d-IVuyj0kJHZZcL7-NGaheEBhnIi1e4Pnc1ncH8jKmbA97Hwc1uoApvSmApCJKsFUrUwgpYvQnw", "width": 4624}], "place_id": "ChIJD8tzAxISQg0RCo_1tVRSubI", "reference": "ChIJD8tzAxISQg0RCo_1tVRSubI", "scope": "GOOGLE", "types": ["locality", "political"], "vicinity": "Villaconejos"}, {"business_status": "OPERATIONAL", "geometry": {"location": {"lat": 40.10312349999999, "lng": -3.4827578}, "viewport": {"northeast": {"lat": 40.10448243029149, "lng": -3.481475319708498}, "southwest": {"lat": 40.10178446970849, "lng": -3.484173280291502}}}, "icon": "https://maps.gstatic.com/mapfiles/place_api/icons/v1/png_71/generic_business-71.png", "icon_background_color": "#7B9EB0", "icon_mask_base_uri": "https://maps.gstatic.com/mapfiles/place_api/icons/v2/generic_pinlet", "international_phone_number": "+34 686 53 98 89", "name": "Angel Sánchez Sánchez", "opening_hours": {"open_now": false}, "place_id": "ChIJxdCvcBISQg0RSUJmhko_nt0", "plus_code": {"compound_code": "4G38+6V Villaconejos, Spain", "global_code": "8CGR4G38+6V"}, "rating": 5, "reference": "ChIJxdCvcBISQg0RSUJmhko_nt0", "scope": "GOOGLE", "types": ["electrician", "point_of_interest", "establishment"], "user_ratings_total": 7, "vicinity": "Calle Hospital, 35, Villaconejos"}, {"business_status": "OPERATIONAL", "geometry": {"location": {"lat": 40.1017446, "lng": -3.4938313}, "viewport": {"northeast": {"lat": 40.1030280302915, "lng": -3.492357169708499}, "southwest": {"lat": 40.10033006970851, "lng": -3.495055130291502}}}, "icon": "https://maps.gstatic.com/mapfiles/place_api/icons/v1/png_71/generic_business-71.png", "icon_background_color": "#7B9EB0", "icon_mask_base_uri": "https://maps.gstatic.com/mapfiles/place_api/icons/v2/generic_pinlet", "international_phone_number": "+34 919 36 33 49", "name": "FRUTAS EL QUE FALTABA C-B", "opening_hours": {"open_now": false}, "photos": [{"height": 3333, "html_attributions": ["<a href=\"https://maps.google.com/maps/contrib/117573615698189455662\">Bolitas de melon</a>"], "photo_reference": "AWn5SU59D29BKPCLQR_WgAkKv4tRZTcYhDKECcTybeLBvhcpaWijfiRDB_4P5E1Hbvr8FjIhdX9OM_HI_0--bte1GFrWDoFxunCKtbuRT12tDy_AvGnXtfcW58vp_lAZF7SkIohjUojOkZYtbjVF0deHQv5SBt76_J73DDx69ho9FT1BfyPTSmQGXTSVqhHOtaCwlLqlTQnUmNZnHWSFZ3sxyPfJGNe-7dU1tl9xccWG2b2DH7N2ZMf4h3Ugl_7Er7GSJ_5at-3yCVVnHdSe5mZ6eYPYLhFuVpGm80EcGLqUvF66QGXA9aI24gLuxM4YDjlK5gJ1w5kY5_HXJdjnm8Vz1rQvSJNQ8I45Ql5eobJ8vPqMgikdrwVF60KCzjFtHRAIiOl04f9o_3vv7Dm0tGcHqlIU83fG_dbhrjgQ2pWW7AD7OnfvHyei4SEn3zhBZ1wnKSzDA7SVrCh7r55cvDDs1NqIoRzUqG3DEPm39d07PH4OJnMconDbpycXjFAcRLjcMiKuCyiXTq5IelXO8jMxVrzYOK47K2pqMgn7mhbdKXyJpzPdgX46dXwQRyCIiX6_-2lCO7Dv3Nm0ZsmUYAy4SBz-bZJVRFMEkifJEp7G-LqEWmBgOdEUq0NB6qUojnW5mzcMWA", "width": 5000}], "place_id": "ChIJHSYb3QQSQg0RGOn6-hZJmmw", "plus_code": {"compound_code": "4G24+MF Villaconejos, Spain", "global_code": "8CGR4G24+MF"}, "rating": 4.2, "reference": "ChIJHSYb3QQSQg0RGOn6-hZJmmw", "scope": "GOOGLE", "types": ["point_of_interest", "food", "establishment"], "user_ratings_total": 17, "vicinity": "C/ Camino Cooperativa, 10, Villaconejos"}, {"business_status": "OPERATIONAL", "geometry": {"location": {"lat": 40.1039959, "lng": -3.486586999999999}, "viewport": {"northeast": {"lat": 40.1053435802915, "lng": -3.485256819708498}, "southwest": {"lat": 40.1026456197085, "lng": -3.487954780291502}}}, "icon": "https://maps.gstatic.com/mapfiles/place_api/icons/v1/png_71/generic_business-71.png", "icon_background_color": "#7B9EB0", "icon_mask_base_uri": "https://maps.gstatic.com/mapfiles/place_api/icons/v2/generic_pinlet", "international_phone_number": "+34 918 93 85 51", "name": "Eurocaja Rural", "opening_hours": {"open_now": false}, "photos": [{"height": 1920, "html_attributions": ["<a href=\"https://maps.google.com/maps/contrib/105251327616044100373\">alicia s</a>"], "photo_reference": "AWn5SU4NeDnOAAJ2_7Nf3-e6ZUHuWjjeX95YQ2G4kO5j5v5f5EQdy-CiVAwNwk13alSdZ3nzSNQ_oxe-FYAVzldmK-_l0-E5xiW_xuDM0ffKgNlZORxesTvUfVRjDTEleftToHBLla0al22rc1RVJsQQ4oJj1iYRwds5I5NLgC6_79hTTHjQEV3fKeWmrtoMkW2IMdtgQBE9mWfC7gGkTgk6VShvRgw9VHOUH9ftGle4bS-TI436_oDav7jdf9Ky0n976s4PdQPT8BhKfdjjiWJ8UDoV5lgrdmdRj3VAu2hgymevhC-5SSEgWAlFI5VMD_8ztc9338guVEI5wVaw_sRG3mY46dsqqQQHZRXtbOVhpmxJ2wcjgfDP1Cnwyate22a5gOsFo89taF-VhYBMd0lJPJra_2nHM8QJD12DIDzFqM7o_g8YY0s3YaWpO7poaVBm5BZW74rNIjma5WePrNE8VluUEM7wSL5Lc4wP8ntIIdh6AG58b1dXLbbWS6inH9kjITvUpMwNP31qJICYddjoQBLluBATNvctfNKDHev_t757aNr7MIBnObXCegM7Yo4Fxvmz75SezpPanHmVXzgj981Wml4czXK0gRe_NjSQUwD8oSc1Y7ZgroUpGX0MEePW_50guA", "width": 1080}], "place_id": "ChIJtfvwDBISQg0RuNQKk6RUyBk", "plus_code": {"compound_code": "4G37+H9 Villaconejos, Spain", "global_code": "8CGR4G37+H9"}, "rating": 3.7, "reference": "ChIJtfvwDBISQg0RuNQKk6RUyBk", "scope": "GOOGLE", "types": ["atm", "bank", "finance", "point_of_interest", "establishment"], "user_ratings_total": 6, "vicinity": "Calle de Pradillo, 1, Villaconejos"}, {"business_status": "OPERATIONAL", "geometry": {"location": {"lat": 40.1046418, "lng": -3.4865292}, "viewport": {"northeast": {"lat": 40.10593633029149, "lng": -3.485144319708498}, "southwest": {"lat": 40.10323836970849, "lng": -3.487842280291502}}}, "icon": "https://maps.gstatic.com/mapfiles/place_api/icons/v1/png_71/civic_building-71.png", "icon_background_color": "#7B9EB0", "icon_mask_base_uri": "https://maps.gstatic.com/mapfiles/place_api/icons/v2/civic-bldg_pinlet", "international_phone_number": "+34 918 94 01 34", "name": "Oficina Rural de Correos", "opening_hours": {"open_now": false}, "photos": [{"height": 1920, "html_attributions": ["<a href=\"https://maps.google.com/maps/contrib/105251327616044100373\">alicia s</a>"], "photo_reference": "AWn5SU48GT11OYyQwRCohUkn9_oZop9CXU61xKLlRYL7QrtJlOy-RdcaQB5UemSyKlMrWnh4arpz0NXuph2BrKuIZx_RIp0pLUJCvKfOSs8WtfHrxOl5_B4iqUwJd1wRb30Nv8R46-Q7IxfGtLNjnmosOYRveKI1CX5Ukt9da_nksnZS655RXHjNn5jqYzNP0LnJgCM3p5PPpM2djaHHx2_MuIXlYS99Yoaot1JyoByFp_f9JFyeuE-MioVGhn-y3NbItO70sOmDqo5YGH3l2WjBFTS3draEJoRvlIF1cRFMK1w6huWxDf8Ck1NhT-I_DmEBFWrLi019k1s3GNBnyTrws9LfQ_R5lSwIKg4Vo4m6qUTX6tTtXP1T5w5yHsuceH3rrzH6KgfI9MYAMpPebxYOb-sQBaT9V8ITuLLX5qcRq0CgymsMq97d5zm7yunQpOK-I6GOIzsPXSYWdufYqx59PFzhRKbQPH9dytgyvxlc8CiBHWv6Q_R9YxRYOyZwYK8HMV4cBNiFpjQyfklQWNRlufcpyiNxHu3IWlqyLRwdB1lg_5pjPBzGNY2-wwNIVecWjugxRV-XlN-OHJHmzyvrRnWRVeIJ6h_xAOrydU7-1pN1hvaNOQVtfnv-suujeBAGlVQQYg", "width": 1080}], "place_id": "ChIJow6q6hESQg0RIKCnfRMRvrk", "plus_code": {"compound_code": "4G37+V9 Villaconejos, Spain", "global_code": "8CGR4G37+V9"}, "rating": 1.9, "reference": "ChIJow6q6hESQg0RIKCnfRMRvrk", "scope": "GOOGLE", "types": ["post_office", "finance", "point_of_interest", "establishment"], "user_ratings_total": 9, "vicinity": "C/ CONCEPCION GARCÍA ROBLES:3, Villaconejos"}, {"business_status": "OPERATIONAL", "geometry": {"location": {"lat": 40.102005, "lng": -3.4945218}, "viewport": {"northeast": {"lat": 40.1034337802915, "lng": -3.493178969708497}, "southwest": {"lat": 40.1007358197085, "lng": -3.495876930291501}}}, "icon": "https://maps.gstatic.com/mapfiles/place_api/icons/v1/png_71/generic_business-71.png", "icon_background_color": "#7B9EB0", "icon_mask_base_uri": "https://maps.gstatic.com/mapfiles/place_api/icons/v2/generic_pinlet", "international_phone_number": "+34 918 93 84 23", "name": "Gradenes Cuesta", "opening_hours": {"open_now": false}, "photos": [{"height": 3264, "html_attributions": ["<a href=\"https://maps.google.com/maps/contrib/114900334830809941019\">GRADENES CUESTA, S.L.</a>"], "photo_reference": "AWn5SU4UKofMQDDCBn_UJ8E3fGcfVcEx_AG7_gJaFMlPO-a7f5p07GskibEsqClPPxQYuUnRD6DlogRamiRDs8z8fxoAwyP6kXW5KbG4nUHOqUfRT2w4_4i8d81OfeeN_vzLGuehr-n7YbZKXsVYemA1njEoa3Yp4Hbh9k3MfSiT_o8MrmCFT2nhfHESkkn8jJEbpvOS3fiYIdM-tGWZHJ2SLMCcEOCZDw7cHxjMbSDR_6i2hTueNp5Nnv_ikvU4B5gCuas526vSmAVPhM3SV8BsVXVg5gxNMlazF8uxQ7Uo5Gog8rbIU3Ybyqo1S22fXjpd5qhfb0CeVcFEbM4vvxmxworQAsXHjpzkp4ubVBxzW5NA-Ac89M8ZmelPlx7tpenFwJr0SZ6M63P4j6gTDIMXJVR3IEvGrJnfLw3B02mswn_REsCfLxzl-Gsw7l3eCUkgiHw5LzDHh1juvdL6mwsdwCZjwZKr61Uj36HDH8XjfxAqPoaJPQ8MutIr6Yk5QWo1eVk_TpffGOlx5q6EovxoFBHqUAHuVVzXpzhLWesyBfJpyp6H3141lzve4KADRX6xyxPvRf0o2nsS2oDa_geIHtgJPSr7eNNq5641lZbCipGmgMZBphW_G4QHVLB0cR5V", "width": 3369}], "place_id": "ChIJV4EQLRASQg0RKZgo9EDzgro", "plus_code": {"compound_code": "4G24+R5 Villaconejos, Spain", "global_code": "8CGR4G24+R5"}, "rating": 4.5, "reference": "ChIJV4EQLRASQg0RKZgo9EDzgro", "scope": "GOOGLE", "types": ["point_of_interest", "establishment"], "user_ratings_total": 19, "vicinity": "Camino de Titulcia, 39, Villaconejos"}, {"business_status": "OPERATIONAL", "geometry": {"location": {"lat": 40.1046368, "lng": -3.485130599999999}, "viewport": {"northeast": {"lat": 40.1059675802915, "lng": -3.483774869708498}, "southwest": {"lat": 40.1032696197085, "lng": -3.486472830291502}}}, "icon": "https://maps.gstatic.com/mapfiles/place_api/icons/v1/png_71/generic_business-71.png", "icon_background_color": "#7B9EB0", "icon_mask_base_uri": "https://maps.gstatic.com/mapfiles/place_api/icons/v2/generic_pinlet", "international_phone_number": "+34 918 93 80 24", "name": "MAPFRE", "opening_hours": {"open_now": false}, "photos": [{"height": 2048, "html_attributions": ["<a href=\"https://maps.google.com/maps/contrib/118049540884617122475\">MAPFRE</a>"], "photo_reference": "AWn5SU6SkgWcnGndMGwepsyJ4V8obq0rAywnDjH5PmvHrKyMer_YTzx1p7d4QehRq-Zt7vbNDZ3iGDmXVcP30Hxhk9nqMjpnskdZuGot3TNn5En42g3z24BUb37RCrTGpyb-mg-LdYcqUhbMkcrwvshKG0ccZEsP347Vx6ma2mUp4WTs4mLlNWNczILngNv2q1nDPNtMxptCp7lEwxoTwN8UU3f5dsImgH0ICZwABBUiKzBk7j7RFjiUM9ew-rBj8kqHUjNTvUXYMYFZ2bTVU6bVaWb9R1o0lv2Mhf-79HpbssWKFOh7SS7LrgfUHd0XOJG--iKrWFg2", "width": 1536}], "place_id": "ChIJIZ3HGhISQg0RimbrLoKYguA", "plus_code": {"compound_code": "4G37+VW Villaconejos, Spain", "global_code": "8CGR4G37+VW"}, "reference": "ChIJIZ3HGhISQg0RimbrLoKYguA", "scope": "GOOGLE", "types": ["insurance_agency", "accounting", "finance", "health", "point_of_interest", "establishment"], "vicinity": "Calle Huertos, 20, Villaconejos"}, {"business_status": "OPERATIONAL", "geometry": {"location": {"lat": 40.1018066, "lng": -3.493987699999999}, "viewport": {"northeast": {"lat": 40.1033462802915, "lng": -3.492653419708498}, "southwest": {"lat": 40.1006483197085, "lng": -3.495351380291501}}}, "icon": "https://maps.gstatic.com/mapfiles/place_api/icons/v1/png_71/generic_business-71.png", "icon_background_color": "#7B9EB0", "icon_mask_base_uri": "https://maps.gstatic.com/mapfiles/place_api/icons/v2/generic_pinlet", "international_phone_number": "+34 918 93 80 81", "name": "Hermanos Agudo El Melonero", "photos": [{"height": 3096, "html_attributions": ["<a href=\"https://maps.google.com/maps/contrib/104173619311613553150\">Jorge Garvia Uceda</a>"], "photo_reference": "AWn5SU7fUmTggNkCO0OgaO9Fmno2xMdE2uyuJep23oFKVZcdMxxlbNKPAj_Cig25EDfNAuhQc5oTe7jGc3kJLi7JVGMt3CZFji0S6k45nndkazCxiUcoo87orHMZjKCFIokftMOtZJM7XJfKiZ8Cf2u18TQby6vaaUm6DxSOeFW30qTJ-ETUjBHdWMSLhIZISHUvHwYYaZlONJazYeo3Y81FDEaer1y6otBK676aD8JoZzUKsZfgPv4NVPu9KnsyuOJe8aefUTReysOugWHl6SLe_OyPbBGmW_2VNdoLc6Hl8CY37x7x4dNtiaRbqmk3lufGy4aC3HmJi4iOFIk8b6wRFCv398WfIDE7G6SYMwLEJFobBE1I6KHLzdonHHEHypa4PRF3ErNitwNnhnJ0PVtMtEb099e_hqWPOJmYs7mzSgmMJIx-OZXNbbnlQeO_UdqXHEXKOjm1oTGhTXOBagoSJ3YoW3Ex7eSj8_djMb5lYOww3qnW9Wb_SS39HBZyp6s3zGDjOftNuXloWXUhq7yX0DdPph_D8yf6wpSABFH9ae5MsZsGBk99ZyU5v5XIBCnYu4vbR0ZKnWcRvQG8YcR6O4dKX5CH3v1lamzB6pr4jKw8chVBxGxK7qfih0ndq7sewnW0lA", "width": 4128}], "place_id": "ChIJ1-cdARASQg0Rk5TswSzLI68", "plus_code": {"compound_code": "4G24+PC Villaconejos, Spain", "global_code": "8CGR4G24+PC"}, "rating": 4.4, "reference": "ChIJ1-cdARASQg0Rk5TswSzLI68", "scope": "GOOGLE", "types": ["point_of_interest", "food", "establishment"], "user_ratings_total": 47, "vicinity": "Carretera de Titulcia, 37, Villaconejos"}, {"business_status": "OPERATIONAL", "geometry": {"location": {"lat": 40.1025708, "lng": -3.4866673}, "viewport": {"northeast": {"lat": 40.1039231802915, "lng": -3.485322619708498}, "southwest": {"lat": 40.1012252197085, "lng": -3.488020580291502}}}, "icon": "https://maps.gstatic.com/mapfiles/place_api/icons/v1/png_71/generic_business-71.png", "icon_background_color": "#7B9EB0", "icon_mask_base_uri": "https://maps.gstatic.com/mapfiles/place_api/icons/v2/generic_pinlet", "international_phone_number": "+34 918 93 84 08", "name": "BELEN INNOVACION Estilistas", "opening_hours": {"open_now": false}, "photos": [{"height": 4608, "html_attributions": ["<a href=\"https://maps.google.com/maps/contrib/110163051000229905790\">MARIA BELEN PEREZ BENAVENTE</a>"], "photo_reference": "AWn5SU5vuqB9xTLJ27c45Fy-U_x5WIsM-DS8cSkyHn5OaKCW4kb51tU0jACWL-xtrjuduOKe6lB0KxEv1JFTbz9bsx1S8vsNHDIwGs0HdUW5Z7FWWcu3ozen80497gZsFIlxRNgz7YSJi2ZGeax9hMryS_BmH5zdBJXmln-U6LeHGWCHGois6rlQmhGW6DSXIVMnDRnWb4YxIaNa3gbJBQbHOyYhnu-SPMs9iSn9-O-aiJJyqIPdPyVn2no5ZesxiXeWy-pcM2tD91-FGbRRP0ftnvsSl1L9ebLMM4Pdz-x62ZYFJOyHzKFGIz-F0uv5Ur20wGQnDc4aWWfAY9d2Vdc33l64eyzBS4-DQsNRkQizK4Uv400BcuJeTqYdlbLdK-3tIvaulH4KMQt2252dZD4d63r3_mmTSq8Ny542jRnZzua7F-2EzhVVmnGDvU_RtJEfqR0qFQnhFTeP6elkTClCExkU7C0HOVAaRewAV8w1kEA6M34pClZXHxaYYsHiT-xKfiW9kODBW8jT06VGWVyzlm92StQFDEivbK0pZA7OohQvVDF2q80lL5d5PRKfg2L3ZB0mKe3jxnr6nQ22m5yVskzbGUTzsSqVn9k1FF-5XJn-GgtAx2y0d55xRV7jhLog1mqQJtxD", "width": 2592}], "place_id": "ChIJzXg0Iw4SQg0RPKZTSxuXvsU", "plus_code": {"compound_code": "4G37+28 Villaconejos, Spain", "global_code": "8CGR4G37+28"}, "rating": 4.7, "reference": "ChIJzXg0Iw4SQg0RPKZTSxuXvsU", "scope": "GOOGLE", "types": ["beauty_salon", "hair_care", "point_of_interest", "establishment"], "user_ratings_total": 53, "vicinity": "Callejón de la Soledad, 23, Villaconejos"}, {"business_status": "OPERATIONAL", "geometry": {"location": {"lat": 40.1020791, "lng": -3.493021}, "viewport": {"northeast": {"lat": 40.1033842802915, "lng": -3.491637469708499}, "southwest": {"lat": 40.1006863197085, "lng": -3.494335430291502}}}, "icon": "https://maps.gstatic.com/mapfiles/place_api/icons/v1/png_71/generic_business-71.png", "icon_background_color": "#7B9EB0", "icon_mask_base_uri": "https://maps.gstatic.com/mapfiles/place_api/icons/v2/generic_pinlet", "international_phone_number": "+34 918 93 80 04", "name": "Villauto Wagen", "opening_hours": {"open_now": false}, "photos": [{"height": 3456, "html_attributions": ["<a href=\"https://maps.google.com/maps/contrib/115133255947198065550\">Oscar GG</a>"], "photo_reference": "AWn5SU6W9iIy6P9QqZ7TswaUDETylT3nJw2JogMvCnQD5gZOA0H35KX17BO73QKSKJgs-12-oHV-Epz8F07U850LFtmvHAoFocI5BK3jUmW2heoB9iDA5lVv-SW9bWDH05Sj3laMBPgTci11UXoJkAl7D007kAIqLgtcXh9Kh_PhSR1CnpeF8Th7dwKQI7YrlXSqju0SmC09TnGpEd_aTfOfPIeKACN3YxBTwjnfUK7SyHpScm61y7JylUx7pFEk6sia-daATrXrU4HsSIl4gmar4lG-fezOrlp0BHD0TCY5xnoGEjleH3g52s89bxj6ay0VGpTau40U2GUcrsmuIVNSEXHmqKtXtd4fFLWa9ec8-BcwyUJ3hSklTUDkWtSng9YCH8Upo8oNKqw6Nnv1rgSFU75CLOUqa1ygBjUAPBaKTXK7TQCkT9EXsIzYPs4gvqU86GaAYynRm3RLjvknSsdxPyGidY4zmh-g4F46_gDEZMG24ENaUGGon9tQfOEZLst2toQM1gnDh0x_ZpRj0aB0-Af2XISHObhUJWxYaFjPhuWFy9JMG7d94K80EhBkSxdKlrWtjIFnwrVjHpI5wcufM3snsfNFBWNuX2azZKNAkKJ29Afzz9tltaeI0NvfSmS_IvHPww", "width": 4608}], "place_id": "ChIJDSA3Sm0SQg0R0HBMVkeZj54", "plus_code": {"compound_code": "4G24+RQ Villaconejos, Spain", "global_code": "8CGR4G24+RQ"}, "rating": 4.6, "reference": "ChIJDSA3Sm0SQg0R0HBMVkeZj54", "scope": "GOOGLE", "types": ["car_repair", "point_of_interest", "establishment"], "user_ratings_total": 67, "vicinity": "Camino de la cooperativa, 6, Villaconejos"}, {"business_status": "OPERATIONAL", "geometry": {"location": {"lat": 40.1035474, "lng": -3.4880594}, "viewport": {"northeast": {"lat": 40.10490138029149, "lng": -3.486710969708498}, "southwest": {"lat": 40.10220341970849, "lng": -3.489408930291502}}}, "icon": "https://maps.gstatic.com/mapfiles/place_api/icons/v1/png_71/generic_business-71.png", "icon_background_color": "#7B9EB0", "icon_mask_base_uri": "https://maps.gstatic.com/mapfiles/place_api/icons/v2/generic_pinlet", "international_phone_number": "+34 918 93 80 65", "name": "Proyectos Y Construcciones Mecano SL", "opening_hours": {"open_now": false}, "photos": [{"height": 700, "html_attributions": ["<a href=\"https://maps.google.com/maps/contrib/108504988305155958129\">Proyectos Y Construcciones Mecano SL</a>"], "photo_reference": "AWn5SU6h-kEaaIQF-hZ5x-bJTFafkOi7l2ymblgv2X6buf6HIJikECjxuf6L6ZovrXw8I-bUXu-bnK_eyXv7TXZfdK13FYkbqCx0mMphE81iOzjBnc3x0uGAE8EIF8QHaYUYavtoEHUUpRqH99tNNvyFJMacGdpq4CQIBD4ASntNRCOpEaivzgdgbNtGR2QsYit4HPAWukKkBn-zqCr1a7aCqzmmIEm7HPI9aEKvR_OJTLV8vNW9NpPiRTYNEoPipEwoQSXXaBUSPjaDuwuncjt2qJt2U0rk506sj4J6oC2mdAawBd-gtj3hyP4xwdg7ywsxkeAkU6ao", "width": 1800}], "place_id": "ChIJgdSMPRASQg0R74SYcUeclpc", "plus_code": {"compound_code": "4G36+CQ Villaconejos, Spain", "global_code": "8CGR4G36+CQ"}, "rating": 3.9, "reference": "ChIJgdSMPRASQg0R74SYcUeclpc", "scope": "GOOGLE", "types": ["general_contractor", "point_of_interest", "establishment"], "user_ratings_total": 16, "vicinity": "C arretera 28360, Calle Aranjuez, 14, Villaconejos"}, {"business_status": "OPERATIONAL", "geometry": {"location": {"lat": 40.104065, "lng": -3.4860276}, "viewport": {"northeast": {"lat": 40.1054186302915, "lng": -3.484678019708498}, "southwest": {"lat": 40.1027206697085, "lng": -3.487375980291502}}}, "icon": "https://maps.gstatic.com/mapfiles/place_api/icons/v1/png_71/generic_business-71.png", "icon_background_color": "#7B9EB0", "icon_mask_base_uri": "https://maps.gstatic.com/mapfiles/place_api/icons/v2/generic_pinlet", "international_phone_number": "+34 620 39 55 38", "name": "Tecnicos reunidos", "place_id": "ChIJ0Y9m7hESQg0RIcVa676oOUo", "plus_code": {"compound_code": "4G37+JH Villaconejos, Spain", "global_code": "8CGR4G37+JH"}, "reference": "ChIJ0Y9m7hESQg0RIcVa676oOUo", "scope": "GOOGLE", "types": ["point_of_interest", "establishment"], "vicinity": "Calle Iglesia, Villaconejos"}, {"business_status": "OPERATIONAL", "geometry": {"location": {"lat": 40.1041339, "lng": -3.483228999999999}, "viewport": {"northeast": {"lat": 40.10548103029149, "lng": -3.481880469708498}, "southwest": {"lat": 40.10278306970849, "lng": -3.484578430291501}}}, "icon": "https://maps.gstatic.com/mapfiles/place_api/icons/v1/png_71/generic_business-71.png", "icon_background_color": "#7B9EB0", "icon_mask_base_uri": "https://maps.gstatic.com/mapfiles/place_api/icons/v2/generic_pinlet", "name": "Agrupacion Socialista de Villaconejos", "opening_hours": {"open_now": false}, "place_id": "ChIJ7f2iZRISQg0RzZx3e4GW1fI", "plus_code": {"compound_code": "4G38+MP Villaconejos, Spain", "global_code": "8CGR4G38+MP"}, "reference": "ChIJ7f2iZRISQg0RzZx3e4GW1fI", "scope": "GOOGLE", "types": ["point_of_interest", "establishment"], "vicinity": "Calle Guindalera, 16, Villaconejos"}, {"business_status": "OPERATIONAL", "geometry": {"location": {"lat": 40.10314750000001, "lng": -3.4857561}, "viewport": {"northeast": {"lat": 40.1044785802915, "lng": -3.484398019708498}, "southwest": {"lat": 40.1017806197085, "lng": -3.487095980291502}}}, "icon": "https://maps.gstatic.com/mapfiles/place_api/icons/v1/png_71/generic_business-71.png", "icon_background_color": "#7B9EB0", "icon_mask_base_uri": "https://maps.gstatic.com/mapfiles/place_api/icons/v2/generic_pinlet", "international_phone_number": "+34 918 93 82 71", "name": "MONTAJES ELECTRICOS VELAZQUEZ ALVAREZ", "place_id": "ChIJuzG5Ag4SQg0RR9cydSriXV4", "plus_code": {"compound_code": "4G37+7M Villaconejos, Spain", "global_code": "8CGR4G37+7M"}, "reference": "ChIJuzG5Ag4SQg0RR9cydSriXV4", "scope": "GOOGLE", "types": ["electrician", "point_of_interest", "establishment"], "vicinity": "Calle Soledad, 48, Villaconejos"}, {"business_status": "OPERATIONAL", "geometry": {"location": {"lat": 40.10385369999999, "lng": -3.4875607}, "viewport": {"northeast": {"lat": 40.1051828302915, "lng": -3.486172719708498}, "southwest": {"lat": 40.1024848697085, "lng": -3.488870680291502}}}, "icon": "https://maps.gstatic.com/mapfiles/place_api/icons/v1/png_71/shopping-71.png", "icon_background_color": "#4B96F3", "icon_mask_base_uri": "https://maps.gstatic.com/mapfiles/place_api/icons/v2/shoppingcart_pinlet", "international_phone_number": "+34 912 17 04 53", "name": "Supermercados Dia", "opening_hours": {"open_now": false}, "photos": [{"height": 1536, "html_attributions": ["<a href=\"https://maps.google.com/maps/contrib/102397852127802262337\">Supermercados Dia</a>"], "photo_reference": "AWn5SU7kGor5ia2pNAaeUFaR6Yo8EEbxP6wOVKJDjY47Re_XGBgS7If5oaXa-AjNrF6dY7VTOpB8twpFJatm79aLYBHC0_C0kfUH3-XMKFzknyc7q_ClzmnDuaQ5na8itvC-sr96z0ieuJvR6uUwMOrq6prku3sOhASTHrN_OKdLuq6fOZTqEMJBGyGlvs2DBaiN7p00sT42XGvad7FD2QHwrwGkqjBK25tN30oMLdegyMuZAUtKu0z3v81RJw3tB3jRBRMFyoESHOoy0EbU9ZFy1PRi6eajBmZsQ_nPNNJxDcBcanFykchCAPC0hHrRb2A0_p4pX4IsMus", "width": 2048}], "place_id": "ChIJ6ft3zRESQg0RdHPTAs_A4bw", "plus_code": {"compound_code": "4G36+GX Villaconejos, Spain", "global_code": "8CGR4G36+GX"}, "rating": 3.7, "reference": "ChIJ6ft3zRESQg0RdHPTAs_A4bw", "scope": "GOOGLE", "types": ["supermarket", "bakery", "grocery_or_supermarket", "store", "point_of_interest", "food", "establishment"], "user_ratings_total": 296, "vicinity": "Calle Carrretera Aranjuez, 6, Villaconejos"}, {"business_status": "OPERATIONAL", "geometry": {"location": {"lat": 40.10529549999999, "lng": -3.4822127}, "viewport": {"northeast": {"lat": 40.1067205302915, "lng": -3.480979219708499}, "southwest": {"lat": 40.1040225697085, "lng": -3.483677180291502}}}, "icon": "https://maps.gstatic.com/mapfiles/place_api/icons/v1/png_71/generic_business-71.png", "icon_background_color": "#7B9EB0", "icon_mask_base_uri": "https://maps.gstatic.com/mapfiles/place_api/icons/v2/generic_pinlet", "international_phone_number": "+34 918 93 89 05", "name": "Centro Cultural Santa Ana", "photos": [{"height": 4000, "html_attributions": ["<a href=\"https://maps.google.com/maps/contrib/109147106909162874219\">Lola Hm</a>"], "photo_reference": "AWn5SU5To9-QmzBNNN2N4BPNc1TyBmA0i6gw_YvrCj24vR95JhCkDWK5zcgi2QC-Xyc662mkOq13IFw802yzb2fA8v9-rz1qSsudRNe_3qJtCR9UI_JxeYuB-sgyk0KNTJ5r0eo-4k3QuG4tyhNdYBwH0c4QpUmcAlMW1BRzDqbO1t0FFw-MDrmMYoU4kCVZiGBGJZEKZX_TDpuxJxbi0a7dCz_M2cGOpsz6W5tgFCyvdgmh5Ad8Xkm7eUeAoACQepaFOeaAVSTcy9xu3AkKKUFrwXMsq6aWPHHdpxqtHCq5HlaBn0YBgLiF5H8HbDUxvqW8EdsCr0NCL1bWyn70fMZXSwmvJmzNjZZtZv1c-_mMU4iLEBuGm3YM6hp2F8j1at6Q-Y17Hc-z1O4iqbF55TeoGq9eCpd6uQ2k1rrti6clrFznbiWPRsvwbHNNfg5jTHyFwfDJAbidrZdkcXZ8S-PV00TgA_0t8qx5HWdmDJi7kjrGwNQG3Dt6ayj_y8kjB-IUmrTrTUm_JmHwhT9BW9h0-kTgTSBCKMtVzz3xgErV7nCLmpym7E5sGRdq8nHfzAdhjz_2TN8aqsj9qSBZ8_hOLmCEG74qEXwgbHlwhjDrgf7xuZrktfrjnZcYUj_Oj1q3", "width": 3000}], "place_id": "ChIJCQUJWRISQg0R6ncMHttOksE", "plus_code": {"compound_code": "4G49+44 Villaconejos, Spain", "global_code": "8CGR4G49+44"}, "rating": 3.7, "reference": "ChIJCQUJWRISQg0R6ncMHttOksE", "scope": "GOOGLE", "types": ["point_of_interest", "establishment"], "user_ratings_total": 27, "vicinity": "Carretera de Chinchon, 58, Villaconejos"}, {"business_status": "OPERATIONAL", "geometry": {"location": {"lat": 40.1025695, "lng": -3.4885969}, "viewport": {"northeast": {"lat": 40.1039522302915, "lng": -3.487321869708498}, "southwest": {"lat": 40.1012542697085, "lng": -3.490019830291502}}}, "icon": "https://maps.gstatic.com/mapfiles/place_api/icons/v1/png_71/generic_business-71.png", "icon_background_color": "#7B9EB0", "icon_mask_base_uri": "https://maps.gstatic.com/mapfiles/place_api/icons/v2/generic_pinlet", "international_phone_number": "+34 918 93 87 09", "name": "Talleres Quinientos", "opening_hours": {"open_now": false}, "photos": [{"height": 747, "html_attributions": ["<a href=\"https://maps.google.com/maps/contrib/108743629840992357131\">TALLERES QUINIENTOS</a>"], "photo_reference": "AWn5SU6ELOmBuCFMNCYQMJVlSnVPenu8TjJQtlJzmP7-Dkwb_DvROl9C1VmvtwoDZJ8D01bveddX-H3D_CMIBHvU8BEnMCi0FKbj-DImvy3ayuEIZXgEs7_iVAtCfLI0dghaxz1NVrPgqVN5waDiJsbPmgdJUswkudS_9Je2HzjtiuXEmaFYmKRs076xApTUDJEVoZU0sTL9R_OE1gcs7nuiULHsy_yputeQPkbM92MKrR80o0sHqkkqyarOncoXJT69ZE7Vg_nCmS4r0nMCI8jHHA_qUavl9n0BOcE3i8HiV2hIdrbf5qzRH1MlkRHCPTPpdAZeS2yM", "width": 1328}], "place_id": "ChIJz2BWbQ4SQg0RMrdDv_EQN-c", "plus_code": {"compound_code": "4G36+2H Villaconejos, Spain", "global_code": "8CGR4G36+2H"}, "rating": 4.6, "reference": "ChIJz2BWbQ4SQg0RMrdDv_EQN-c", "scope": "GOOGLE", "types": ["car_repair", "point_of_interest", "establishment"], "user_ratings_total": 187, "vicinity": "Calle Carrretera Aranjuez, 15, Villaconejos"}, {"business_status": "OPERATIONAL", "geometry": {"location": {"lat": 40.1017775, "lng": -3.4885444}, "viewport": {"northeast": {"lat": 40.1031501302915, "lng": -3.487294369708498}, "southwest": {"lat": 40.1004521697085, "lng": -3.489992330291502}}}, "icon": "https://maps.gstatic.com/mapfiles/place_api/icons/v1/png_71/shopping-71.png", "icon_background_color": "#4B96F3", "icon_mask_base_uri": "https://maps.gstatic.com/mapfiles/place_api/icons/v2/shopping_pinlet", "name": "Frutas y verduras Marisa S.L.", "opening_hours": {"open_now": false}, "photos": [{"height": 3472, "html_attributions": ["<a href=\"https://maps.google.com/maps/contrib/117221443389706524082\">José Luis Zamora Pineda</a>"], "photo_reference": "AWn5SU5AQ4ewvd4QXgLH89yNmkEAdaWxUlb-N5mzJqwV8tgKpZdRlorHMLyapYqgZ5LI-7Nd46dDIPfi0E4XFp8_9P8jyFX5R2017e-NCXsk35fmqB7L5iJ2qJi14OJyCInBrhyz9sHIZ0rHRJMNBCdeUbKktqlDyto7TT8mScvOSxdDF-B-RyUDpslGnOcu8wkA4E1OrA2SrcMHEXdWxLkJ1JyVfUaBeSMSkTKSJ3h1whWyaawH-v7t4Xe7_TqxNMYRt-dUUgecJIBAMZ3nnPGeApex16vuBYnbPjjMm2Gjo3985u3cRwLsxOlYvouF1c4p8BUC0E-2t9h-EF8LU3Gq6Di67JFRJlALlZxjcTBI4aIudXjsQcztTUBfGnbsbqzNnv7e1rVNT_SfCs4xM7v9pnbLRHKcyplzNPfwaPfyl94C1nStr_DuWBl5OayLIYyUyrVZ2TK4Pjfi_TbIA3C0ALFAiX4q8x1w5qEaTwCQSZ16EdCB_TieprWQp77JllByQNuAH2QeK2YiF-auWxQMdHf5yz9sTdeBIxoQX5XydUcurvJTUX7qjLRuS_qPUGGpLi3Z9gaz5kjr_9qGtoTZuJC4p2-rrJ6C6qI4RxmZ5-D7KpnL3_hTBP1XKOQkJbfN_igvl7rt", "width": 4624}], "place_id": "ChIJ1csWvw8SQg0RW-zR9-Og-uk", "plus_code": {"compound_code": "4G26+PH Villaconejos, Spain", "global_code": "8CGR4G26+PH"}, "rating": 4.5, "reference": "ChIJ1csWvw8SQg0RW-zR9-Og-uk", "scope": "GOOGLE", "types": ["grocery_or_supermarket", "store", "point_of_interest", "food", "establishment"], "user_ratings_total": 624, "vicinity": "Carretera de Villarrubia, 7D, Villaconejos"}, {"business_status": "OPERATIONAL", "geometry": {"location": {"lat": 40.10022469999999, "lng": -3.4886468}, "viewport": {"northeast": {"lat": 40.10154043029149, "lng": -3.487231519708498}, "southwest": {"lat": 40.09884246970849, "lng": -3.489929480291502}}}, "icon": "https://maps.gstatic.com/mapfiles/place_api/icons/v1/png_71/school-71.png", "icon_background_color": "#7B9EB0", "icon_mask_base_uri": "https://maps.gstatic.com/mapfiles/place_api/icons/v2/school_pinlet", "international_phone_number": "+34 918 93 83 68", "name": "C.E.I.P. Concepción García Robles", "opening_hours": {"open_now": false}, "place_id": "ChIJe-giEw8SQg0Rx98FufFv1V0", "plus_code": {"compound_code": "4G26+3G Villaconejos, Spain", "global_code": "8CGR4G26+3G"}, "reference": "ChIJe-giEw8SQg0Rx98FufFv1V0", "scope": "GOOGLE", "types": ["primary_school", "school", "point_of_interest", "establishment"], "vicinity": "Calle de los Colegios, 2, Villaconejos"}, {"geometry": {"location": {"lat": 40.0776881, "lng": -3.4934182}, "viewport": {"northeast": {"lat": 40.08670143207154, "lng": -3.481444447077207}, "southwest": {"lat": 40.07264673113546, "lng": -3.503056031553407}}}, "icon": "https://maps.gstatic.com/mapfiles/place_api/icons/v1/png_71/geocode-71.png", "icon_background_color": "#7B9EB0", "icon_mask_base_uri": "https://maps.gstatic.com/mapfiles/place_api/icons/v2/generic_pinlet", "name": "Urtajo", "photos": [{"height": 2105, "html_attributions": ["<a href=\"https://maps.google.com/maps/contrib/117221443389706524082\">José Luis Zamora Pineda</a>"], "photo_reference": "AWn5SU4W4FzSY_nQpXXTuoJGjRqdD9P7e3RailwPhRyCKcuPphJPleARKPmNahT0kA_X9NndKjW50tPfFTEV88A6ibgDL85BUsd_-zoB9b26bgOJZXV0uYuqaETnbV2gHz8wCLPHEZYuO5aIKCiJzGGpGZzLziRGnOV6JBRT6aBXHcd8dMVgZiNKvnAoRzuwX63CvKlt0a3Gb8BuEBQAO2TF60aqxPuDYeU2FcqeFh6eT2-EVqpczHgXY6No1fq87Y3Bo1qWHwBAFvbjWn75SyrJzMNPVWkMcZTaSiSwImJQIXLhq9S2ym1OJiXrHFCBZ_P8pJuWywZFUXtLz2c5mUyT8eDEa2xgQhvty2qyOSRUCR_XzrdNREoU6Tet8qQTupJFoRSbsIAjr9lDzePFMxfIwPADVc6fv4zg3CrV0M1NZ4v4VJjyoJ9FaaGFeiQ7wV8xYe99fQUbJJ9LZhcEGmeHwTuxrsNVzbzNAosgMM01wF8oYbJa1zQTrfsCDekZzAJmJsysph-6ylIvj8wAvPPZtWm31Vk3-jcuFiSM_Rj5XbHmpkd3U8DJsDJRd6OIlgTquYQWrJBSJj-4ULR5GixyMxRrjhWt_pyw1fdyuPyQSnaOPoZjs0i7Igp5UXRqp_S05Bs3Sg", "width": 1440}], "place_id": "ChIJl46t9-QNQg0RzTcssZbk5Bw", "reference": "ChIJl46t9-QNQg0RzTcssZbk5Bw", "scope": "GOOGLE", "types": ["locality", "political"], "vicinity": "Urtajo"}]