[{"geometry": {"location": {"lat": 40.41672790000001, "lng": -3.7032905}, "viewport": {"northeast": {"lat": 40.56384473341083, "lng": -3.524911528167741}, "southwest": {"lat": 40.31206394740597, "lng": -3.834161809872056}}}, "icon": "https://maps.gstatic.com/mapfiles/place_api/icons/v1/png_71/geocode-71.png", "icon_background_color": "#7B9EB0", "icon_mask_base_uri": "https://maps.gstatic.com/mapfiles/place_api/icons/v2/generic_pinlet", "name": "Madrid", "photos": [{"height": 901, "html_attributions": ["<a href=\"https://maps.google.com/maps/contrib/109401663320544944135\">Marina Vega</a>"], "photo_reference": "AWn5SU49zDgLaSZnB35nJOHaA93apaunfnEJSVaaRc3t9NDKLEBtfnl-yC0rFBOtop7lf9kOcSItmD4w0xVEV_o3TPOnajsZIZntikDjGVUbqsrq2nfRTf5aW-6aoBk-H7k0_TN8Snz8NqTE3Wi5KXCgEvpo7axzsEXlxmX1lBeNPR0W-kE-pWcIBlOQf4caNbz4wP1Z0WgoN8hPOtJNXO2l5w0lKu9zMinTfenKULFY4GjWlQGCGK37D8ibfLyE0ZalVQ-AuasmQYKYpipxTQRxydMpe03spzFo0Rl-6Vs7_uXiQOAfu5apPywzTJPELRn3Ihhj33HLy2_3_HjFWhc85HKnlc8OMyUnemq4gf1HYAf5lX7phpcX51MoMKaB6GFiJ-f0gcKQejQYUZEK67NnSAsnDpO8v-nwS7lu-VIM_BCyh7K5gOcXJSiH-fxUX3VXyOxSi1FzJ3mxfQWTip0-FChUgFOSlrpaW_FtyAVE5Ae4X2IWQraGfnpW0F4Br-mEVlDOFk7M96GTK6SnSS5utTGNcVjctx31MmzGFlSPBACDwZGTzGdvCmt2sbBF_F3CH-IKHdo5cPOz7KfnbeevMKU3mlk2igqIq93zvJqM-N3nKmAXib1QWlIdsLMcDZA7i2kk1w", "width": 720}], "place_id": "ChIJgTwKgJcpQg0RaSKMYcHeNsQ", "reference": "ChIJgTwKgJcpQg0RaSKMYcHeNsQ", "scope": "GOOGLE", "types": ["locality", "political"], "vicinity": "Madrid"}, {"business_status": "OPERATIONAL", "geometry": {"location": {"lat": 40.448466, "lng": -3.5586235}, "viewport": {"northeast": {"lat": 40.4501588, "lng": -3.55687105}, "southwest": {"lat": 40.446428, "lng": -3.560295249999999}}}, "icon": "https://maps.gstatic.com/mapfiles/place_api/icons/v1/png_71/lodging-71.png", "icon_background_color": "#909CE1", "icon_mask_base_uri": "https://maps.gstatic.com/mapfiles/place_api/icons/v2/hotel_pinlet", "international_phone_number": "+34 914 00 44 00", "name": "Madrid Marriott Auditorium", "photos": [{"height": 320, "html_attributions": ["<a href=\"https://maps.google.com/maps/contrib/103440262629063428186\">Madrid Marriott Auditorium Hotel &amp; Conference Center</a>"], "photo_reference": "AWn5SU52iS9o1CE8YGXNqPJ3kUCkDsTvzxKeEsMK0NqSEPP1pTabodEVCnb5gxYCTnQBwN-fD2I9FqJhy1Bn0aLJMf_HZO-qEhhOp7KF6toEOlHBFc8UOpPQu3Fwv0KHKN2umRbga2DTj9w8y_EDXv3x2XZ3a1C0cRkOs8rWd6ewm3tb57t7OVmK03lEihVCo1XLPTKV6c0E7564iUxVVzUTsOj23Z0cKNgRDod7B4RmG-JxYK1atR7uDiAXamTi6hc6OqmPh79-5kygjK-XTXj-GHGEw778tNHwGRKz3UQKpMh_EfVe0ZZDtEx2iFSyTzwZFKBAdQ6KjoU", "width": 480}], "place_id": "ChIJvd9I80gwQg0RzIMlLyNZ-mg", "plus_code": {"compound_code": "CCXR+9H Madrid, Spain", "global_code": "8CGRCCXR+9H"}, "rating": 4.5, "reference": "ChIJvd9I80gwQg0RzIMlLyNZ-mg", "scope": "GOOGLE", "types": ["lodging", "point_of_interest", "establishment"], "user_ratings_total": 10778, "vicinity": "Avenida de Aragón, 400, Madrid"}, {"business_status": "OPERATIONAL", "geometry": {"location": {"lat": 40.4473487, "lng": -3.543055499999999}, "viewport": {"northeast": {"lat": 40.44866193029149, "lng": -3.541521369708498}, "southwest": {"lat": 40.44596396970849, "lng": -3.544219330291502}}}, "icon": "https://maps.gstatic.com/mapfiles/place_api/icons/v1/png_71/lodging-71.png", "icon_background_color": "#909CE1", "icon_mask_base_uri": "https://maps.gstatic.com/mapfiles/place_api/icons/v2/hotel_pinlet", "international_phone_number": "+34 917 48 16 57", "name": "B&B HOTEL Madrid Aeropuerto T1 T2 T3", "opening_hours": {"open_now": true}, "photos": [{"height": 720, "html_attributions": ["<a href=\"https://maps.google.com/maps/contrib/103453785776398494018\">B&amp;B HOTEL Madrid Aeropuerto T1 T2 T3</a>"], "photo_reference": "AWn5SU5D5NlMWz_uYfRjDBAruouMVdP711eFA9iO24WtO6sIr1Jtdh2ZFDDQmd-xcv6wEZbrhxojDn5fSyrSbyhQvUBIoXUK4yEU0baly_hLZAbqY2nbsrMAw6--xDfVJIs60KaM6W6tFXaPuCFsLBALkhvJ8hiWJTOpMpHWAUq1635W3ZhlCBIdxzBRtUCcEC08560oLzOk4hy2PuX1dJMwzW279UZmO-NC51banv851aSfgaNHZBBBYkq01HvzWfOQP3K3HniGZ4rmFCQDu50tAbPDQ8oVqhUQhEe9iV5iXGjUk21jMLeSd_riGdPBC5d3npqgCcPpVZA", "width": 720}], "place_id": "ChIJR3vVZkgwQg0Rx88eEVCxEMQ", "plus_code": {"compound_code": "CFW4+WQ Madrid, Spain", "global_code": "8CGRCFW4+WQ"}, "rating": 3.9, "reference": "ChIJR3vVZkgwQg0Rx88eEVCxEMQ", "scope": "GOOGLE", "types": ["lodging", "point_of_interest", "establishment"], "user_ratings_total": 3637, "vicinity": "Calle de Lola Flores, 2, Madrid"}, {"business_status": "OPERATIONAL", "geometry": {"location": {"lat": 40.44504749999999, "lng": -3.5403166}, "viewport": {"northeast": {"lat": 40.4463938302915, "lng": -3.539247119708498}, "southwest": {"lat": 40.4436958697085, "lng": -3.541945080291502}}}, "icon": "https://maps.gstatic.com/mapfiles/place_api/icons/v1/png_71/lodging-71.png", "icon_background_color": "#909CE1", "icon_mask_base_uri": "https://maps.gstatic.com/mapfiles/place_api/icons/v2/hotel_pinlet", "international_phone_number": "+34 917 46 27 30", "name": "AC Hotel Madrid Airport", "photos": [{"height": 320, "html_attributions": ["<a href=\"https://maps.google.com/maps/contrib/107552926797440256319\">AC Hotel Madrid Airport</a>"], "photo_reference": "AWn5SU7KGg_nHZp4bs9vsrGwk--DbSQGlXJUtakypmF6dckQHvzDzRRUKlymPSC9W1EG5gF4qqU_zlT6u05SxcU1su8e45jnXIAJppQhUYmqcRzHkqsNF0SfspPVz02linzO62GETQsCMhKftC-6O9gtg0Hte0081xP5-NZ6Gbqg5UwSlOFWdBijmCG2O4Zw82v8_H0dCJDOyVwsfs5ACJD_FceXRk3FPIftBcKR5Oj00dXeWTs1MN93WwlxIhL114lcJIIIwhY5FPJD5ngA5ZOFHmAnnn_-UqVJSpkD6Dl5AW9pnYFtKTfXFSUUtrd4FIvgk4CTt1J_Y2Y", "width": 480}], "place_id": "ChIJCZ2yIPYwQg0RDUtj3dfChT4", "plus_code": {"compound_code": "CFW5+2V Madrid, Spain", "global_code": "8CGRCFW5+2V"}, "rating": 4, "reference": "ChIJCZ2yIPYwQg0RDUtj3dfChT4", "scope": "GOOGLE", "types": ["lodging", "point_of_interest", "establishment"], "user_ratings_total": 1356, "vicinity": "Camino de las Rejas, 5, Madrid"}, {"business_status": "OPERATIONAL", "geometry": {"location": {"lat": 40.4519096, "lng": -3.585786799999999}, "viewport": {"northeast": {"lat": 40.45326353029149, "lng": -3.584494569708498}, "southwest": {"lat": 40.45056556970849, "lng": -3.587192530291502}}}, "icon": "https://maps.gstatic.com/mapfiles/place_api/icons/v1/png_71/lodging-71.png", "icon_background_color": "#909CE1", "icon_mask_base_uri": "https://maps.gstatic.com/mapfiles/place_api/icons/v2/hotel_pinlet", "international_phone_number": "+34 911 53 40 00", "name": "Hilton Madrid Airport", "photos": [{"height": 1816, "html_attributions": ["<a href=\"https://maps.google.com/maps/contrib/108319688655601511795\">Hilton Madrid Airport</a>"], "photo_reference": "AWn5SU5-PDgrFfyYR84GUy12LHpWYz0GSnFKbgACOocohuY7eWZOLuoPF2az3zNFKZHjzRo9O93d7y7RbWYUga9jBH-I6HfzLKDBc5MoqqP22mjXcyodDYAXLxfj2tZSORIhzj6Jue5Ve6SCljfqU2cGnHu-6LTa5GYlPeWbAVypOe0N_AW2g6hBEurfXZyASqoSM7-sU5Yzj2sWaOZ5JMUulJR00FoyRomXWXZ2tQybp_IlJh2fEvb3AIkbzX0FJYCwB9kiP5CJBx2WdGAaA4m5Nvyem9wubtCv1oApQAyZanrMXbvh49XT-hjDhFMXOnVLobRq5DBpysc", "width": 2500}], "place_id": "ChIJ7wTiHNQvQg0RiZSoeh4MkYk", "plus_code": {"compound_code": "FC27+QM Madrid, Spain", "global_code": "8CGRFC27+QM"}, "rating": 4.4, "reference": "ChIJ7wTiHNQvQg0RiZSoeh4MkYk", "scope": "GOOGLE", "types": ["lodging", "point_of_interest", "establishment"], "user_ratings_total": 3741, "vicinity": "Avenida de la Hispanidad, 2, 4, Madrid"}, {"business_status": "OPERATIONAL", "geometry": {"location": {"lat": 40.4516071, "lng": -3.593128499999999}, "viewport": {"northeast": {"lat": 40.4528907302915, "lng": -3.591991569708498}, "southwest": {"lat": 40.4501927697085, "lng": -3.594689530291503}}}, "icon": "https://maps.gstatic.com/mapfiles/place_api/icons/v1/png_71/lodging-71.png", "icon_background_color": "#909CE1", "icon_mask_base_uri": "https://maps.gstatic.com/mapfiles/place_api/icons/v2/hotel_pinlet", "international_phone_number": "+34 911 96 92 00", "name": "Hotel Maydrit", "opening_hours": {"open_now": true}, "photos": [{"height": 983, "html_attributions": ["<a href=\"https://maps.google.com/maps/contrib/117631165152144633672\">Hotel Maydrit</a>"], "photo_reference": "AWn5SU7d_ZxNml28_GGkNkEl5McjcGJC7gBmYlZXsF48Gdeu5nSbykkybWsOYgEBlPo7W-9_NwU2GUjngDklQqC35mrxqpyAXWhV7AVT-W2mlr4NgN3wiYRukOUmngXcH3zXJ_Y50mQpKi6zSsOiZU8CIoVC_jVSNFsCIS4jq8NlUEAxoFtLklmVNqZ_LNpwA7lJrlJi9IIGkTF2RVqpvs-lmC7uEwiUNf-plIAAjjPEVT2TaekD-qml1xnHZWHK6pocAR6Izt5mKuSG4YXjaFTCsz3uwqBlGSYeGIOpPHD0mPAH70w-bjYYhWe_l1pD-Gri0iMieKSIgoM", "width": 1600}], "place_id": "ChIJ5UC0cc4vQg0R6cptSiKCaYQ", "plus_code": {"compound_code": "FC24+JP Madrid, Spain", "global_code": "8CGRFC24+JP"}, "rating": 4.4, "reference": "ChIJ5UC0cc4vQg0R6cptSiKCaYQ", "scope": "GOOGLE", "types": ["lodging", "point_of_interest", "establishment"], "user_ratings_total": 3521, "vicinity": "Calle Piragua, 1, Madrid"}, {"business_status": "OPERATIONAL", "geometry": {"location": {"lat": 40.4432042, "lng": -3.583397700000001}, "viewport": {"northeast": {"lat": 40.44447193029149, "lng": -3.581914669708499}, "southwest": {"lat": 40.44177396970849, "lng": -3.584612630291503}}}, "icon": "https://maps.gstatic.com/mapfiles/place_api/icons/v1/png_71/bar-71.png", "icon_background_color": "#FF9E67", "icon_mask_base_uri": "https://maps.gstatic.com/mapfiles/place_api/icons/v2/bar_pinlet", "international_phone_number": "+34 913 29 49 95", "name": "The Clover House", "opening_hours": {"open_now": false}, "photos": [{"height": 768, "html_attributions": ["<a href=\"https://maps.google.com/maps/contrib/116217536597024691417\">The Clover House</a>"], "photo_reference": "AWn5SU6Bd7_D1fY6T2zD9jJAdWg-TS6sOcaaGxDmCPr_-BdvLqAPuG41EdBrtZrpyJRbjnWXL5v5S1zh2BuOoKSOWqziQpdY-S6AvEoOLnBpQiCQiH_3s3rxE_3ICOPvk9GdtNdmiRGOYaYDVAyu3TO1iXS7L26mSskTpyoO-xqr5u6tZXI9ZfmQEPXXK6U_yr9NDZf2MweZWHL-43O9wVZCYnGcSVm0YZYaNyJLvA3EA2EtbJfvqm80udaimWlXcbZwOaVeJm5M3UTBqtKCX9KwugeH2AWpTHgWPnUmjXMnNDwg8Y8zUOY7vGSdQ0spx_Ge4KSJ26SMuvA", "width": 1024}], "place_id": "ChIJIWEqw9gvQg0RbcYKxgrHJms", "plus_code": {"compound_code": "CCV8+7J Madrid, Spain", "global_code": "8CGRCCV8+7J"}, "price_level": 2, "rating": 4.1, "reference": "ChIJIWEqw9gvQg0RbcYKxgrHJms", "scope": "GOOGLE", "types": ["meal_delivery", "bar", "restaurant", "point_of_interest", "food", "establishment"], "user_ratings_total": 1730, "vicinity": "Calle de Campezo, 14, Madrid"}, {"business_status": "OPERATIONAL", "geometry": {"location": {"lat": 40.469173, "lng": -3.580029}, "viewport": {"northeast": {"lat": 40.47048118029149, "lng": -3.578865469708498}, "southwest": {"lat": 40.46778321970849, "lng": -3.581563430291502}}}, "icon": "https://maps.gstatic.com/mapfiles/place_api/icons/v1/png_71/lodging-71.png", "icon_background_color": "#909CE1", "icon_mask_base_uri": "https://maps.gstatic.com/mapfiles/place_api/icons/v2/hotel_pinlet", "international_phone_number": "+34 917 47 48 00", "name": "Hotel Madrid Alameda Aeropuerto Affiliated by Meliá", "photos": [{"height": 2294, "html_attributions": ["<a href=\"https://maps.google.com/maps/contrib/102135490942130589251\">Hotel Madrid Alameda Aeropuerto Affiliated by Meliá</a>"], "photo_reference": "AWn5SU4O1Qsrgk66T-8PPuX7Lo7uwrb3BwQsSt-3qoK2MycMTFV-z8frAUsVSB4O6hH7iSY1yR3QwGo82_lFPnPF1nnPTXok3_qRkH-y8qLiVJXZANUXIyK2L7bRzfSquuYjEiW5Ij2IhTrAatrIwWFfI27SXGT1oMo_eq-SFagGkM3No-hjl5EjT1RzB9AB34mG-QKb1tpLrJhcRuuUWiDpiB6QowzOkgvn8H6hBmGjevzyL6pX8F02PCcftbPsM8vKtDmIfABEWpDqPkZ6Y-bwLwYUnXCdOOy9Tgp7nsQ9hgzKcZCGgaw5xYE7-TLns7cOB1f3UbuC8IE", "width": 3000}], "place_id": "ChIJQ1di9CcuQg0R1Ubg-4N6DUo", "plus_code": {"compound_code": "FC99+MX Madrid, Spain", "global_code": "8CGRFC99+MX"}, "rating": 4.1, "reference": "ChIJQ1di9CcuQg0R1Ubg-4N6DUo", "scope": "GOOGLE", "types": ["lodging", "point_of_interest", "establishment"], "user_ratings_total": 3502, "vicinity": "Avenida de Logroño, 100, Madrid"}, {"business_status": "OPERATIONAL", "geometry": {"location": {"lat": 40.45564419999999, "lng": -3.4792915}, "viewport": {"northeast": {"lat": 40.4570557802915, "lng": -3.477948669708498}, "southwest": {"lat": 40.4543578197085, "lng": -3.480646630291502}}}, "icon": "https://maps.gstatic.com/mapfiles/place_api/icons/v1/png_71/lodging-71.png", "icon_background_color": "#909CE1", "icon_mask_base_uri": "https://maps.gstatic.com/mapfiles/place_api/icons/v2/hotel_pinlet", "international_phone_number": "+34 916 77 06 49", "name": "Hotel Asset Torrejón", "opening_hours": {"open_now": true}, "photos": [{"height": 1000, "html_attributions": ["<a href=\"https://maps.google.com/maps/contrib/106230869122733421218\">Hotel Asset Torrejón</a>"], "photo_reference": "AWn5SU7E4F2PIzwurnY0U0tvaxc3s2_pmHaR-g63RYiBbroEOZ-u4rwlc6b6UcfkNQVojQLXKWgJCaJx1WXejbyRXOlAt8WmIC-AjTJooPV-4jSk301qSOnTczC41iwT_zfgjQ5nnQy3UPXgIw2nDHkygki23rLxDfzmKQUVJuzydb8363Y4Djq9aqr-B31rQY_Jzmol_Uc4ZEu8U__oQBkddkrP-9hdEhVNhuHUscKwi0j67jCbYB5ExjgBzLJIEmGpilu16_bhe7tOBDZ4cpt-E3jXOuJGH7JvdzJeJMc4IGMMYjasVTvNAf7tWZgwVMUn4O1xQq0CcXQ", "width": 1500}], "place_id": "ChIJx0WwUR83Qg0R91LnXd3OO54", "plus_code": {"compound_code": "FG4C+77 Torrejón de Ardoz, Spain", "global_code": "8CGRFG4C+77"}, "rating": 4.1, "reference": "ChIJx0WwUR83Qg0R91LnXd3OO54", "scope": "GOOGLE", "types": ["lodging", "point_of_interest", "establishment"], "user_ratings_total": 2010, "vicinity": "Avenida de la Constitución, 32, Torrejón de Ardoz"}, {"business_status": "OPERATIONAL", "geometry": {"location": {"lat": 40.451123, "lng": -3.594617}, "viewport": {"northeast": {"lat": 40.4524414302915, "lng": -3.593267469708498}, "southwest": {"lat": 40.4497434697085, "lng": -3.595965430291503}}}, "icon": "https://maps.gstatic.com/mapfiles/place_api/icons/v1/png_71/lodging-71.png", "icon_background_color": "#909CE1", "icon_mask_base_uri": "https://maps.gstatic.com/mapfiles/place_api/icons/v2/hotel_pinlet", "international_phone_number": "+34 917 42 02 00", "name": "Hotel NH Madrid Barajas Airport", "opening_hours": {"open_now": true}, "photos": [{"height": 834, "html_attributions": ["<a href=\"https://maps.google.com/maps/contrib/104460324217217320790\">Hotel NH Madrid Barajas Airport</a>"], "photo_reference": "AWn5SU5hqZbSY2bpC01BERcXcCQ_YT6sMI1EzYb9DA6xWKNhK4b209vAfY8REye0dLwSx79pspuxe364SnPGtmhSZQCl3phE3UGkcKkrze99eu666F2NrTE6On_Pw_JOgooQaXttlFHodFicCKBsRuTUwM1ioH5mwgYo23Kjy2eZ-bizov3dZssUlkeAWmUvd9OiW4-bgNPlOvuP0-oQbw9uZz3lm_Yh31KFKl282WQh2HOcSDnkyL0Ojza5rRMhRzcuO6taxt_sDzesSqEa3BHC7Ywt6WSRsLPyHRl2mSeqb5Q-8FileRlvdpcsWpQg4u363rM5fpnITx0", "width": 1250}], "place_id": "ChIJlRiMkc4vQg0RGJE4WhNn-eM", "plus_code": {"compound_code": "FC24+C5 Madrid, Spain", "global_code": "8CGRFC24+C5"}, "rating": 4.2, "reference": "ChIJlRiMkc4vQg0RGJE4WhNn-eM", "scope": "GOOGLE", "types": ["lodging", "point_of_interest", "establishment"], "user_ratings_total": 4226, "vicinity": "Calle Catamarán, 1, Madrid"}, {"business_status": "OPERATIONAL", "geometry": {"location": {"lat": 40.469834, "lng": -3.5806384}, "viewport": {"northeast": {"lat": 40.4712302802915, "lng": -3.579408619708498}, "southwest": {"lat": 40.4685323197085, "lng": -3.582106580291502}}}, "icon": "https://maps.gstatic.com/mapfiles/place_api/icons/v1/png_71/lodging-71.png", "icon_background_color": "#909CE1", "icon_mask_base_uri": "https://maps.gstatic.com/mapfiles/place_api/icons/v2/hotel_pinlet", "international_phone_number": "+34 913 01 09 99", "name": "ibis Madrid Aeropuerto Barajas", "photos": [{"height": 2412, "html_attributions": ["<a href=\"https://maps.google.com/maps/contrib/117275063314226459931\">ibis Madrid Aeropuerto Barajas</a>"], "photo_reference": "AWn5SU5mP5kUB2tv_Pw-jFMP_uLTteycpA-vjTW1aXGjD1zO78QYRxTDTvE5kHYR-16aJRpaeDoBqkd_A9x5jXWzyx3y268e0BsyMaJB6J7Bpps21r0kkgs2S5zdqlIbAEr8YenUMtvjKdfrIitQ1yBGG_Gw2OM8OKSnYdr9cSv6faS6mhvGJp5KZW7G9dqW7VXbpji4oI87rH1ebpm4G9CofEy1U8FM00peXmer-ThcN_XKUePzs3yzt6352VnCnAG6O3EeTFSQBo6M2otcTWDSJYDi3iJqOjOeOjtO-Mvpea9GKcALuJaf9VKCrB2t9sE3Bb9UEzSDM9k", "width": 3618}], "place_id": "ChIJhbDdh9gxQg0RESnYArK-mOw", "plus_code": {"compound_code": "FC99+WP Madrid, Spain", "global_code": "8CGRFC99+WP"}, "rating": 4.2, "reference": "ChIJhbDdh9gxQg0RESnYArK-mOw", "scope": "GOOGLE", "types": ["lodging", "point_of_interest", "establishment"], "user_ratings_total": 5855, "vicinity": "Avenida General, 49, Madrid"}, {"business_status": "OPERATIONAL", "geometry": {"location": {"lat": 40.4488917, "lng": -3.576805}, "viewport": {"northeast": {"lat": 40.45044583029151, "lng": -3.575434619708498}, "southwest": {"lat": 40.44774786970851, "lng": -3.578132580291502}}}, "icon": "https://maps.gstatic.com/mapfiles/place_api/icons/v1/png_71/lodging-71.png", "icon_background_color": "#909CE1", "icon_mask_base_uri": "https://maps.gstatic.com/mapfiles/place_api/icons/v2/hotel_pinlet", "international_phone_number": "+34 917 48 16 13", "name": "Hotel Nuevo Boston", "opening_hours": {"open_now": true}, "photos": [{"height": 1728, "html_attributions": ["<a href=\"https://maps.google.com/maps/contrib/104375682490746368915\">Hotel Nuevo Boston</a>"], "photo_reference": "AWn5SU4PQqeJuBNiFEu80poxDFmOtZgNLSZOZ5tt5JrM0vMabFoNsH6utlGFfLfev6xaVgsX-Hb65Pv6pEBNzFzQfN-71YurSCGXdy_Ah8rtLeQlKpk9Jynv396v--VYtLH-dG_5hHgs5FgcJdSGOH60VQ9Fdsmgk-DXfKmu8wNIkU4HKL3pbWO1qUBkZMMnQyLwK3MnLsc7IZ2ymqYKhtDVxsYz1qkQCz3RTV1wTTXM-3kbyXc3NqFO54Dkz7dwcSGSToEbSU3NoJN8jkafEgyt5ZF2qhSd-c19VC5NeM9iVNzGYvqzsdtIMChqTxM0vAZ9SCxG3bPk", "width": 2726}], "place_id": "ChIJFfc62ygwQg0R1tl-zgszN-M", "plus_code": {"compound_code": "CCXF+H7 Madrid, Spain", "global_code": "8CGRCCXF+H7"}, "rating": 4.2, "reference": "ChIJFfc62ygwQg0R1tl-zgszN-M", "scope": "GOOGLE", "types": ["lodging", "point_of_interest", "establishment"], "user_ratings_total": 4487, "vicinity": "Avenida de Aragón, 332, Madrid"}, {"business_status": "OPERATIONAL", "geometry": {"location": {"lat": 40.4559428, "lng": -3.4792586}, "viewport": {"northeast": {"lat": 40.45724858029149, "lng": -3.477898019708498}, "southwest": {"lat": 40.4545506197085, "lng": -3.480595980291502}}}, "icon": "https://maps.gstatic.com/mapfiles/place_api/icons/v1/png_71/lodging-71.png", "icon_background_color": "#909CE1", "icon_mask_base_uri": "https://maps.gstatic.com/mapfiles/place_api/icons/v2/hotel_pinlet", "international_phone_number": "+34 916 75 26 15", "name": "Madrid Torrejon Plaza", "opening_hours": {"open_now": true}, "photos": [{"height": 1497, "html_attributions": ["<a href=\"https://maps.google.com/maps/contrib/102572003679574701459\">LEUMAN ARQUITECTURA</a>"], "photo_reference": "AWn5SU6UNk6HnKVFc2t9b1QhcaES6CQOtZz6Hv3fl_LR65lJSXZIwZlg_TftUKnsItlOF4S0TaTigxKhWy43aqGwBBoE6xROmuiaWSxWWLqXFeOzVQfBPWbLVGROHsEC8eIpHID-EHZh-Xy6yLSj8U3zhGA2ScIbVzuoVbpBm0nvUmA8WD4j6gSd1KPgGVLjbFoZ0y1UH0pR8yq8P3jCoB1Hdn5bdwLrgu1nLCflFHl3RKMhAp7YiSvHY-PrqNzSVMAbZcGRb2EeXyFUAgKBlAz5tDJuSIcGcW-7fFvWp5F4BmN6aiHCGrpqKJRaFNjVV--IEeEPbdWw59la6Bdn08mXEBPZiZkRIZfsvEXJRNDiJFis0NElE2eE0vUlYmUXNR-AVo7Q4fCiC652foqfVXJxkVrYuxCP2_iIXVLvRjce4HB7lV8pahZJFZnX-FjejqqdBaOew-rHYE1ZiKtvuotQYehuI3GRLkIQBOoeCSosKHc-nViLw7mBAgghWzWu7ZfI0lKx9jqnClbCN60i9Q-u06g393v29buWLPmB48Y8a7I7bObDvSTUuVdGtFFsf8yzzKm9OGI491yOAUQpnfmQKbwD13IyOxZg1yW7tVdlwvjIjUPGcAM6ikhiHAQBCIoe", "width": 2196}], "place_id": "ChIJx0WwUR83Qg0RCTejRZtC0Xs", "plus_code": {"compound_code": "FG4C+97 Torrejón de Ardoz, Spain", "global_code": "8CGRFG4C+97"}, "rating": 4, "reference": "ChIJx0WwUR83Qg0RCTejRZtC0Xs", "scope": "GOOGLE", "types": ["lodging", "point_of_interest", "establishment"], "user_ratings_total": 951, "vicinity": "Avenida de la Constitución, 21, Torrejón de Ardoz"}, {"business_status": "OPERATIONAL", "geometry": {"location": {"lat": 40.4579038, "lng": -3.5834588}, "viewport": {"northeast": {"lat": 40.45918493029149, "lng": -3.582005969708498}, "southwest": {"lat": 40.45648696970849, "lng": -3.584703930291502}}}, "icon": "https://maps.gstatic.com/mapfiles/place_api/icons/v1/png_71/lodging-71.png", "icon_background_color": "#909CE1", "icon_mask_base_uri": "https://maps.gstatic.com/mapfiles/place_api/icons/v2/hotel_pinlet", "international_phone_number": "+34 915 64 59 06", "name": "Sercotel Madrid Aeropuerto", "opening_hours": {"open_now": true}, "photos": [{"height": 1014, "html_attributions": ["<a href=\"https://maps.google.com/maps/contrib/102017487983914746828\">Sercotel Madrid Aeropuerto</a>"], "photo_reference": "AWn5SU5y0JW98a6O-QFsJrLfNOX_jtw47iWK5RmLkuS1acSS6W8sU3IUkgT6F49wTNBDgWhjVvkHP49j4mO7CmwZZ4GLYXkJw_IZ3bGSgfs3f2p_x-C-DU8fXJFivrTjE5WJNoyOn5Eqmge6HUWNp5Dzeyh9tAk049KQzcaQEf4E6SM9S_mqSK5JczqG3OZZe-vUTUBuT0q04hbbADQY8tx_chHMEQTO-mwG38EKKXccW8qT1UntUA701YWQkbcCaf7JgJVeDfn5KzzRHFInbxjkhSWTiO_2x08dhnUO-o7ir5QNv4K6kId4pG7aCPFt-mlu3pAGeLlNjFw", "width": 1500}], "place_id": "ChIJkaf-0CouQg0RqJPOoMmJzz8", "plus_code": {"compound_code": "FC58+5J Madrid, Spain", "global_code": "8CGRFC58+5J"}, "rating": 4.2, "reference": "ChIJkaf-0CouQg0RqJPOoMmJzz8", "scope": "GOOGLE", "types": ["lodging", "point_of_interest", "establishment"], "user_ratings_total": 3475, "vicinity": "Aeropuerto de Barajas, Calle del Galeón, 25, Madrid"}, {"business_status": "OPERATIONAL", "geometry": {"location": {"lat": 40.469679, "lng": -3.582283}, "viewport": {"northeast": {"lat": 40.4709830302915, "lng": -3.580848069708498}, "southwest": {"lat": 40.4682850697085, "lng": -3.583546030291502}}}, "icon": "https://maps.gstatic.com/mapfiles/place_api/icons/v1/png_71/lodging-71.png", "icon_background_color": "#909CE1", "icon_mask_base_uri": "https://maps.gstatic.com/mapfiles/place_api/icons/v2/hotel_pinlet", "international_phone_number": "+34 917 47 77 00", "name": "Meliá Barajas", "photos": [{"height": 2059, "html_attributions": ["<a href=\"https://maps.google.com/maps/contrib/107730525966243037841\">Meliá Barajas</a>"], "photo_reference": "AWn5SU4DyXEs_s6w9JGKi0dKkpmUJZRpCn5yRGNhAKnCnC6KeQ0dmXfBcCMEboy_qMGxVPC31zhS8X4qp7asvddMu5VQ5KJzkyor0wHHy2mDAzpr6b_jNK4vjgOkPl2gsefhgtd7rUkYlJAMaGhfqW4eabc-r34bg_wuh5ED0IeYTcCW5qD8UnDOpKQ1ErEPPBs4PU4hm42ho1q0wDFKCST5ETWxeLk5iNcVWDzvenNUz93D7TeAawl12e3r2-DsnzMP50COvrIYllFTqSo817T_4lUhkU_0fpWSPacpWR8TlvbXR-smBNGBuKWg-Pw_HdytBdg0p3uRvxw", "width": 3000}], "place_id": "ChIJ-XqKjycuQg0RjIq60jjPbsI", "plus_code": {"compound_code": "FC99+V3 Madrid, Spain", "global_code": "8CGRFC99+V3"}, "rating": 4.2, "reference": "ChIJ-XqKjycuQg0RjIq60jjPbsI", "scope": "GOOGLE", "types": ["lodging", "point_of_interest", "establishment"], "user_ratings_total": 4725, "vicinity": "Avenida de Logroño, 305, Madrid"}, {"business_status": "OPERATIONAL", "geometry": {"location": {"lat": 40.44938049999999, "lng": -3.5692955}, "viewport": {"northeast": {"lat": 40.4507520302915, "lng": -3.567800269708499}, "southwest": {"lat": 40.4480540697085, "lng": -3.570498230291502}}}, "icon": "https://maps.gstatic.com/mapfiles/place_api/icons/v1/png_71/lodging-71.png", "icon_background_color": "#909CE1", "icon_mask_base_uri": "https://maps.gstatic.com/mapfiles/place_api/icons/v2/hotel_pinlet", "international_phone_number": "+34 913 12 01 21", "name": "Hotel Los 5 Pinos", "photos": [{"height": 810, "html_attributions": ["<a href=\"https://maps.google.com/maps/contrib/115712992565256100264\">Miriam GdF</a>"], "photo_reference": "AWn5SU6lStcNuhHgUAgguCqegXZsYINfmn_crwik9szNPzmDZczy8OJERuJ9HLym3T4RmmzvzaJI3ypuApXvL8rEuj0kTdLTq1N8iz-G5e4mH3cMdlP4c358ANmgsasOk6MlFxaUXWQvU5f7MulJarsPZVovASOJJeYzX6Ufw7W7qVJHab3ZH4tq1i3gBE4FvSx4BaFHxcAT44nhFvbs0MgGYSNQPMkoD3poWzklMD68CqN5OlfzxDocHXLcvR1O51dM4Dqud2Ab4PeAg8kPYImlON-y1aEQ_SV8LvbwnlVqI-mqYd4MMuPmEq1j7QYzkjcgVrgfQze8MA8ibe7UUEqHI9SttMU-rkMcO19N7-iBvXrx2nyxhaL8r5amnTZWiWiOFFhOmiCATjMOX63gpNProBNikzrmg-sJnn3AO8DVr-9OXJfYSG7SZ6kTipDE18dOeau6LOUaUhWWOstzmheyQ9j6IPD_SAN9hHs3Bx2B-LIUBqlyyxhGREjkF9v-7pJGQk26W0QfnLPxmv5iI0y7k7rGRzQv-1XZeuECxd3H7yz1iUMJZkb5hmPMsxW-Vi9xVvrjTt9wPb_dQ0tiJUkbfVisXXd5oAJxN1xODvxYt2SK5furNfSNBGWso_vSO2-Kk8Pgjg", "width": 1080}], "place_id": "ChIJ2W3L9zAwQg0R88nwCpE7bMA", "plus_code": {"compound_code": "CCXJ+Q7 Madrid, Spain", "global_code": "8CGRCCXJ+Q7"}, "rating": 4.2, "reference": "ChIJ2W3L9zAwQg0R88nwCpE7bMA", "scope": "GOOGLE", "types": ["lodging", "point_of_interest", "establishment"], "user_ratings_total": 791, "vicinity": "Avenida de Aragón, 366, Madrid"}, {"business_status": "OPERATIONAL", "geometry": {"location": {"lat": 40.44703459999999, "lng": -3.580312499999999}, "viewport": {"northeast": {"lat": 40.4486213802915, "lng": -3.578988069708498}, "southwest": {"lat": 40.44592341970851, "lng": -3.581686030291503}}}, "icon": "https://maps.gstatic.com/mapfiles/place_api/icons/v1/png_71/lodging-71.png", "icon_background_color": "#909CE1", "icon_mask_base_uri": "https://maps.gstatic.com/mapfiles/place_api/icons/v2/hotel_pinlet", "international_phone_number": "+34 917 48 00 90", "name": "Compostela Suites", "opening_hours": {"open_now": true}, "photos": [{"height": 2912, "html_attributions": ["<a href=\"https://maps.google.com/maps/contrib/103270271471707334150\">Compostela Suites Madrid</a>"], "photo_reference": "AWn5SU55J46WzjYPgAJfLhSd0sV5EQgIRIdyg8uSiEkXeW_JQs_OtTd2s2Br-bin_MSZGl1Jf_Rl0i8HeTP3ZdQYVZ2WlUXXXerLVdqXlqU_-in6KjFlkuWlNBTeV8k74vJ9L3yqWF91UAS2tsezfP60RABwm8QbVrsFVfMTSWEKzkZjr3qycl9N0ULCKwt0YZ3Fpn3o9jpsS2lUroaaNoTuUEDUgl4mZjHtxMYxdhWHLYbrQqzx-UJStkER9Fq-kaAQernjkv_mq47lio5gbHKhQpj__pKGNLNxKYuEb2CEcV6KrvGfWnZa7H4W2GHFhs2iw8x1uxfPJnU", "width": 4368}], "place_id": "ChIJqyMfDCgwQg0RdqZ1gk-DmpA", "plus_code": {"compound_code": "CCW9+RV Madrid, Spain", "global_code": "8CGRCCW9+RV"}, "rating": 3.1, "reference": "ChIJqyMfDCgwQg0RdqZ1gk-DmpA", "scope": "GOOGLE", "types": ["cafe", "parking", "lodging", "store", "point_of_interest", "food", "establishment"], "user_ratings_total": 1076, "vicinity": "Calle Zambrana, 4, Madrid"}, {"business_status": "OPERATIONAL", "geometry": {"location": {"lat": 40.40436260000001, "lng": -3.5914276}, "viewport": {"northeast": {"lat": 40.40578553029151, "lng": -3.590207769708497}, "southwest": {"lat": 40.40308756970851, "lng": -3.592905730291502}}}, "icon": "https://maps.gstatic.com/mapfiles/place_api/icons/v1/png_71/lodging-71.png", "icon_background_color": "#909CE1", "icon_mask_base_uri": "https://maps.gstatic.com/mapfiles/place_api/icons/v2/hotel_pinlet", "international_phone_number": "+34 913 71 63 83", "name": "Aparthotel Encasa", "photos": [{"height": 3545, "html_attributions": ["<a href=\"https://maps.google.com/maps/contrib/112865699592414733217\">Aparthotel encasa</a>"], "photo_reference": "AWn5SU6HOw1t1rjabtwej7cFhhpxsx1K7UZ05NAoCMkTA5iyVaXzj17qtGlkUM1UwyLbKndIJ7n8cOtDb_QUaB7O1lQ_s7NFU6dWSWGUJyusRNDHsAem6AhHGyx7SV2C5FKAjvKGeQKzx2ORb12SxuR65_FlQR3qCkUQ1hTAWrr1v60s6U6RzXPZfki3Q6AzOLvt214UBL6JpD8g5FrDmyEqv2pHuw5zbDBmsA_O_Ln9yhOSUQX61JtacmmhF7sIA-Ew63EM3kO2stPnoeohnp3Oz_snZgK6Ic4Gb8n59pDCguLikjUv7RR1L4mLFqJGBPBy8gKaj5CBWDo", "width": 3073}], "place_id": "ChIJ-RrNZEUlQg0R_kX_B6PbAxA", "plus_code": {"compound_code": "CC35+PC Madrid, Spain", "global_code": "8CGRCC35+PC"}, "rating": 4.2, "reference": "ChIJ-RrNZEUlQg0R_kX_B6PbAxA", "scope": "GOOGLE", "types": ["lodging", "point_of_interest", "establishment"], "user_ratings_total": 685, "vicinity": "Carretera de Vicálvaro a la Estación de O'donnell, 20, Local 1, Madrid"}, {"business_status": "OPERATIONAL", "geometry": {"location": {"lat": 40.4710202, "lng": -3.5799023}, "viewport": {"northeast": {"lat": 40.4724131302915, "lng": -3.578630719708498}, "southwest": {"lat": 40.4697151697085, "lng": -3.581328680291502}}}, "icon": "https://maps.gstatic.com/mapfiles/place_api/icons/v1/png_71/lodging-71.png", "icon_background_color": "#909CE1", "icon_mask_base_uri": "https://maps.gstatic.com/mapfiles/place_api/icons/v2/hotel_pinlet", "international_phone_number": "+34 917 46 03 30", "name": "Hotel CLEMENT Barajas", "opening_hours": {"open_now": true}, "photos": [{"height": 3664, "html_attributions": ["<a href=\"https://maps.google.com/maps/contrib/114300961626255400614\">Hotel CLEMENT Barajas</a>"], "photo_reference": "AWn5SU6wgxubzHW93rY6sFs9OMizhbgKGaflEIGL-3mPkiVT_O5oHkt9NQWBVFYDNRKPVsm2BxA4RBs0cB2OZsfgA8dfTRhNavYqOjkcZTg1Zko3cUZj2q-Ymnp8XzvEoXP6tUqba9LvsSlmNyLRBFo7bFb92tKkMy3RQFxN9f9gqHuOt-7zv3d_Wv3MZoYdZPOAZ9JPuredlU5YVYu55IGJFSJ1lxA7lFTUkm2blJS6ypLGT7u3aeTgqmpa-s4oZoDUPpRu1WKvtH4zhd5QV-PTo439Nk4kCQjZYI6vf_tFuLoaC8WWO2MeHOVlaa1ed2DNyyeHNG_qahs", "width": 5383}], "place_id": "ChIJ8yPAktgxQg0RvK01MHLEU0M", "plus_code": {"compound_code": "FCCC+C2 Madrid, Spain", "global_code": "8CGRFCCC+C2"}, "rating": 4.3, "reference": "ChIJ8yPAktgxQg0RvK01MHLEU0M", "scope": "GOOGLE", "types": ["lodging", "point_of_interest", "establishment"], "user_ratings_total": 2199, "vicinity": "Avenida General, 43, Madrid"}, {"geometry": {"location": {"lat": 40.4567552, "lng": -3.4754967}, "viewport": {"northeast": {"lat": 40.46716323205471, "lng": -3.433881573075785}, "southwest": {"lat": 40.43466625071896, "lng": -3.492992855932489}}}, "icon": "https://maps.gstatic.com/mapfiles/place_api/icons/v1/png_71/geocode-71.png", "icon_background_color": "#7B9EB0", "icon_mask_base_uri": "https://maps.gstatic.com/mapfiles/place_api/icons/v2/generic_pinlet", "name": "Torrejón de Ardoz", "photos": [{"height": 4000, "html_attributions": ["<a href=\"https://maps.google.com/maps/contrib/107831597751619483573\">Norma Alvarez</a>"], "photo_reference": "AWn5SU5bbTKOYJqpooKyUmOTdoMz1KEhGnK7fZnr3oM9_1x_VBks9gtrphx1B459bMKoNLz2GNPc655K2bLlPwEU5p_eODV0mYYu6KD4n4mu9lebK8f9UCI9ryO2tNVAQcsTqoNbxFIJx0cTu2laAAIBjVmsLk7w7rja5fBvEdsQe13a1MGTYFFTHNom-hxFp7uExTXgwCtWxfMinGVzf9gZ1fgJ9BerNbd7UAmrbETbcMox-M6gPf87yUv4YzhFWAJY--_oR2lesQK7BET5EFvPxK-GsYg8zr_Geuv5RpXbXl2kotfDguT86EtlH7DwN13TvPaiGeuqwf4tx4SAh3i_rbZbGhi2KIJzWOh9vEvZ0GufYw666-wJzL9XBfg13ChuSVh_u2U1Cl_35HvmXIjqti09T4PZKlUficZhREbYwx4hZLq94mW68um75PfWNiLqn3CU7TuhFYCSWe66faGK68rZw_SXe2hMugni27vvYnCn60H9KOazZpxf5BCMxzXEE5c4oo-cf-kHT2G8kZxMH5ChwZCShQOIAyyHyKQwyJgW3qMcM9H4VQGPnVzXPNvQ6xuvET1L0d1PGXIKm_ECrtchwhM_ewuKzyEt953c8hK5ykAvZ_AjkRcUrw1ZfS1tWGiK-iIV", "width": 3000}], "place_id": "ChIJt2Zelxs3Qg0Rjq0Q9T5QF0k", "reference": "ChIJt2Zelxs3Qg0Rjq0Q9T5QF0k", "scope": "GOOGLE", "types": ["locality", "political"], "vicinity": "Torrejón de Ardoz"}]