cod_municipio,municipio,latitud,longitud,poblacion,n_gym,gym_total_reviews,gym_weighted_avg_rating,gym_rating_min,gym_rating_max,n_restaurant,restaurant_total_reviews,restaurant_weighted_avg_rating,restaurant_rating_min,restaurant_rating_max,n_pharmacy,pharmacy_total_reviews,pharmacy_weighted_avg_rating,pharmacy_rating_min,pharmacy_rating_max,n_school,school_total_reviews,school_weighted_avg_rating,school_rating_min,school_rating_max,n_transport,transport_total_reviews,transport_weighted_avg_rating,transport_rating_min,transport_rating_max
14,Acebeda (La),41.08697,-3.624634,68.0,1,0,,,,11,4817,4.152875233547851,3.8,4.6,1,3,5.0,5.0,5.0,3,7,5.0,5.0,5.0,27,15,4.4,2.0,5.0
29,Ajalvir,40.53437,-3.481002,4946.0,20,1563,4.438067818298144,3.0,5.0,20,32459,4.041634061431345,3.3,4.9,16,1565,4.458210862619808,3.6,4.9,20,1426,4.902314165497896,4.8,5.0,24,19,4.321052631578947,3.0,4.8
35,Alameda del Valle,40.9179,-3.843788,256.0,1,0,,,,20,15485,4.383519535033904,3.4,5.0,3,41,4.190243902439025,3.6,4.7,6,131,4.7,4.7,4.7,22,39,4.3999999999999995,2.0,5.0
40,Álamo (El),40.22972,-3.992688,10413.0,19,2401,4.334069137859225,3.8,5.0,20,12296,4.242664281067014,3.0,4.7,14,625,4.3224,3.5,5.0,20,50,4.806,4.3,5.0,22,12,3.983333333333333,2.0,5.0
88,Aldea del Fresno,40.32399,-4.202217,3422.0,4,147,4.696598639455782,3.0,4.8,20,5831,4.3398216429428915,3.9,5.0,4,92,4.393478260869564,3.8,4.8,11,719,4.71835883171071,4.0,5.0,24,28,4.228571428571428,3.0,5.0
91,Algete,40.59642,-3.497902,21134.0,20,1223,4.753475061324612,1.8,5.0,20,18232,4.227396884598509,3.4,4.7,15,767,4.436505867014342,3.8,4.9,20,167,4.926347305389221,4.8,5.0,28,29,3.768965517241379,1.0,5.0
105,Alpedrete,40.65875,-4.023713,15655.0,20,3702,4.451674770394381,3.6,5.0,20,30753,4.055262901180373,3.3,4.6,20,8318,3.999675402741043,1.8,5.0,20,203,4.78128078817734,4.6,5.0,32,580,3.685689655172414,2.0,5.0
112,Ambite,40.3292,-3.181895,701.0,2,0,,,,20,7542,4.031012993900822,3.2,4.7,6,137,4.391970802919708,3.4,5.0,14,19,4.578947368421052,4.5,5.0,20,9,4.333333333333333,1.0,5.0
127,Anchuelo,40.46549,-3.268585,1393.0,20,1296,4.452623456790124,2.3,5.0,20,9229,4.381027196879401,3.9,5.0,12,270,4.265185185185185,2.9,5.0,18,436,4.796100917431193,4.1,5.0,21,17,3.835294117647059,1.0,5.0
151,Arroyomolinos,40.26884,-3.920291,37299.0,20,4827,3.953345763414129,3.3,5.0,20,21086,4.039504884757659,2.7,4.5,20,1136,4.2311619718309865,3.6,5.0,20,443,4.422573363431151,4.0,5.0,33,178,4.033707865168539,1.0,5.0
164,Atazar (El),40.93333,-3.466667,107.0,0,0,,,,6,2035,4.321081081081081,4.1,4.4,0,0,,,,0,0,,,,23,25,4.712,4.0,5.0
170,Batres,40.21029,-3.922307,1957.0,20,807,4.4169764560099125,3.9,5.0,20,14245,4.235500175500176,2.8,4.8,15,642,4.333956386292835,3.5,5.0,20,198,4.702525252525253,4.6,5.0,22,20,4.05,3.0,5.0
186,Becerril de la Sierra,40.71638,-3.989412,6553.0,20,2045,4.385916870415648,4.2,5.0,20,19826,4.435186119237365,3.7,4.9,17,619,3.743780290791599,2.6,5.0,20,64,4.8078125,4.6,5.0,28,355,4.0600000000000005,2.3,5.0
199,Belmonte de Tajo,40.13364,-3.339654,1919.0,13,215,4.586976744186047,3.7,5.0,20,14356,4.2910420730008365,3.6,5.0,10,164,4.377439024390244,3.2,5.0,20,37,4.797297297297297,4.5,5.0,22,6,4.166666666666667,3.5,4.5
210,Berrueco (El),40.88814,-3.561255,828.0,7,279,4.250896057347671,4.0,5.0,20,23612,4.154700999491784,3.8,5.0,3,87,3.7172413793103445,3.6,4.2,8,0,,,,26,18,4.611111111111111,3.0,5.0
203,Berzosa del Lozoya,40.97594,-3.525082,234.0,0,0,,,,9,2553,4.376694085389738,4.2,4.6,1,15,5.0,5.0,5.0,0,0,,,,25,14,4.6571428571428575,4.0,5.0
231,Boalo (El),40.71746,-3.920084,8548.0,20,2107,4.417892738490745,4.0,5.0,20,15125,4.391312396694215,4.1,4.9,11,409,3.615403422982885,2.6,5.0,20,102,4.813725490196078,3.7,5.0,26,53,3.7490566037735853,1.0,5.0
246,Braojos,41.04005,-3.643112,219.0,1,0,,,,20,13919,4.006947338170845,2.8,4.7,3,53,2.8867924528301887,2.6,5.0,9,53,5.0,5.0,5.0,32,61,4.442622950819672,3.0,5.0
259,Brea de Tajo,40.23012,-3.109499,567.0,3,1,3.0,3.0,3.0,8,1012,4.1471343873517785,3.8,4.9,3,17,4.658823529411765,4.0,4.8,7,0,,,,15,3,4.666666666666667,4.5,5.0
262,Brunete,40.40554,-3.997736,11263.0,20,1373,4.4255644573925705,3.6,5.0,20,12210,4.251056511056511,3.1,4.6,17,4088,4.070132093933464,3.0,5.0,20,1131,4.696109637488948,4.2,5.0,25,19,4.257894736842106,2.5,5.0
278,Buitrago del Lozoya,40.99368,-3.636723,1970.0,1,0,,,,20,15434,4.0875534534145395,3.0,4.9,4,68,3.3529411764705883,2.6,5.0,7,46,5.0,5.0,5.0,34,122,4.492622950819673,2.0,5.0
284,Bustarviejo,40.85811,-3.70969,2833.0,5,187,4.475935828877005,4.3,5.0,20,13256,4.3673053711526855,4.1,4.9,6,150,4.127999999999999,3.6,4.4,12,452,4.9,4.9,4.9,22,19,4.042105263157895,1.0,5.0
297,Cabanillas de la Sierra,40.81968,-3.626066,949.0,12,973,4.4622816032887975,3.9,5.0,20,16271,4.101155429905967,3.8,4.9,8,178,4.06123595505618,3.6,4.4,13,22,4.913636363636364,4.9,5.0,28,30,3.7700000000000005,1.0,5.0
301,Cabrera (La),40.86399,-3.615572,2952.0,9,287,4.2717770034843205,4.0,5.0,20,17278,4.144762125245978,3.8,4.8,8,178,4.037640449438202,3.6,4.4,11,0,,,,26,17,4.352941176470588,1.0,5.0
318,Cadalso de los Vidrios,40.30094,-4.443737,3274.0,1,2,1.0,1.0,1.0,20,5393,4.207417022065641,3.9,5.0,2,16,2.9749999999999996,2.0,3.3,9,0,,,,22,6,4.183333333333334,3.0,5.0
323,Camarma de Esteruelas,40.54861,-3.377597,8107.0,20,6657,4.208998047168395,3.1,5.0,20,27626,3.9096213711720837,3.5,4.6,20,1356,4.050811209439528,3.2,4.8,20,1595,4.837742946708464,3.7,5.0,27,659,3.474810318664644,2.2,5.0
339,Campo Real,40.33815,-3.380982,6766.0,20,3417,4.296429616622769,3.5,5.0,20,6933,4.237617193134285,3.4,4.6,20,767,4.42425032594524,1.0,5.0,20,154,4.123376623376624,3.2,5.0,26,166,3.5210843373493974,1.0,5.0
344,Canencia,40.90981,-3.737718,468.0,1,0,,,,20,10489,4.309676804271141,3.3,4.7,4,61,4.273770491803279,3.6,4.9,7,131,4.7,4.7,4.7,23,14,4.378571428571428,3.7,4.6
357,Carabaña,40.25669,-3.234641,2375.0,1,0,,,,15,7243,4.4059643794008,2.5,5.0,5,47,4.785106382978723,4.7,5.0,9,0,,,,21,11,4.3545454545454545,3.0,5.0
360,Casarrubuelos,40.17114,-3.833068,4225.0,20,1667,4.714937012597481,3.7,5.0,20,22152,4.2045232936078,2.8,4.8,20,1049,4.50838894184938,3.9,5.0,20,131,4.558778625954199,3.8,5.0,23,67,3.0865671641791046,1.0,4.2
376,Cenicientos,40.26463,-4.464909,2141.0,1,2,1.0,1.0,1.0,20,4452,4.318553459119496,3.8,4.8,2,16,2.9749999999999996,2.0,3.3,8,0,,,,22,11,3.5454545454545454,2.8,5.0
382,Cercedilla,40.74145,-4.054667,7646.0,17,407,4.7842751842751845,4.3,5.0,20,24102,4.412455397892292,3.7,4.7,12,315,4.3330158730158725,3.7,5.0,20,51,4.884313725490196,4.5,5.0,24,283,4.0586572438162545,2.3,5.0
395,Cervera de Buitrago,40.92196,-3.53016,161.0,2,0,,,,20,13079,4.298302622524658,3.9,5.0,2,21,4.771428571428571,4.2,5.0,1,0,,,,25,16,4.7,4.0,5.0
513,Chapinería,40.37918,-4.20943,2634.0,8,172,4.696511627906976,3.0,5.0,20,7182,4.364160401002507,3.8,5.0,6,81,4.090123456790123,3.5,4.6,14,1286,4.757931570762054,4.7,5.0,24,44,4.163636363636363,1.0,5.0
528,Chinchón,40.14019,-3.415684,5820.0,10,80,4.441249999999999,3.7,5.0,20,23096,4.273956529269138,3.6,4.7,7,105,4.196190476190476,3.2,5.0,14,19,4.605263157894737,4.5,5.0,21,15,4.2733333333333325,3.5,5.0
409,Ciempozuelos,40.15934,-3.6184,26046.0,20,2704,4.491383136094675,1.7,5.0,20,13263,4.033966674206439,3.5,4.6,20,979,3.9516853932584266,2.0,4.7,20,304,4.260526315789474,3.7,5.0,23,315,3.1285714285714286,1.0,5.0
416,Cobeña,40.56733,-3.504839,7742.0,20,1368,4.650877192982456,3.3,5.0,20,21095,4.109789049537804,3.4,4.6,12,522,4.34272030651341,3.8,4.9,20,210,4.935714285714286,4.8,5.0,26,26,3.930769230769231,1.0,5.0
468,Collado Mediano,40.69389,-4.023123,7564.0,20,2903,4.35418532552532,3.6,5.0,20,28403,4.476548251945216,3.8,4.9,20,1242,3.921980676328502,2.6,5.0,20,124,4.808870967741935,4.6,5.0,31,418,3.9681818181818183,1.0,5.0
437,Colmenar de Oreja,40.10758,-3.387693,8982.0,10,80,4.441249999999999,3.7,5.0,20,24179,4.275123040655114,3.6,4.7,7,105,4.196190476190476,3.2,5.0,14,19,4.605263157894737,4.5,5.0,21,9,4.444444444444445,3.5,5.0
421,Colmenar del Arroyo,40.41858,-4.198538,2013.0,6,141,4.740425531914894,4.6,5.0,20,5763,4.430851986812424,3.8,5.0,5,58,4.205172413793103,3.5,4.6,12,1286,4.757931570762054,4.7,5.0,23,19,4.105263157894737,1.0,5.0
442,Colmenarejo,40.56101,-4.016842,9741.0,20,2375,4.559789473684211,3.2,5.0,20,11453,4.268348904217236,3.8,4.6,20,663,4.150377073906486,2.8,5.0,20,323,4.765634674922601,4.2,5.0,30,254,3.5956692913385826,1.0,5.0
480,Corpa,40.42489,-3.262723,795.0,8,360,4.227222222222222,3.9,5.0,20,5717,4.252702466328494,3.2,5.0,7,88,4.54090909090909,3.5,5.0,9,26,4.6923076923076925,4.5,5.0,23,14,4.2214285714285715,2.7,5.0
506,Cubas de la Sagra,40.1917,-3.837347,6984.0,20,2766,4.108496023138105,2.0,5.0,20,20926,4.122942750645131,2.8,4.8,20,1130,4.5098230088495574,4.1,5.0,20,130,4.54923076923077,3.8,5.0,20,3,3.0,2.5,4.0
534,Daganzo de Arriba,40.54481,-3.457924,10673.0,20,924,4.827489177489178,3.0,5.0,20,16438,4.233179218883076,3.7,5.0,17,804,4.400995024875622,3.6,4.9,20,1418,4.901763046544429,4.8,5.0,24,11,4.281818181818182,2.5,5.0
549,Escorial (El),40.58508,-4.12952,17262.0,20,1088,4.679136029411764,4.0,5.0,20,28035,4.188514357053682,3.3,4.9,14,540,4.360185185185185,2.8,5.0,20,176,4.373295454545454,3.9,4.8,25,628,4.046178343949046,1.0,5.0
552,Estremera,40.18403,-3.106115,1451.0,3,1,3.0,3.0,3.0,8,1280,4.12109375,3.8,4.9,3,17,4.658823529411765,4.0,4.8,6,0,,,,20,14,4.285714285714286,3.0,5.0
565,Fresnedillas de la Oliva,40.48651,-4.172033,1833.0,10,193,4.689119170984456,4.0,5.0,20,6296,4.506893265565438,3.7,4.9,5,152,4.5,3.9,4.7,15,32,4.856249999999999,4.8,5.0,23,24,3.6374999999999997,3.0,5.0
571,Fresno de Torote,40.59229,-3.41205,2547.0,13,351,4.727065527065527,2.8,5.0,20,9296,4.198192771084337,3.7,4.7,8,270,4.36,3.5,4.9,20,133,4.819548872180452,3.7,5.0,25,17,4.305882352941176,2.5,5.0
590,Fuente el Saz de Jarama,40.63877,-3.51129,7384.0,20,808,4.806064356435644,3.3,5.0,20,11264,4.240891335227273,3.5,4.7,14,755,4.101324503311258,2.6,4.8,20,134,4.972388059701492,4.9,5.0,28,28,3.857142857142857,1.0,5.0
604,Fuentidueña de Tajo,40.11819,-3.159549,2319.0,2,67,4.028358208955224,3.7,4.7,7,9061,3.9886988191148878,3.4,4.3,1,32,4.3,4.3,4.3,3,46,4.4,4.4,4.4,11,8,4.5,3.0,5.0
611,Galapagar,40.57736,-4.00357,36112.0,20,2788,4.411944045911048,3.6,5.0,20,14228,4.336899072251898,3.8,4.6,20,1065,4.000657276995305,3.3,5.0,20,242,4.812809917355372,4.4,5.0,36,557,3.6008976660682226,2.5,5.0
626,Garganta de los Montes,40.92143,-3.689205,415.0,2,12,4.5,4.5,4.5,20,13844,4.3527954348454205,3.3,4.7,4,77,4.22987012987013,3.8,4.9,6,0,,,,27,12,4.591666666666667,3.7,5.0
632,Gargantilla del Lozoya y Pinilla de Buitrago,40.96463,-3.718601,401.0,0,0,,,,20,11231,4.365844537441012,3.3,5.0,4,43,4.625581395348837,4.2,4.9,8,177,4.777966101694916,4.7,5.0,27,3,4.666666666666667,4.5,5.0
647,Gascones,41.01809,-3.641817,236.0,1,0,,,,20,17323,4.077619349997114,2.8,4.7,3,53,2.8867924528301887,2.6,5.0,8,53,5.0,5.0,5.0,34,92,4.445652173913044,3.0,5.0
663,Griñón,40.21424,-3.856192,10714.0,20,1059,4.276770538243626,2.0,5.0,20,14649,4.130247798484539,2.8,4.8,20,854,4.430444964871195,3.6,5.0,20,259,4.345173745173745,3.8,5.0,23,97,2.3185567010309276,1.0,5.0
679,Guadalix de la Sierra,40.78483,-3.692719,6912.0,10,480,4.199999999999999,3.9,5.0,20,8379,4.392457333810716,3.6,5.0,9,322,4.458695652173913,4.0,4.8,16,51,4.962745098039216,4.9,5.0,24,19,4.521052631578947,3.0,5.0
685,Guadarrama,40.67348,-4.090732,17069.0,20,578,4.8306228373702425,3.0,5.0,20,27502,4.434310231983129,3.7,4.6,12,444,3.9813063063063066,2.7,5.0,20,98,4.868367346938776,4.7,5.0,28,163,4.004294478527608,1.0,5.0
698,Hiruela (La),41.0785,-3.454731,84.0,0,0,,,,8,3291,4.318930416286843,3.8,4.8,2,4,5.0,5.0,5.0,0,0,,,,3,16,4.8,4.8,4.8
702,Horcajo de la Sierra,41.06738,-3.585321,231.0,1,0,,,,18,6876,4.440721349621874,3.8,4.8,3,7,5.0,5.0,5.0,4,7,5.0,5.0,5.0,30,23,4.539130434782609,2.0,5.0
719,Horcajuelo de la Sierra,41.06009,-3.54552,111.0,1,0,,,,12,5677,4.4396864541130885,3.8,4.8,2,4,5.0,5.0,5.0,2,7,5.0,5.0,5.0,28,32,4.65,2.0,5.0
724,Hoyo de Manzanares,40.62273,-3.90712,9186.0,20,510,4.8843137254901965,3.3,5.0,20,18828,4.342054387083067,3.5,4.7,14,358,4.320111731843575,3.5,5.0,20,264,4.789015151515152,4.2,5.0,30,159,3.7232704402515724,1.0,5.0
730,Humanes de Madrid,40.24954,-3.827206,20054.0,20,3878,4.2178442496132025,3.7,5.0,20,13942,3.9778152345431064,3.6,4.6,20,1443,4.2710325710325705,2.8,5.0,20,318,4.205345911949685,2.5,5.0,33,1586,3.4418663303909205,1.0,5.0
758,Loeches,40.38393,-3.409393,9253.0,20,1490,4.474228187919463,3.5,5.0,20,8727,4.312489973645009,3.8,4.7,20,975,4.266153846153846,3.7,5.0,20,61,4.732786885245901,3.8,5.0,24,12,4.075,3.0,5.0
761,Lozoya,40.9515,-3.791897,620.0,1,0,,,,20,10995,4.313969986357436,3.4,5.0,3,43,4.637209302325581,4.3,4.8,6,131,4.7,4.7,4.7,24,16,4.5125,3.0,5.0
9015,Lozoyuela-Navas-Sieteiglesias,40.92643,-3.617723,1479.0,6,265,4.211320754716981,4.0,5.0,20,15257,4.239332765288064,3.8,5.0,5,112,3.994642857142857,3.6,5.0,6,0,,,,27,21,4.666666666666667,3.5,5.0
783,Madarcos,41.04731,-3.582663,70.0,1,0,,,,20,8455,4.453199290360733,3.8,4.8,3,7,5.0,5.0,5.0,4,7,5.0,5.0,5.0,32,31,4.529032258064516,2.0,5.0
822,Manzanares el Real,40.72705,-3.864914,9539.0,14,441,4.898412698412698,4.0,5.0,20,12057,4.18435763456913,3.7,4.8,6,179,4.124022346368715,3.4,4.7,16,51,4.868627450980392,3.7,5.0,23,40,4.3549999999999995,2.5,5.0
838,Meco,40.5542,-3.328439,15812.0,20,2871,4.409369557645419,3.3,5.0,20,23786,3.8330782813419666,3.5,4.5,20,1363,4.423550990462215,3.8,5.0,20,248,4.726209677419355,3.7,4.9,25,225,3.2444444444444445,2.2,5.0
843,Mejorada del Campo,40.39701,-3.487864,24632.0,20,4509,4.286538035041029,3.5,5.0,20,15855,4.094626300851466,3.4,4.6,20,1103,4.158839528558477,3.5,5.0,20,276,4.527536231884059,3.8,5.0,33,1265,3.7699604743083004,1.0,5.0
856,Miraflores de la Sierra,40.81381,-3.766699,7209.0,11,311,4.588745980707396,4.0,5.0,20,12366,4.305256348051109,3.7,4.7,9,395,4.2893670886075945,3.6,4.8,20,521,4.913243761996162,4.9,5.0,21,11,3.627272727272727,1.0,5.0
869,Molar (El),40.73291,-3.582258,10079.0,18,1016,4.711712598425197,3.0,5.0,20,10742,4.224790541798548,3.2,4.7,10,393,4.091094147582696,3.5,5.0,20,200,4.7875,4.3,5.0,25,43,4.27906976744186,3.4,5.0
875,Molinos (Los),40.71456,-4.072706,4812.0,20,485,4.70041237113402,3.0,5.0,20,28492,4.478576442510179,3.8,4.7,14,493,4.105070993914807,2.7,4.9,20,54,4.814814814814815,4.5,5.0,26,334,4.06497005988024,1.0,5.0
881,Montejo de la Sierra,41.05928,-3.530301,374.0,1,0,,,,14,6322,4.381445745017399,3.8,4.8,2,4,5.0,5.0,5.0,2,7,5.0,5.0,5.0,27,33,4.690909090909091,2.0,5.0
894,Moraleja de Enmedio,40.26033,-3.861412,5630.0,20,5834,3.8614501199862876,3.3,5.0,20,20853,4.05846640771112,3.5,4.5,20,1337,4.290875093492895,2.8,5.0,20,455,4.188351648351648,2.5,5.0,35,1205,3.8284647302904564,1.0,5.0
908,Moralzarzal,40.68117,-3.97335,14504.0,20,3541,4.26469923750353,3.6,5.0,20,17951,4.388697008523203,3.5,4.9,20,1185,3.8536708860759497,1.8,5.0,20,123,4.805691056910569,4.5,5.0,31,454,3.6894273127753303,1.0,5.0
915,Morata de Tajuña,40.22751,-3.436966,8294.0,2,41,4.224390243902438,3.2,4.4,20,16104,4.057563338301043,3.3,5.0,2,52,4.726923076923077,4.6,4.8,5,0,,,,21,11,3.4545454545454546,1.0,5.0
936,Navacerrada,40.72893,-4.0151,3307.0,20,478,4.827196652719666,4.3,5.0,20,23372,4.460371384562725,3.7,4.9,15,509,3.862278978388998,2.6,5.0,20,60,4.845,4.6,5.0,26,342,4.066959064327485,2.3,5.0
941,Navalafuente,40.82451,-3.673573,1703.0,9,362,4.218232044198895,3.9,5.0,20,11396,4.244190944190945,3.8,4.9,10,271,4.257195571955719,3.6,4.8,20,503,4.906361829025845,4.9,5.0,26,15,4.413333333333333,3.0,5.0
954,Navalagamella,40.46916,-4.12338,3119.0,13,441,4.789342403628118,4.5,5.0,20,5007,4.290932694228082,3.6,4.9,6,298,4.08758389261745,3.5,4.8,17,45,4.788888888888888,4.3,5.0,23,14,4.428571428571429,3.0,5.0
967,Navalcarnero,40.28781,-4.013766,32684.0,20,2916,4.5156721536351165,3.8,5.0,20,12745,4.077551981169087,3.2,4.7,20,910,4.2820879120879125,3.5,5.0,20,92,4.6891304347826095,4.4,5.0,23,84,4.291666666666666,2.0,4.5
973,Navarredonda y San Mamés,40.99078,-3.726047,154.0,0,0,,,,16,6029,4.316337701111295,3.3,5.0,2,22,4.663636363636363,4.2,4.8,4,46,5.0,5.0,5.0,24,2,3.0,1.0,5.0
992,Navas del Rey,40.38501,-4.250652,3344.0,5,130,4.71076923076923,4.0,5.0,20,9511,4.346093996425192,3.9,5.0,5,58,4.205172413793103,3.5,4.6,13,1280,4.756796875000001,4.7,5.0,23,42,4.1119047619047615,1.0,5.0
1006,Nuevo Baztán,40.36552,-3.243183,7393.0,4,10,4.6,4.6,4.6,20,5848,3.9558481532147747,3.2,4.8,7,159,4.648427672955975,3.4,4.9,13,19,4.578947368421052,4.5,5.0,22,8,3.375,3.0,5.0
1013,Olmeda de las Fuentes,40.36943,-3.221704,409.0,3,0,,,,20,6223,4.003374578177729,3.2,4.8,7,132,4.620454545454545,3.4,4.9,12,29,4.724137931034483,4.5,5.0,22,9,3.5555555555555554,3.0,5.0
1028,Orusco de Tajuña,40.28515,-3.208557,1504.0,1,0,,,,11,3328,4.490474759615384,3.5,5.0,5,88,4.902272727272728,4.9,5.0,9,2,5.0,5.0,5.0,20,14,4.635714285714286,4.0,5.0
1049,Paracuellos de Jarama,40.50481,-3.53227,27241.0,20,3875,4.30141935483871,3.0,5.0,20,20578,4.052463796287298,2.9,4.9,20,1359,4.323178807947021,3.0,4.8,20,805,4.581366459627329,3.7,5.0,32,2033,3.9540580423020164,2.5,4.5
1071,Patones,40.85573,-3.48511,604.0,3,277,4.356678700361011,3.9,5.0,20,13352,4.190166267225885,3.7,5.0,4,100,4.09,3.7,4.9,13,18,4.905555555555556,4.9,5.0,20,38,4.494736842105263,4.1,5.0
1087,Pedrezuela,40.74369,-3.603798,6475.0,11,550,4.8136363636363635,3.9,5.0,20,12254,4.285645503509058,3.2,4.7,5,195,4.2215384615384615,3.6,4.4,16,178,4.810112359550561,4.3,5.0,27,22,4.468181818181819,3.0,5.0
1090,Pelayos de la Presa,40.35954,-4.334138,3106.0,9,178,4.899438202247191,4.0,5.0,20,13393,4.167206749794668,1.5,5.0,5,221,3.9714932126696834,1.0,4.4,12,140,4.503571428571429,4.5,5.0,21,31,3.916129032258065,1.0,5.0
1104,Perales de Tajuña,40.23453,-3.352198,3195.0,1,0,,,,16,13669,3.9387958153485987,2.5,5.0,2,68,4.699999999999999,4.7,4.7,3,0,,,,22,19,4.163157894736842,2.0,5.0
1111,Pezuela de las Torres,40.41869,-3.177605,990.0,4,27,4.933333333333333,4.9,5.0,11,2741,4.257059467347683,3.4,4.7,6,125,4.2783999999999995,3.4,4.9,7,11,5.0,5.0,5.0,10,21,4.571428571428571,3.0,5.0
1126,Pinilla del Valle,40.9262,-3.819392,199.0,1,0,,,,20,16429,4.343532777405807,3.4,4.6,3,41,4.190243902439025,3.6,4.7,7,131,4.7,4.7,4.7,21,32,4.459375,2.0,5.0
1147,Piñuécar-Gandullas,41.03265,-3.599468,185.0,2,0,,,,20,15604,4.130447321199692,3.0,4.7,5,54,2.925925925925926,2.6,5.0,10,53,5.0,5.0,5.0,35,70,4.462857142857143,2.0,5.0
1163,Pozuelo del Rey,40.36622,-3.321994,1302.0,9,260,4.201153846153846,3.5,5.0,20,4567,4.063849354061748,3.2,4.8,10,263,4.480608365019012,3.5,4.9,14,34,4.658823529411765,4.5,5.0,23,8,3.6375,1.0,5.0
1179,Prádena del Rincón,41.04411,-3.540921,139.0,1,0,,,,15,6246,4.453666346461736,3.8,4.8,2,4,5.0,5.0,5.0,2,7,5.0,5.0,5.0,29,31,4.670967741935484,2.0,5.0
1185,Puebla de la Sierra,41.01208,-3.444847,93.0,0,0,,,,1,64,4.7,4.7,4.7,0,0,,,,1,0,,,,1,0,,,
9020,Puentes Viejas,40.99496,-3.550907,774.0,0,0,,,,12,3873,4.505344694035631,4.0,4.8,1,15,5.0,5.0,5.0,1,7,5.0,5.0,5.0,29,7,4.714285714285714,4.0,5.0
1198,Quijorna,40.42656,-4.057429,3987.0,20,1459,4.4565455791638104,3.6,5.0,20,13290,4.277494356659142,3.1,4.5,12,707,4.354738330975955,3.0,4.9,20,493,4.566125760649087,4.2,5.0,25,8,4.25,1.0,5.0
1202,Rascafría,40.90381,-3.879398,1712.0,1,0,,,,20,17725,4.401528913963328,3.8,4.7,2,30,4.15,3.6,4.7,3,0,,,,21,38,4.436842105263158,2.0,5.0
1219,Redueña,40.8163,-3.603684,292.0,13,963,4.565524402907581,3.9,5.0,20,17534,4.06401277517965,3.8,4.9,8,227,3.9533039647577093,3.6,4.4,16,4,5.0,5.0,5.0,27,25,3.7560000000000002,1.0,5.0
1224,Ribatejada,40.6665,-3.392131,911.0,18,1027,4.713242453748784,2.8,5.0,20,5662,4.026368774284705,3.2,5.0,17,573,4.4357766143106465,3.5,5.0,20,50,4.904,4.7,5.0,24,17,4.241176470588235,3.5,5.0
1245,Robledillo de la Jara,40.95299,-3.525749,132.0,1,0,,,,13,7679,4.363029040239614,4.2,4.6,1,15,5.0,5.0,5.0,0,0,,,,27,14,4.585714285714286,4.0,5.0
1258,Robledo de Chavela,40.50089,-4.238043,4763.0,7,129,4.550387596899225,4.4,5.0,20,6703,4.302401909592719,3.8,4.9,4,90,4.319999999999999,3.9,4.5,6,1,5.0,5.0,5.0,22,32,3.90625,3.0,4.0
1261,Robregordo,41.10658,-3.593292,73.0,0,0,,,,6,3748,4.113393810032017,3.8,4.6,0,0,,,,2,7,5.0,5.0,5.0,24,11,4.636363636363637,3.0,5.0
1283,Rozas de Puerto Real,40.31007,-4.490765,581.0,2,10,3.88,1.0,4.6,20,5547,4.225725617450874,3.9,5.0,3,48,2.725,2.0,3.3,10,4,4.8,4.8,4.8,22,9,4.344444444444445,3.0,5.0
1296,San Agustín del Guadalix,40.67867,-3.615861,13849.0,15,486,4.684567901234568,3.0,5.0,20,15408,4.125681464174455,3.0,4.7,6,381,3.490551181102362,2.6,5.0,14,263,4.82851711026616,4.2,5.0,21,20,4.090000000000001,2.3,5.0
1300,San Fernando de Henares,40.42553,-3.536694,38969.0,20,68031,4.290248563155032,3.5,5.0,20,30547,4.177366026123678,3.4,4.6,20,61191,4.297748034841725,3.0,5.0,20,682,4.585923753665688,3.7,5.0,58,4669,3.987149282501606,1.0,5.0
1317,San Lorenzo de El Escorial,40.59167,-4.149123,18772.0,20,907,4.718853362734289,4.0,5.0,20,29089,4.136113307435799,3.2,4.9,12,501,4.406986027944111,3.6,5.0,20,176,4.403977272727272,3.9,5.0,25,390,3.9815384615384612,1.0,5.0
1322,San Martín de la Vega,40.2078,-3.568544,20664.0,14,756,4.249603174603174,3.6,5.0,20,15106,3.559095723553556,2.0,4.6,11,410,3.8641463414634147,3.3,5.0,20,420,4.576428571428571,3.0,5.0,21,116,2.872413793103448,2.8,5.0
1338,San Martín de Valdeiglesias,40.36174,-4.397521,9120.0,9,178,4.899438202247191,4.0,5.0,20,10187,4.1978305683714545,3.9,5.0,5,221,3.9714932126696834,1.0,4.4,12,140,4.503571428571429,4.5,5.0,21,36,4.041666666666667,3.0,4.7
1356,Santa María de la Alameda,40.5957,-4.257937,1516.0,4,40,4.907500000000001,4.9,5.0,20,9860,4.286166328600406,2.0,5.0,4,59,4.079661016949152,3.3,4.8,9,5,3.8,3.8,3.8,23,113,4.260176991150442,4.0,5.0
1369,Santorcaz,40.47216,-3.233114,998.0,13,447,4.30648769574944,3.9,5.0,20,8544,4.294487359550562,3.4,4.6,8,154,4.323376623376623,3.4,5.0,10,27,4.777777777777778,4.4,5.0,21,22,3.8681818181818177,1.0,5.0
1375,Santos de la Humosa (Los),40.50191,-3.254799,2797.0,16,891,4.6707070707070715,4.0,5.0,20,17302,4.175465264131316,3.7,4.6,10,280,4.276785714285714,3.4,5.0,19,220,4.463636363636363,3.5,5.0,25,272,3.047794117647059,1.0,5.0
1381,Serna del Monte (La),41.02979,-3.625026,105.0,1,0,,,,20,15305,4.017236197321137,2.8,4.7,3,53,2.8867924528301887,2.6,5.0,9,53,5.0,5.0,5.0,33,63,4.428571428571429,3.0,5.0
1408,Serranillos del Valle,40.20465,-3.885819,4632.0,20,1397,4.3405869720830355,3.9,5.0,20,14464,4.299038993362832,2.8,4.8,19,567,4.52962962962963,4.1,5.0,20,190,4.663684210526316,4.3,5.0,21,10,3.5,1.0,5.0
1415,Sevilla la Nueva,40.34781,-4.027501,9694.0,20,1820,4.756428571428572,4.0,5.0,20,10955,4.299388407120037,3.1,4.7,20,942,4.376433121019109,3.7,5.0,20,196,4.728571428571429,3.0,4.8,25,14,3.6357142857142857,1.0,5.0
1436,Somosierra,41.13312,-3.581837,98.0,1,0,,,,7,7198,4.050319533203667,3.9,4.6,0,0,,,,1,0,,,,17,10,4.5,3.0,5.0
1441,Soto del Real,40.75428,-3.783356,9436.0,14,396,4.636616161616161,4.0,5.0,20,15849,4.280976717773991,3.4,4.7,6,278,4.220143884892087,3.7,4.6,14,258,4.908527131782946,4.8,5.0,20,10,4.1,3.0,5.0
1454,Talamanca de Jarama,40.74688,-3.513244,4526.0,11,709,4.729196050775741,3.5,5.0,20,13224,4.2366984271022385,3.2,4.7,9,352,4.375852272727272,4.0,4.8,18,191,4.81413612565445,4.3,5.0,24,29,4.203448275862069,2.7,5.0
1467,Tielmes,40.24457,-3.314466,2807.0,2,1,5.0,5.0,5.0,20,17941,4.095931107519091,2.5,5.0,5,114,4.732456140350878,4.7,5.0,5,0,,,,22,20,4.1049999999999995,2.0,5.0
1473,Titulcia,40.13673,-3.570501,1393.0,10,312,4.511858974358975,1.7,5.0,20,9791,4.1429067510979465,3.0,4.6,9,376,4.137765957446808,2.5,4.7,18,337,4.81246290801187,4.0,5.0,21,223,2.8269058295964125,2.8,5.0
1492,Torrejón de la Calzada,40.20154,-3.798929,10366.0,20,4303,4.161003950732046,3.6,5.0,20,14472,4.050096738529575,3.5,5.0,20,1051,4.09895337773549,1.4,5.0,20,353,4.7954674220963165,3.8,5.0,23,510,3.074117647058824,1.0,5.0
1505,Torrejón de Velasco,40.18713,-3.778751,4887.0,20,4283,4.163997198225542,3.6,5.0,20,16562,4.0094010385219185,3.3,5.0,20,1215,4.051769547325104,1.4,5.0,20,394,4.778426395939087,3.8,5.0,22,416,3.2475961538461537,3.0,5.0
1512,Torrelaguna,40.82785,-3.538488,4992.0,7,381,4.411023622047244,3.5,5.0,20,16039,4.082093646736081,3.3,5.0,8,193,4.0093264248704665,3.6,4.9,14,18,4.905555555555556,4.9,5.0,23,16,4.9375,4.5,5.0
1527,Torrelodones,40.57628,-3.929452,25250.0,20,686,4.876093294460642,4.4,5.0,20,19515,4.301147834998719,3.5,4.7,20,545,4.100183486238532,2.0,5.0,20,371,4.811320754716981,4.2,5.0,35,402,2.9977611940298505,1.3,5.0
1533,Torremocha de Jarama,40.83705,-3.494407,1134.0,5,288,4.35,3.5,5.0,20,14230,4.199009135628953,3.7,4.9,5,166,4.054216867469879,3.7,4.9,13,18,4.905555555555556,4.9,5.0,20,12,4.916666666666667,4.5,5.0
1548,Torres de la Alameda,40.40473,-3.360132,7742.0,20,1608,4.518097014925374,3.0,5.0,20,8126,4.300529165641152,3.6,5.0,12,527,4.2660341555977235,2.3,4.9,20,54,4.348148148148148,3.7,5.0,25,7,3.2857142857142856,1.0,5.0
1551,Valdaracete,40.21115,-3.194556,653.0,0,0,,,,6,2411,4.521360431356283,3.5,5.0,3,18,4.905555555555556,4.9,5.0,5,0,,,,21,10,4.59,4.0,5.0
1564,Valdeavero,40.63099,-3.332983,1817.0,10,307,4.554071661237786,2.8,5.0,20,2742,4.194310722100657,3.6,5.0,14,311,4.510610932475885,3.5,5.0,17,59,5.0,5.0,5.0,22,17,4.0588235294117645,1.0,5.0
1570,Valdelaguna,40.16192,-3.367249,1079.0,11,80,4.441249999999999,3.7,5.0,20,24179,4.275123040655114,3.6,4.7,7,105,4.196190476190476,3.2,5.0,15,19,4.605263157894737,4.5,5.0,21,0,,,
1586,Valdemanco,40.87252,-3.662956,1065.0,5,275,4.261818181818182,4.0,5.0,20,18020,4.13723640399556,3.8,4.6,8,205,4.025853658536586,3.6,4.9,11,0,,,,25,12,4.333333333333333,3.5,5.0
1599,Valdemaqueda,40.51147,-4.295926,836.0,4,96,4.445833333333334,4.4,4.6,20,5663,4.245364647713226,2.6,4.9,4,92,4.477173913043478,4.3,4.8,5,1,5.0,5.0,5.0,23,100,4.141,4.0,5.0
1603,Valdemorillo,40.50208,-4.065841,14139.0,14,1619,4.878875849289685,4.5,5.0,20,4676,4.316060735671515,2.9,5.0,5,283,4.097526501766785,3.5,4.8,16,112,4.178571428571429,3.9,5.0,22,5,4.0,1.0,5.0
1625,Valdeolmos-Alalpardo,40.62949,-3.475017,4579.0,20,895,4.857988826815643,3.3,5.0,20,8123,4.164409700849441,3.2,4.8,14,756,4.477116402116402,3.5,4.9,20,131,4.933587786259541,4.5,5.0,27,18,4.405555555555556,1.0,5.0
1631,Valdepiélagos,40.76059,-3.465914,623.0,10,357,4.481512605042017,3.5,5.0,20,7514,4.191482565877029,3.3,5.0,8,262,4.443893129770992,4.0,5.0,12,51,4.7666666666666675,4.7,4.9,22,42,4.266666666666667,2.7,5.0
1646,Valdetorres de Jarama,40.69559,-3.514251,5050.0,12,544,4.500919117647059,4.0,5.0,20,10130,4.07573543928924,3.2,4.6,12,604,4.543708609271522,3.8,5.0,15,171,4.795321637426901,4.7,5.0,21,17,4.217647058823529,3.0,5.0
1659,Valdilecha,40.29548,-3.303884,3228.0,1,1,5.0,5.0,5.0,17,7784,4.178083247687564,2.5,5.0,2,89,4.699999999999999,4.7,4.7,3,0,,,,20,12,3.4250000000000003,1.0,5.0
1662,Valverde de Alcalá,40.41972,-3.298921,555.0,17,1177,4.476890399320306,2.3,5.0,20,6850,4.377372262773722,3.8,5.0,11,351,4.339316239316239,2.3,5.0,20,33,4.654545454545455,3.7,5.0,25,14,4.1571428571428575,2.7,5.0
1678,Velilla de San Antonio,40.36703,-3.488029,14008.0,20,2793,4.365377730039384,3.7,5.0,20,19627,3.960819279563866,3.4,4.7,20,12630,4.105384006334125,3.1,5.0,20,697,4.345911047345767,3.8,5.0,29,427,3.6559718969555037,1.0,5.0
1684,Vellón (El),40.76603,-3.582034,2160.0,12,778,4.716966580976864,4.1,5.0,20,12516,4.240244487056568,3.2,4.7,8,258,4.353875968992248,3.6,4.8,18,178,4.810112359550561,4.3,5.0,27,10,4.1,2.0,5.0
1697,Venturada,40.79869,-3.622139,2577.0,11,717,4.553417015341701,3.9,5.0,20,9273,4.143491858082605,3.8,4.9,10,260,4.380769230769231,3.6,4.8,19,54,4.964814814814815,4.9,5.0,29,32,3.909375,1.0,5.0
1718,Villa del Prado,40.27678,-4.305642,7424.0,3,198,3.847979797979798,3.3,5.0,20,4725,4.195640211640212,2.4,5.0,4,156,4.360256410256411,3.4,4.8,7,22,4.954545454545454,4.5,5.0,21,14,4.021428571428571,3.6,5.0
1701,Villaconejos,40.10424,-3.484903,3487.0,5,73,4.423287671232877,3.7,5.0,20,11211,4.397814646329498,3.5,5.0,4,63,4.066666666666666,1.0,4.6,5,4,5.0,5.0,5.0,20,9,4.211111111111111,3.0,5.0
1723,Villalbilla,40.43228,-3.298869,17967.0,20,1524,4.4086614173228345,2.3,5.0,20,7362,4.368160825862536,3.8,5.0,12,380,4.2905263157894735,2.3,5.0,20,60,4.4799999999999995,3.7,5.0,25,15,4.213333333333334,2.7,5.0
1739,Villamanrique de Tajo,40.06812,-3.240428,820.0,0,0,,,,1,307,4.5,4.5,4.5,1,17,3.7,3.7,3.7,1,0,,,,6,0,,,
1744,Villamanta,40.29961,-4.110051,2855.0,5,251,4.860159362549801,4.8,4.9,9,3137,4.347529486770799,4.1,5.0,5,92,4.331521739130435,3.2,5.0,11,120,4.086666666666667,3.0,5.0,23,13,4.230769230769231,1.0,5.0
1757,Villamantilla,40.33805,-4.13056,1620.0,6,234,4.803846153846154,3.0,4.9,17,5523,4.268676443961614,3.9,5.0,4,58,3.7586206896551726,3.2,5.0,13,120,4.086666666666667,3.0,5.0,24,23,4.247826086956521,1.0,5.0
1760,Villanueva de la Cañada,40.44681,-4.005355,23714.0,20,1343,4.430677587490693,3.5,5.0,20,11195,4.260026797677535,3.1,4.6,18,983,4.2153611393692785,3.0,4.9,20,597,4.564824120603014,4.2,5.0,27,26,4.473076923076923,3.0,5.0
1782,Villanueva de Perales,40.34705,-4.101031,1718.0,10,383,4.867624020887728,4.8,5.0,20,6148,4.293510084580351,3.1,5.0,10,192,4.1375,3.2,5.0,20,271,4.484132841328413,3.0,5.0,24,10,3.9,1.0,5.0
1776,Villanueva del Pardillo,40.49063,-3.964322,17994.0,20,3680,4.50195652173913,3.5,5.0,20,12326,4.017783546973877,2.5,4.6,20,1016,4.103346456692913,2.0,4.9,20,325,4.7092307692307696,3.0,4.9,25,13,3.923076923076923,3.0,5.0
1795,Villar del Olmo,40.33669,-3.235551,2274.0,4,0,,,,20,5735,3.9342632955536176,3.2,4.8,6,112,4.571428571428571,3.4,5.0,12,18,4.555555555555555,4.5,5.0,22,9,3.4444444444444446,3.0,5.0
1809,Villarejo de Salvanés,40.16873,-3.275975,7887.0,4,141,4.657446808510638,4.3,4.9,20,5276,4.325322213798333,2.8,4.7,5,70,4.618571428571428,4.0,5.0,8,22,5.0,5.0,5.0,22,11,4.0,1.0,5.0
1816,Villaviciosa de Odón,40.3571,-3.90059,29294.0,20,5433,4.121369409166206,3.6,5.0,20,29705,4.137700723783874,3.4,4.6,20,30173,4.202462466443509,3.5,4.9,20,210,4.755238095238095,1.0,5.0,44,1957,3.8469596320899337,2.0,5.0
1821,Villavieja del Lozoya,41.00592,-3.671118,327.0,1,0,,,,20,18655,4.109675690163495,3.0,4.9,4,70,3.3514285714285714,2.6,5.0,8,46,5.0,5.0,5.0,32,118,4.5177966101694915,3.0,5.0
1837,Zarzalejo,40.54749,-4.181604,1870.0,20,681,4.905286343612334,3.3,5.0,20,24261,4.287679815341495,3.2,4.9,13,467,4.5139186295503215,3.9,5.0,20,133,4.257894736842105,3.9,4.8,26,409,3.9410757946210273,3.0,5.0
